# LAS format log file from PETREL
# Project units are specified as depth units
#==================================================================
~Version information
VERS.   2.0:
WRAP.   NO:
#==================================================================
~Well
STRT .ft 5039.0000000         :
STOP .ft 7236.0000000         :
STEP .ft 0.50000000           :
NULL .   -999.250000          :
COMP.                         : COMPANY
WELL.    CCS1                 : WELL
FLD.                          : FIELD
LOC.                          : LOCATION
SRVC.                         : SERVICE COMPANY
DATE.    2020-07-27 11:17:06  : Log Export Date {yyyy-MM-dd HH:mm:ss}
PROV.                         : PROVINCE
UWI.     121152341500         : UNIQUE WELL ID
API.     121152341500         : API NUMBER
#==================================================================
~Curve
DEPT .ft                   : DEPTH
HCAL .in                  : HCAL
HTNP .ft3/ft3             : HTNP
PEFZ .b/e                 : PEFZ
RHOZ .g/cm3               : RHOZ
RLA2 .ohm.m               : RLA2
RLA3 .ohm.m               : RLA3
RLA4 .ohm.m               : RLA4
RLA5 .ohm.m               : RLA5
RXOZ .ohm.m               : RXOZ
Gamma .gAPI               : Gamma
DTCO .us/ft               : DTCO
DTSM .us/ft               : DTSM
~Parameter
#==================================================================
~Ascii
# ...
 6935.0000000 12.232620239 0.1254500002 2.6096599102 2.4042398930 1.9750299454 2.0176999569 2.0015099049 1.9793499708 3.2690498829 93.484626770 73.045402527 137.84660339
 6935.5000000 12.178150177 0.1283500046 2.5737800598 2.3834500313 1.5965100527 1.6138299704 1.5967400074 1.5835499763 2.5681200027 89.395492554 72.647300720 138.54629517
 6936.0000000 12.204110146 0.1407500058 2.5461099148 2.3651900291 1.5688099861 1.5793000460 1.5674500465 1.5594500303 2.2075200081 86.599212646 72.860496521 137.15879822
 6936.5000000 12.192060471 0.1472900063 2.5338099003 2.3640699387 1.6179100275 1.6350799799 1.6291300058 1.6287000179 2.2537400723 86.050392151 73.874801636 136.48989868
 6937.0000000 12.219659805 0.1505399942 2.5370299816 2.3768401146 1.7431900501 1.7690999508 1.7703100443 1.7810699940 2.4541900158 89.504280090 74.601600647 137.64059448
 6937.5000000 12.216090202 0.1478600055 2.5496799946 2.3909800053 1.7644499540 1.8061800003 1.8100899458 1.8370699883 2.4357700348 92.302177429 74.648002625 140.28460693
 6938.0000000 12.174839973 0.1488599926 2.5646700859 2.3974699974 1.7457100153 1.7934999466 1.7971899509 1.8420599699 2.5179901123 96.675140381 74.155403137 142.22650146
 6938.5000000 12.258319855 0.1452800035 2.5874500275 2.3977301121 1.8611500263 1.9433799982 1.9496899843 2.0169401169 2.6187899113 98.873207092 74.154701233 142.64070129
 6939.0000000 12.219869614 0.1434399933 2.6042299271 2.3926799297 1.8355100155 1.9184399843 1.9299299717 2.0079300404 2.8109200001 98.911132813 73.932601929 141.98129272
 6939.5000000 12.226010323 0.1337500066 2.6054298878 2.3819499016 1.7636100054 1.8318799734 1.8556499481 1.9426200390 2.6629800797 94.580657959 73.829902649 140.57640076
 6940.0000000 12.214799881 0.1281200051 2.5908200741 2.3674199581 1.6078399420 1.6626199484 1.6968400478 1.7769399881 2.4362800121 91.682136536 73.724197388 139.59950256
 6940.5000000 12.230349541 0.1277000010 2.5640900135 2.3585801125 1.5047299862 1.5476499796 1.5838799477 1.6586600542 2.2491099834 90.194656372 73.832496643 139.09640503
 6941.0000000 12.242589951 0.1304800063 2.5606000423 2.3522100449 1.4831299782 1.5340900421 1.5715299845 1.6454700232 2.1160800457 91.184127808 74.690200806 139.28230286
 6941.5000000 12.211540222 0.1356900036 2.5449299812 2.3640298843 1.4910399914 1.5433700085 1.5834499598 1.6584600210 2.1665101051 92.455192566 75.322502136 140.05050659
 6942.0000000 12.286769867 0.1421100050 2.5214600563 2.3802399635 1.5161499977 1.5830399990 1.6230299473 1.6982599497 2.2096199989 93.199462891 75.659896851 141.42979431
 6942.5000000 12.261119843 0.1473599970 2.4954800606 2.3940799236 1.5907900333 1.6674400568 1.7114800215 1.7789900303 2.3704099655 92.229103088 75.631896973 142.73689270
 6943.0000000 12.294589996 0.1482200027 2.4863998890 2.3877599239 1.5513199568 1.6309200525 1.6764899492 1.7277599573 2.3708300591 87.040061951 75.489501953 143.30549622
 6943.5000000 12.219249725 0.1427299976 2.4725399017 2.3734900951 1.4600199461 1.5364799500 1.5817400217 1.6154500246 2.3200299740 79.436981201 75.441299438 143.17520142
 6944.0000000 12.250160217 0.1429100037 2.4398899078 2.3622100353 1.3767999411 1.4509600401 1.4983400106 1.5179599524 2.1143701077 72.989891052 75.750000000 142.90159607
 6944.5000000 12.245349884 0.1430400014 2.3854999542 2.3653900623 1.3131500483 1.3829400539 1.4285000563 1.4342199564 1.9363299608 71.086273193 75.701698303 142.32640076
 6945.0000000 12.232780457 0.1460600048 2.3636200428 2.3656499386 1.2826700211 1.3531399965 1.3929200172 1.3864500523 1.8397899866 71.483772278 75.313301086 141.17109680
 6945.5000000 12.237739563 0.1439599991 2.3589301109 2.3614299297 1.2559800148 1.3266500235 1.3537100554 1.3417999744 1.7527400255 71.129112244 74.939201355 139.55029297
 6946.0000000 12.262399673 0.1448899955 2.3706998825 2.3535900116 1.2564300299 1.3248699903 1.3384300470 1.3256900311 1.7057399750 68.627197266 75.116798401 138.51780701
 6946.5000000 12.208140373 0.1505099982 2.3690800667 2.3476600647 1.2886699438 1.3576699495 1.3591699600 1.3474899530 1.6829600334 68.251838684 75.252998352 138.78700256
 6947.0000000 12.216799736 0.1470600069 2.3651099205 2.3472299576 1.3037300110 1.3667199612 1.3560299873 1.3418899775 1.7304199934 70.104980469 75.629798889 139.87780762
 6947.5000000 12.237600327 0.1495700032 2.3687300682 2.3494999409 1.3333899975 1.3864799738 1.3722399473 1.3610999584 1.7854199409 72.908653259 75.778701782 141.59269714
 6948.0000000 12.211979866 0.1527000070 2.3704299927 2.3569500446 1.3676799536 1.4083100557 1.3969800472 1.3879899979 1.8423000574 73.283958435 75.365699768 142.27239990
 6948.5000000 12.227749825 0.1579499990 2.3694798946 2.3636100292 1.3577400446 1.3869600296 1.3796600103 1.3730900288 1.8092099428 74.816802979 75.486999512 142.11410522
 6949.0000000 12.221630096 0.1567600071 2.3795700073 2.3685100079 1.3625400066 1.3880800009 1.3849200010 1.3857100010 1.7891199589 76.358978271 75.569801331 141.64889526
 6949.5000000 12.197050095 0.1602399945 2.4097399712 2.3823099136 1.4700800180 1.4900100231 1.4899100065 1.5064899921 1.9910999537 81.678588867 76.383003235 141.18280029
 6950.0000000 12.205479622 0.1643400043 2.4802699089 2.4141600132 1.9550900459 2.0067598820 2.0271899700 2.0792601109 2.4375500679 88.279228210 76.546997070 141.09770203
 6950.5000000 12.186929703 0.1559599936 2.6001999378 2.4617199898 2.0647900105 2.0876700878 2.1057600975 2.1815800667 3.0777499676 101.92050171 76.375801086 142.86340332
 6951.0000000 12.233019829 0.1454900056 2.7630500793 2.5032100677 2.8360700607 2.9757699966 3.0327100754 3.2239699364 4.3378009796 118.82180023 74.632598877 145.73129272
 6951.5000000 12.189470291 0.1343899965 2.8674800396 2.5087800026 2.0942099094 2.1689999104 2.1511099339 2.3068900108 5.2784199715 126.20140076 72.674896240 147.32730103
 6952.0000000 12.185930252 0.1312499940 2.8443999290 2.4571099281 1.1230399609 1.1184300184 1.0861200094 1.1776100397 2.9634299278 116.74690247 70.983001709 143.25619507
 6952.5000000 12.263660431 0.1238399968 2.7267398834 2.3804199696 0.9067500234 0.9026600122 0.8743799925 0.9608899951 1.6795699596 98.121742249 71.400001526 132.83959961
 6953.0000000 12.243670464 0.1359400004 2.6091101170 2.3229899406 0.7072499990 0.6812499762 0.6582900286 0.7216600180 1.0509300232 82.002738953 74.375503540 130.95959473
 6953.5000000 12.145759583 0.1616400033 2.5304501057 2.3160200119 0.9330099821 0.8999599814 0.8714799881 0.9499599934 1.0221699476 75.966072083 78.309402466 136.77149963
 6954.0000000 12.200269699 0.1799499989 2.4764399529 2.3331100941 1.0830299854 1.0800499916 1.0563999414 1.1408100128 1.2015999556 74.966407776 82.598098755 153.26040649
 6954.5000000 12.173020363 0.1876000017 2.4409799576 2.3461101055 0.9431200027 0.9527199864 0.9374799728 0.9998900294 1.3939199448 75.588188171 81.339996338 163.17269897
 6955.0000000 12.192680359 0.1828400046 2.4231500626 2.3474299908 0.9812700152 1.0162400007 1.0099999905 1.0705900192 1.3230700493 75.645446777 80.952796936 163.72709656
 6955.5000000 12.128299713 0.1697500050 2.4340600967 2.3467800617 1.0438499451 1.1034200191 1.1147600412 1.1668900251 1.3536100388 74.454536438 79.297096252 157.36219788
 6956.0000000 12.150369644 0.1630499959 2.4606699944 2.3500099182 1.0617100000 1.1555199623 1.2108600140 1.2474100590 1.5196499825 74.742942810 78.976898193 152.49040222
 6956.5000000 12.110440254 0.1696099937 2.5295300484 2.3502299786 1.0882899761 1.1846799850 1.2817599773 1.3051500320 1.8704400063 77.025588989 78.567802429 149.54229736
 6957.0000000 12.097000122 0.1690800041 2.6261100769 2.3415100574 1.0306799412 1.1221899986 1.2183799744 1.2360600233 1.7136399746 78.824089050 76.876800537 148.57679749
 6957.5000000 12.046710014 0.1518300027 2.7203099728 2.3362898827 0.8665500283 0.9377599955 1.0097999573 1.0204000473 1.4686299562 78.721450806 75.144996643 148.03120422
 6958.0000000 12.012700081 0.1404599994 2.7885599136 2.3269898891 0.8162000179 0.8822199702 0.9404900074 0.9468200207 1.2107800245 77.819038391 74.881698608 146.16830444
 6958.5000000 12.017880440 0.1411900073 2.8140499592 2.3201100826 0.7551800013 0.8072199821 0.8575900197 0.8631600142 1.1551100016 77.496032715 75.045303345 142.60350037
