# LAS format log file from PETREL
# Project units are specified as depth units
#==================================================================
~Version information
VERS.   2.0:
WRAP.   NO:
#==================================================================
~Well
STRT .ft 5039.0000000         :
STOP .ft 7236.0000000         :
STEP .ft 0.50000000           :
NULL .   -999.250000          :
COMP.                         : COMPANY
WELL.    CCS1                 : WELL
FLD.                          : FIELD
LOC.                          : LOCATION
SRVC.                         : SERVICE COMPANY
DATE.    2020-07-27 11:17:06  : Log Export Date {yyyy-MM-dd HH:mm:ss}
PROV.                         : PROVINCE
UWI.     121152341500         : UNIQUE WELL ID
API.     121152341500         : API NUMBER
#==================================================================
~Curve
DEPT .ft                   : DEPTH
HCAL .in                  : HCAL
HTNP .ft3/ft3             : HTNP
PEFZ .b/e                 : PEFZ
RHOZ .g/cm3               : RHOZ
RLA2 .ohm.m               : RLA2
RLA3 .ohm.m               : RLA3
RLA4 .ohm.m               : RLA4
RLA5 .ohm.m               : RLA5
RXOZ .ohm.m               : RXOZ
Gamma .gAPI               : Gamma
DTCO .us/ft               : DTCO
DTSM .us/ft               : DTSM
~Parameter
#==================================================================
~Ascii
# ...
 5759.0000000 12.320830345 0.0600599982 2.2671799660 2.4790298939 3.5259699821 3.8378300667 3.7798299789 3.6051299572 3.4360399246 54.285888672 62.449199677 104.41850281
 5759.5000000 12.324009895 0.0738200024 2.2271199226 2.4775500298 3.4223101139 3.7004499435 3.6512300968 3.4891500473 3.1678900719 42.470630646 63.018100739 106.49099731
 5760.0000000 12.296959877 0.0739400014 2.2051100731 2.4757800102 3.4901900291 3.7222299576 3.7057099342 3.5463700294 3.3373999596 35.062500000 63.475299835 107.80090332
 5760.5000000 12.296990395 0.0642499998 2.1912100315 2.4749701023 3.5748999119 3.7673799992 3.7683000565 3.6349599361 3.5050199032 33.739841461 63.162799835 107.56700134
 5761.0000000 12.349519730 0.0552100018 2.1515300274 2.4779200554 3.3301100731 3.4776699543 3.4800200462 3.3831999302 3.3974900246 32.971401215 62.609199524 105.79029846
 5761.5000000 12.381380081 0.0537800007 2.1235198975 2.4775500298 3.1196599007 3.2538299561 3.2661199570 3.1978099346 3.0048899651 34.337158203 62.293800354 104.26969910
 5762.0000000 12.372480392 0.0589599982 2.1298599243 2.4718999863 3.0051999092 3.1516699791 3.1807799339 3.1631000042 2.7013800144 34.663089752 62.387100220 104.66400146
 5762.5000000 12.338129997 0.0645399988 2.1451900005 2.4763000011 3.1638898849 3.3485600948 3.4076199532 3.4447100163 2.6707201004 37.761108398 63.125198364 106.44349670
 5763.0000000 12.381690025 0.0726099983 2.1639699936 2.4901700020 3.7311298847 4.0074200630 4.1398801804 4.2312598228 2.9997100830 42.551280975 63.778999329 108.74379730
 5763.5000000 12.458829880 0.0711700022 2.1824500561 2.5095100403 4.6170501709 5.0120902061 5.2230200768 5.3969688416 3.9435300827 46.674209595 64.652198792 110.32430267
 5764.0000000 12.385820389 0.0685800016 2.1851699352 2.5238699913 5.4283299446 5.9603810310 6.2176899910 6.4916710854 5.2502598763 47.163860321 63.360698700 110.79170227
 5764.5000000 12.357489586 0.0617499985 2.1860299110 2.5280499458 6.2421698570 6.7743401527 7.0891289711 7.4605798721 7.1509299278 42.450458527 62.674098969 109.92410278
 5765.0000000 12.338950157 0.0535300002 2.1696600914 2.5252099037 6.7048897743 7.3523402214 7.6806101799 8.1947097778 8.2440586090 41.297969818 62.051601410 108.10949707
 5765.5000000 12.332099915 0.0459600016 2.1651000977 2.5094399452 5.7241997719 6.1679701805 6.4134497643 6.8952198029 6.9625201225 45.966339111 60.587799072 106.09339905
 5766.0000000 12.339539528 0.0426100008 2.1514899731 2.4908699989 3.9877099991 4.1340699196 4.2278800011 4.5386400223 4.4486598969 49.662670135 60.571800232 104.23670197
 5766.5000000 12.317420006 0.0472000018 2.1224699020 2.4824199677 3.6073000431 3.7051401138 3.7751500607 4.0319199562 3.5501298904 48.288990021 60.984901428 102.61740112
 5767.0000000 12.351030350 0.0593600012 2.1235098839 2.4759299755 3.4240698814 3.5109200478 3.5343799591 3.7683799267 3.1979799271 43.305091858 61.413101196 102.60780334
 5767.5000000 12.357279778 0.0646400005 2.1702899933 2.4722399712 3.1584599018 3.1947700977 3.1907100677 3.3791399002 3.0506200790 42.199951172 61.746299744 104.09609985
 5768.0000000 12.353010178 0.0660099983 2.2933199406 2.4535300732 2.9641499519 2.9849898815 2.9492399693 3.1088700294 2.8995900154 50.884670258 61.670200348 106.00939941
 5768.5000000 12.339260101 0.0695599988 2.4093799591 2.4417800903 3.0425701141 3.1234300137 3.0887100697 3.2393100262 3.1165699959 65.332527161 62.196601868 106.89009857
 5769.0000000 12.332779884 0.0781999975 2.4871199131 2.4287800789 2.5414400101 2.5959999561 2.5500900745 2.6488399506 2.7216799259 76.638946533 61.966701508 107.48930359
 5769.5000000 12.287369728 0.0897800028 2.4722499847 2.4271500111 2.3662800789 2.4082899094 2.3705298901 2.4358398914 2.4317100048 76.653526306 64.702102661 108.78379822
 5770.0000000 12.277629852 0.1071600020 2.4025599957 2.4312698841 2.4798800945 2.5441999435 2.5230898857 2.5604898930 2.3017899990 67.543807983 66.827697754 112.71309662
 5770.5000000 12.302080154 0.1124100015 2.3281800747 2.4344499111 2.6445300579 2.7306001186 2.7423400879 2.7494900227 2.4550299644 63.314601898 68.294898987 116.73120117
 5771.0000000 12.346630096 0.1053199992 2.3206698895 2.4337899685 2.7009899616 2.8001201153 2.8388900757 2.8165700436 2.7059299946 70.667953491 68.445800781 118.38249969
 5771.5000000 12.334830284 0.0899000019 2.3843700886 2.4370300770 3.2129099369 3.4150300026 3.5310599804 3.4805300236 3.0919499397 83.905921936 67.161796570 118.57939911
 5772.0000000 12.379159927 0.0802699998 2.4510800838 2.4379498959 3.2580199242 3.5623900890 3.6930799484 3.6519498825 3.4690299034 92.804367065 66.484703064 117.19899750
 5772.5000000 12.329079628 0.0773700029 2.4502999783 2.4385199547 2.2481200695 2.4323899746 2.4832799435 2.4423499107 2.7136099339 84.279937744 66.365402222 115.89759827
 5773.0000000 12.308460236 0.0864500031 2.3524498940 2.4281899929 1.9896500111 2.1116700172 2.1220700741 2.0777900219 2.1744298935 65.161880493 66.546096802 115.57520294
 5773.5000000 12.320650101 0.0975399986 2.2262799740 2.4300301075 2.0806200504 2.1880700588 2.1904199123 2.1397199631 1.9603400230 45.138019562 67.132499695 116.04499817
 5774.0000000 12.341380119 0.1015399992 2.1358499527 2.4399499893 2.1822500229 2.2471899986 2.2463901043 2.1859300137 2.0086100101 34.025508881 67.062896729 116.13950348
 5774.5000000 12.325909615 0.0935399979 2.1161301136 2.4505000114 2.2228200436 2.2654600143 2.2604999542 2.1973299980 2.0178699493 30.188840866 66.433799744 115.88790131
 5775.0000000 12.319190025 0.0820100009 2.1190299988 2.4524500370 2.3132300377 2.3720400333 2.3556900024 2.2973599434 2.0593600273 30.722160339 65.118301392 114.16239929
 5775.5000000 12.341449738 0.0751399994 2.1377298832 2.4481101036 2.2643299103 2.4005200863 2.3731300831 2.3299698830 2.0603399277 32.387859344 64.638397217 111.33149719
 5776.0000000 12.371299744 0.0693200007 2.1770100594 2.4469499588 2.1484301090 2.3151500225 2.2923600674 2.2694399357 2.0936899185 37.604629517 64.830398560 111.05680084
 5776.5000000 12.428649902 0.0694300011 2.2539999485 2.4593698978 2.1605300903 2.3338899612 2.3291499615 2.3184800148 2.1652100086 50.269119263 64.917098999 112.90329742
 5777.0000000 12.419879913 0.0714500025 2.3099400997 2.4790201187 2.8051300049 3.0518999100 3.1247200966 3.1153900623 2.8512799740 61.877830505 65.412002563 114.48719788
 5777.5000000 12.432519913 0.0688299984 2.2831199169 2.5079998970 4.3446598053 4.8173298836 5.0092601776 5.0207099915 4.0397710800 62.679721832 66.246299744 114.96140289
 5778.0000000 12.362939835 0.0667600036 2.1908400059 2.5265700817 4.7226300240 5.0745701790 5.2122797966 5.2425189018 5.6359400749 53.044120789 65.722900391 114.18489838
 5778.5000000 12.318610191 0.0666100010 2.1320199966 2.5312800407 4.8269901276 5.1266498566 5.2223811150 5.2717199326 5.2901301384 48.089981079 64.746902466 112.78340149
 5779.0000000 12.319540024 0.0590399988 2.1480200291 2.5178799629 4.8146600723 5.0014300346 5.1208600998 5.1877098083 4.9332199097 52.990470886 62.594501495 111.15270233
 5779.5000000 12.311659813 0.0494000018 2.2139599323 2.5030899048 4.3118801117 4.3985500336 4.4511499405 4.5003190041 4.6086502075 56.166709900 60.998100281 108.97470093
 5780.0000000 12.319620132 0.0517200008 2.2597401142 2.4990699291 4.2644500732 4.3446598053 4.3689398766 4.4271888733 4.2962198257 58.618480682 61.326599121 105.39720154
 5780.5000000 12.319430351 0.0639500022 2.3153998852 2.5130701065 4.5903401375 4.7192602158 4.7298398018 4.7804098129 4.8509798050 68.331207275 62.364898682 103.67369843
 5781.0000000 12.341670036 0.0661500022 2.3760499954 2.5248999596 6.1410298347 6.7113399506 6.7161288261 6.7521800995 6.3162198067 83.945732117 62.409599304 104.85959625
 5781.5000000 12.319470406 0.0635100007 2.4051198959 2.5291700363 6.2527389526 6.9712200165 6.8414602280 6.8433299065 8.1871099472 88.709953308 62.276599884 108.09839630
 5782.0000000 12.311440468 0.0680800006 2.3699200153 2.5155799389 4.9462490082 5.1558699608 4.9408597946 4.8743901253 6.1795401573 75.151367188 62.467700958 109.48609924
 5782.5000000 12.304459572 0.0775199980 2.2941899300 2.5023100376 4.4265799522 4.3732500076 4.1749300957 4.0740499496 4.3750000000 54.311130524 63.057498932 108.74900055
