# LAS format log file from PETREL
# Project units are specified as depth units
#==================================================================
~Version information
VERS.   2.0:
WRAP.   NO:
#==================================================================
~Well
STRT .ft 5039.0000000         :
STOP .ft 7236.0000000         :
STEP .ft 0.50000000           :
NULL .   -999.250000          :
COMP.                         : COMPANY
WELL.    CCS1                 : WELL
FLD.                          : FIELD
LOC.                          : LOCATION
SRVC.                         : SERVICE COMPANY
DATE.    2020-07-27 11:17:06  : Log Export Date {yyyy-MM-dd HH:mm:ss}
PROV.                         : PROVINCE
UWI.     121152341500         : UNIQUE WELL ID
API.     121152341500         : API NUMBER
#==================================================================
~Curve
DEPT .ft                   : DEPTH
HCAL .in                  : HCAL
HTNP .ft3/ft3             : HTNP
PEFZ .b/e                 : PEFZ
RHOZ .g/cm3               : RHOZ
RLA2 .ohm.m               : RLA2
RLA3 .ohm.m               : RLA3
RLA4 .ohm.m               : RLA4
RLA5 .ohm.m               : RLA5
RXOZ .ohm.m               : RXOZ
Gamma .gAPI               : Gamma
DTCO .us/ft               : DTCO
DTSM .us/ft               : DTSM
~Parameter
#==================================================================
~Ascii
 5039.0000000 17.626899719 0.0559309907 2.7591929436 2.6262500286 37.464191437 94.081466675 74.915397644 59.739280701 71.219161987 37.292320251 52.008399963 96.099998474
 5039.5000000 17.626899719 0.0502256788 3.0596549511 2.6991159916 42.085468292 130.47540283 144.69540405 101.58450317 252.73359680 36.500289917 50.039398193 92.924003601
 5040.0000000 17.661050797 0.0599446818 3.2539889812 2.7582759857 44.228771210 156.96600342 246.06120300 167.07620239 402.30801392 34.185489655 49.019500732 88.829299927
 5040.5000000 17.581369400 0.0520712510 3.3125529289 2.7914669514 45.919769287 177.06730652 491.09030151 258.57058716 572.02410889 31.489950180 47.461299896 84.854698181
 5041.0000000 17.778680801 0.0455491282 3.3134739399 2.7951240540 48.442790985 204.18910217 665.83361816 401.56420898 573.28570557 32.120090485 47.212100983 80.694396973
 5041.5000000 17.672439575 0.0427689701 3.3360619545 2.8021850586 50.831169128 233.58689880 814.52947998 527.90307617 89.095657349 34.025371552 47.513301849 80.130699158
 5042.0000000 17.649669647 0.0431104489 3.3482389450 2.8076570034 48.553260803 225.34539795 858.53741455 641.10028076 52.177600861 35.487609863 47.985900879 80.525802612
 5042.5000000 17.642080307 0.0441383496 3.3677299023 2.8366539478 46.270500183 210.75109863 864.19812012 730.39617920 54.034030914 36.664901733 48.433998108 81.096397400
 5043.0000000 17.683820724 0.0439630710 3.4029209614 2.8615078926 49.001308441 227.05990601 971.72332764 819.51348877 474.02499390 37.787769318 48.361499786 81.681503296
 5043.5000000 17.740739822 0.0460959300 3.4470129013 2.8787019253 53.026199341 261.49551392 1078.0360107 835.26208496 1001.0100098 38.215408325 47.243198395 82.658302307
 5044.0000000 17.695209503 0.0439725295 3.4884920120 2.8677270412 49.934421539 248.87600708 1041.0670166 845.60937500 848.63092041 38.031719208 46.801799774 81.766197205
 5044.5000000 17.740739822 0.0402224213 3.4756889343 2.8466019630 46.945518494 217.65910339 918.14422607 768.01470947 709.23791504 38.160068512 46.543098450 82.847702026
 5045.0000000 17.763509750 0.0299855098 3.4611899853 2.8338239193 52.323329926 236.50010681 795.55651855 486.34579468 548.58630371 42.179439545 46.843601227 83.978698730
 5045.5000000 17.748329163 0.0310363695 3.4400401115 2.8309490681 51.990928650 231.07629395 644.30218506 342.65219116 474.42260742 52.252021790 47.473598480 85.054801941
 5046.0000000 17.793859482 0.0364351012 3.4293649197 2.8241670132 52.342109680 223.34890747 553.44647217 273.96859741 471.91149902 62.725601196 48.613800049 87.113098145
 5046.5000000 17.774890900 0.0449524596 3.4316570759 2.8170499802 50.964550018 213.24819946 480.54928589 230.37409973 439.74179077 71.918426514 49.923900604 91.295501709
 5047.0000000 17.774890900 0.0584710613 3.4383130074 2.7807440758 43.785930634 155.00599670 227.82499695 147.21009827 383.65469360 79.187812805 51.484798431 96.305801392
 5047.5000000 17.706590652 0.0755051523 3.4543030262 2.7210190296 39.252529144 108.22470093 92.634483337 68.368179321 63.420810699 94.060333252 53.073101044 101.09120178
 5048.0000000 17.702789307 0.0994541794 3.4437489510 2.6825299263 34.481880188 76.409858704 49.467899323 38.612728119 8.7345571518 113.29910278 55.558101654 105.15489960
 5048.5000000 17.695209503 0.1319006979 3.3867089748 2.6868989468 33.076320648 70.343246460 45.294418335 35.851921082 6.2821378708 125.79699707 59.868499756 108.10489655
 5049.0000000 18.173309326 0.1413435042 3.3021080494 2.7156059742 34.549491882 77.626052856 50.969158173 38.743679047 5.3824319839 124.03369904 61.824501038 109.60019684
 5049.5000000 17.376470566 0.1228590980 3.2397708893 2.7222690582 36.531101227 94.944923401 70.367469788 55.307121277 10.622139931 112.59729767 63.127799988 110.28089905
 5050.0000000 17.649669647 0.0941636488 3.2020149231 2.7039599419 37.040859222 97.694221497 79.337806702 57.129779816 10.105139732 109.52269745 63.061901093 111.84220123
 5050.5000000 17.543420792 0.0908780992 3.1949219704 2.6936089993 39.245239258 106.05319977 91.610282898 63.877708435 20.695850372 106.54299927 62.693901062 115.37290192
 5051.0000000 17.664850235 0.0946904868 3.2227199078 2.7068350315 42.749229431 113.41120148 90.211357117 64.542610168 18.036470413 101.55010223 61.865798950 115.67530060
 5051.5000000 17.672439575 0.1057649031 3.2538249493 2.7235639095 40.105228424 102.60620117 74.446563721 55.038429260 20.905630112 94.104560852 61.405101776 113.35530090
 5052.0000000 17.535839081 0.1134312004 3.2831790447 2.7195630074 36.532741547 90.128967285 70.746597290 51.382171631 20.199220657 96.275970459 61.210399628 112.21559906
 5052.5000000 17.581369400 0.1233713031 3.2775568962 2.7076818943 38.059749603 94.833229065 76.729087830 54.899959564 14.584790230 100.65799713 60.821800232 112.11219788
 5053.0000000 17.558599472 0.1246197969 3.2996079922 2.7037439346 40.296138763 114.77310181 111.37909698 78.932182312 27.325649261 100.90190125 60.510898590 111.30329895
 5053.5000000 17.543420792 0.1058904976 3.3252029419 2.7215490341 40.292030334 124.25440216 139.40240479 95.504592896 33.990390778 99.240211487 59.669498444 110.17230225
 5054.0000000 17.551010132 0.0901296064 3.3762819767 2.7304859161 41.726150513 131.62710571 158.73579407 107.62619781 80.519630432 101.38240051 58.668201447 108.55509949
 5054.5000000 17.569990158 0.0766804665 3.3934609890 2.7374939919 44.954669952 136.03269958 130.50920105 89.631492615 92.374946594 103.19730377 57.225101471 107.90630341
 5055.0000000 17.558599472 0.0868000537 3.3653988838 2.7284889221 46.507881165 126.52220154 99.489196777 70.930450439 96.337852478 106.59799957 56.866401672 107.53970337
 5055.5000000 17.551010132 0.1157374978 3.3444468975 2.7144811153 39.668731689 105.90280151 79.950347900 61.590480804 74.968727112 111.85179901 57.149700165 109.14150238
 5056.0000000 17.520660400 0.1770752966 3.3615210056 2.7009480000 34.103630066 81.452743530 55.945838928 46.175300598 49.723159790 116.83820343 58.738399506 110.34880066
 5056.5000000 17.505479813 0.1890144944 3.4416790009 2.7052609921 35.419139862 76.637603760 57.174251556 42.723430634 25.925939560 118.35289764 61.053199768 112.05449677
 5057.0000000 17.717969894 0.1514146030 3.5051259995 2.7098131180 42.517070770 115.01409912 90.291313171 70.163299561 22.755540848 119.21959686 63.288200378 114.26170349
 5057.5000000 17.588960648 0.1327348948 3.5464880466 2.7228980064 43.534351349 131.03919983 126.18520355 93.474456787 27.618429184 121.27660370 62.231498718 113.45570374
 5058.0000000 17.596549988 0.1486079991 3.5598340034 2.7186999321 42.832530975 134.32850647 140.96350098 103.29720306 66.856987000 123.00759888 60.390399933 111.17369843
 5058.5000000 17.592750549 0.1411221027 3.6199669838 2.7174520493 43.871509552 129.26240540 134.62530518 95.956466675 98.107933044 123.00769806 58.026100159 108.50789642
 5059.0000000 17.558599472 0.0820588991 3.6914050579 2.7163000107 45.373840332 148.47279358 179.99580383 118.05400085 94.510192871 117.60939789 56.611198425 103.51270294
 5059.5000000 17.592750549 0.0497032888 3.8010749817 2.7262198925 44.510318756 152.99450684 234.15139771 152.40679932 91.980499268 104.26239777 54.545101166 101.42739868
 5060.0000000 17.634489059 0.0408311486 3.9547948837 2.7166910172 44.972679138 155.67340088 242.44540405 154.62449646 134.14399719 92.864616394 53.920200348 99.512199402
 5060.5000000 17.680030823 0.0497799106 4.1188278198 2.6958069801 46.748970032 165.87489319 257.00479126 161.66259766 157.66279602 88.536102295 54.228401184 97.136001587
 5061.0000000 17.717969894 0.0603376590 4.3156762123 2.6654739380 47.241981506 163.07789612 233.31030273 146.53250122 141.67300415 91.410087585 53.663799286 97.800300598
 5061.5000000 17.778680801 0.0681451783 4.4043297768 2.6561760902 45.355571747 159.70770264 192.84429932 130.04620361 111.72229767 94.168388367 54.831401825 100.76830292
 5062.0000000 17.729349136 0.0620890483 4.4242310524 2.6566109657 40.338100433 123.06510162 144.71020508 107.21739960 102.06659698 100.00350189 56.420600891 105.61519623
 5062.5000000 17.888719559 0.0455196612 4.3685441017 2.6670839787 42.916809082 129.50970459 128.35130310 93.093887329 93.319946289 106.30030060 57.258899689 112.37719727
