# LAS format log file from PETREL
# Project units are specified as depth units
#==================================================================
~Version information
VERS.   2.0:
WRAP.   NO:
#==================================================================
~Well
STRT .ft 5039.0000000         :
STOP .ft 7236.0000000         :
STEP .ft 0.50000000           :
NULL .   -999.250000          :
COMP.                         : COMPANY
WELL.    CCS1                 : WELL
FLD.                          : FIELD
LOC.                          : LOCATION
SRVC.                         : SERVICE COMPANY
DATE.    2020-07-27 11:17:06  : Log Export Date {yyyy-MM-dd HH:mm:ss}
PROV.                         : PROVINCE
UWI.     121152341500         : UNIQUE WELL ID
API.     121152341500         : API NUMBER
#==================================================================
~Curve
DEPT .ft                   : DEPTH
HCAL .in                  : HCAL
HTNP .ft3/ft3             : HTNP
PEFZ .b/e                 : PEFZ
RHOZ .g/cm3               : RHOZ
RLA2 .ohm.m               : RLA2
RLA3 .ohm.m               : RLA3
RLA4 .ohm.m               : RLA4
RLA5 .ohm.m               : RLA5
RXOZ .ohm.m               : RXOZ
Gamma .gAPI               : Gamma
DTCO .us/ft               : DTCO
DTSM .us/ft               : DTSM
~Parameter
#==================================================================
~Ascii
# ...
 6047.0000000 12.185939789 0.0487499982 2.1334800720 2.4881999493 4.3520498276 4.4921197891 4.4318199158 4.5354499817 4.7175202370 26.186939240 62.350200653 102.52670288
 6047.5000000 12.194230080 0.0500699989 2.1477899551 2.4887299538 4.2364897728 4.3451499939 4.3120698929 4.4586300850 4.6441898346 26.985019684 62.271900177 102.59310150
 6048.0000000 12.180450439 0.0529999994 2.1371700764 2.4946699142 4.0053701401 4.0625801086 4.0381388664 4.2188401222 4.3457899094 27.541580200 62.441898346 102.64640045
 6048.5000000 12.177579880 0.0559699982 2.1258099079 2.5013799667 3.8951900005 3.9255599976 3.9145400524 4.1266798973 4.2589201927 26.447399139 62.544200897 102.61769867
 6049.0000000 12.199760437 0.0580900013 2.1194100380 2.5039100647 4.2379999161 4.2950701714 4.3174099922 4.6107897758 4.5131301880 26.385950089 62.465099335 102.90080261
 6049.5000000 12.208140373 0.0585899986 2.1502799988 2.4946799278 4.4536299706 4.4896798134 4.5227298737 4.9168300629 4.8269300461 28.202730179 62.673900604 103.36660004
 6050.0000000 12.218230247 0.0575300008 2.1724700928 2.4925899506 4.3052401543 4.2916498184 4.3271698952 4.7911710739 4.6930398941 31.744129181 62.463199615 103.03220367
 6050.5000000 12.200110435 0.0644299984 2.1710000038 2.4974799156 4.7013602257 4.7053298950 4.7802700996 5.3812499046 4.7052588463 35.016090393 62.886501312 103.16349792
 6051.0000000 12.196000099 0.0709099993 2.1477999687 2.5102899075 4.7993001938 4.7820401192 4.8264498711 5.5480999947 5.0918898582 35.216838837 64.522399902 105.21109772
 6051.5000000 12.216039658 0.0807399973 2.1377298832 2.5080399513 4.3205099106 4.2698898315 4.2943100929 5.0044198036 5.5352110863 32.843208313 65.307701111 106.69000244
 6052.0000000 12.198109627 0.0836400017 2.1243999004 2.5033700466 3.4151999950 3.3445100784 3.3434600830 3.9181098938 4.8218297958 29.807409286 65.830398560 108.21499634
 6052.5000000 12.193779945 0.0906599984 2.1213200092 2.4922399521 2.9292900562 2.8197300434 2.8391199112 3.3132600784 4.1437501907 27.984609604 65.212997437 108.82109833
 6053.0000000 12.219240189 0.0917500034 2.1463799477 2.4809899330 2.8171401024 2.7302401066 2.7485599518 3.2044100761 3.3835198879 28.891750336 64.765701294 108.57450104
 6053.5000000 12.267049789 0.0922800004 2.1974000931 2.4640300274 2.3756999969 2.2937700748 2.3018898964 2.6712999344 3.0797400475 29.066030502 64.927803040 108.58409882
 6054.0000000 12.312379837 0.0917700008 2.2370500565 2.4482500553 2.2068200111 2.1742699146 2.1881000996 2.5256500244 2.7135300636 29.600040436 65.358703613 108.49420166
 6054.5000000 12.215780258 0.1037999988 2.2437999249 2.4372100830 1.7382899523 1.7247799635 1.7338700294 1.9750800133 2.3508799076 28.416860580 66.437103271 110.51129913
 6055.0000000 12.159029961 0.1099599972 2.2408399582 2.4342899323 1.6941499710 1.6742999554 1.6885999441 1.8950500488 1.9813200235 28.190240860 66.725700378 115.90650177
 6055.5000000 12.159000397 0.1170900017 2.2186999321 2.4405999184 1.9731999636 2.0021700859 2.0457799435 2.2656400204 2.1894800663 27.857259750 67.773696899 119.33149719
 6056.0000000 12.163729668 0.1081999987 2.2147300243 2.4430398941 1.7571099997 1.8142199516 1.8853100538 2.0446600914 2.4610900879 28.081310272 68.414497375 121.88809967
 6056.5000000 12.148980141 0.1022899970 2.2156500816 2.4362099171 1.4706200361 1.5270400047 1.6041599512 1.7074400187 2.2612600327 28.397090912 67.627197266 122.75109863
 6057.0000000 12.148960114 0.0980999991 2.2408299446 2.4150099754 1.2960400581 1.3553199768 1.4305200577 1.4984999895 1.7317700386 27.484800339 67.521003723 122.49829865
 6057.5000000 12.151430130 0.1029499993 2.2467999458 2.3917798996 1.2206300497 1.2884000540 1.3595000505 1.4066900015 1.4069299698 27.614219666 68.505203247 121.07810211
 6058.0000000 12.178380013 0.1104699969 2.2453799248 2.3784201145 1.1737400293 1.2501000166 1.3071199656 1.3410600424 1.2520899773 27.493890762 70.509498596 120.87580109
 6058.5000000 12.173529625 0.1123699993 2.2462201118 2.3735001087 1.2816100121 1.3759800196 1.4238300323 1.4568599463 1.2310700417 28.750259399 72.395301819 124.20410156
 6059.0000000 12.217700005 0.1198100001 2.2569999695 2.3768799305 1.3522499800 1.4572099447 1.4992699623 1.5297900438 1.2536300421 28.373149872 72.743400574 128.39360046
 6059.5000000 12.168519974 0.1243499964 2.2747700214 2.3814899921 1.4227299690 1.5270600319 1.5655200481 1.6006699800 1.3354400396 27.895879745 72.665100098 131.11169434
 6060.0000000 12.168490410 0.1284700036 2.2932600975 2.3845500946 1.4441200495 1.5473500490 1.5855400562 1.6320500374 1.4230899811 26.666870117 72.371002197 131.45199585
 6060.5000000 12.163720131 0.1186899990 2.2849800587 2.3872199059 1.3293800354 1.4146699905 1.4535299540 1.5094900131 1.4306700230 26.395729065 71.435203552 128.64990234
 6061.0000000 12.150850296 0.1149900034 2.2595798969 2.3865199089 1.2773599625 1.3539999723 1.4018599987 1.4739099741 1.3700100183 25.404260635 71.171699524 125.25849915
 6061.5000000 12.133319855 0.1101000011 2.2328100204 2.3860199451 1.3171700239 1.4020899534 1.4619400501 1.5557700396 1.3891299963 25.150989532 71.175903320 124.49150085
 6062.0000000 12.132320404 0.1118500009 2.2341599464 2.3988900185 1.3080600500 1.3815699816 1.4463200569 1.5598000288 1.4857200384 25.861070633 71.057998657 125.34149933
 6062.5000000 12.176770210 0.1092400029 2.2522900105 2.4285900593 1.7100800276 1.7822200060 1.8659499884 2.0575599670 1.7719800472 29.375009537 71.545997620 126.50180054
 6063.0000000 12.226050377 0.1064599976 2.2940700054 2.4645800591 3.1263499260 3.4302299023 3.5961298943 4.0029401779 2.5653998852 32.317848206 72.371299744 126.90789795
 6063.5000000 12.173390388 0.0985699967 2.3266999722 2.4928998947 3.4356501102 3.7301299572 3.7964999676 4.2393097878 4.0404200554 32.424091339 70.646102905 125.80950165
 6064.0000000 12.159219742 0.0849099979 2.3405900002 2.5020899773 3.4495799541 3.6836900711 3.7050199509 4.1286001205 4.8870301247 29.857999802 68.400199890 123.50869751
 6064.5000000 12.182970047 0.0680299997 2.3100399971 2.5033500195 3.5159399509 3.7429099083 3.7535099983 4.1926198006 4.1494998932 27.446399689 65.057296753 119.25319672
 6065.0000000 12.180029869 0.0582300015 2.2867300510 2.4936900139 3.6477301121 3.8428900242 3.8593399525 4.3090200424 4.1412000656 25.482349396 63.177200317 113.21050262
 6065.5000000 12.170339584 0.0549499989 2.2711501122 2.4856700897 3.9613099098 4.0970602036 4.0643200874 4.5303001404 4.0941500664 25.986270905 63.307899475 106.63089752
 6066.0000000 12.150629997 0.0570399985 2.2884500027 2.4807798862 4.2936110497 4.4879198074 4.4625401497 4.9515910149 4.2935299873 26.898880005 63.303901672 104.19259644
 6066.5000000 12.157250404 0.0579099990 2.2874801159 2.4918999672 4.7645001411 4.9640097618 4.9299888611 5.4384088516 5.0170688629 29.406450272 63.325500488 104.56250000
 6067.0000000 12.208160400 0.0620799996 2.3093900681 2.4995601177 5.0874600410 5.4075698853 5.3104400635 5.8429489136 6.5373711586 28.838029861 63.240001678 105.80799866
 6067.5000000 12.240130424 0.0636999980 2.3141300678 2.5059099197 5.7976989746 6.0572600365 5.9471201897 6.4511098862 7.9821000099 27.860330582 63.091598511 106.23829651
 6068.0000000 12.252010345 0.0608300008 2.3038399220 2.5119500160 6.8025698662 7.0103101730 6.9389700890 7.4714088440 7.8683400154 27.378780365 62.903900146 105.31960297
 6068.5000000 12.216580391 0.0573600009 2.2720699310 2.5211400986 7.1202697754 7.2532601357 7.1794900894 7.6799898148 8.1473302841 27.429990768 62.446601868 104.66149902
 6069.0000000 12.220709801 0.0516700000 2.2271299362 2.5364398956 6.7716798782 6.9869999886 6.9868211746 7.3973097801 8.3554897308 27.838190079 61.637100220 104.29049683
 6069.5000000 12.221309662 0.0456500016 2.2156200409 2.5408101082 7.6624698639 7.8697900772 7.9247398376 8.2250299454 9.7428903580 26.553659439 61.477199554 103.77649689
 6070.0000000 12.208160400 0.0399900004 2.2195599079 2.5373001099 8.6382398605 9.0470399857 9.0800600052 9.4268503189 11.645700455 26.064929962 61.483200073 102.80319977
 6070.5000000 12.212240219 0.0379900001 2.2256100178 2.5237801075 6.4206500053 6.5638599396 6.5664210320 6.7556700706 10.457949638 24.488990784 60.807098389 101.97149658
