# LAS format log file from PETREL
# Project units are specified as depth units
#==================================================================
~Version information
VERS.   2.0:
WRAP.   NO:
#==================================================================
~Well
STRT .ft 5039.0000000         :
STOP .ft 7236.0000000         :
STEP .ft 0.50000000           :
NULL .   -999.250000          :
COMP.                         : COMPANY
WELL.    CCS1                 : WELL
FLD.                          : FIELD
LOC.                          : LOCATION
SRVC.                         : SERVICE COMPANY
DATE.    2020-07-27 11:17:06  : Log Export Date {yyyy-MM-dd HH:mm:ss}
PROV.                         : PROVINCE
UWI.     121152341500         : UNIQUE WELL ID
API.     121152341500         : API NUMBER
#==================================================================
~Curve
DEPT .ft                   : DEPTH
HCAL .in                  : HCAL
HTNP .ft3/ft3             : HTNP
PEFZ .b/e                 : PEFZ
RHOZ .g/cm3               : RHOZ
RLA2 .ohm.m               : RLA2
RLA3 .ohm.m               : RLA3
RLA4 .ohm.m               : RLA4
RLA5 .ohm.m               : RLA5
RXOZ .ohm.m               : RXOZ
Gamma .gAPI               : Gamma
DTCO .us/ft               : DTCO
DTSM .us/ft               : DTSM
~Parameter
#==================================================================
~Ascii
# ...
 6647.0000000 12.230349541 0.1169800013 2.3248000145 2.4587600231 2.7016301155 2.7107698917 2.6437299252 2.6457400322 3.8860700130 72.338447571 68.657203674 124.03029633
 6647.5000000 12.257780075 0.1161200032 2.3573200703 2.4748299122 3.2082800865 3.2490699291 3.2303400040 3.2320499420 4.2230100632 73.930496216 68.864700317 122.34609985
 6648.0000000 12.268950462 0.1158000007 2.3818800449 2.4852900505 3.9911100864 3.9705400467 4.0266799927 4.0442900658 5.7260389328 73.556266785 69.399101257 121.73090363
 6648.5000000 12.286370277 0.1130499989 2.3618500233 2.4977099895 4.7063298225 4.7730998993 4.8881001472 5.0040001869 6.8076109886 68.829696655 68.878799438 123.17250061
 6649.0000000 12.296959877 0.1088600010 2.3002800941 2.4795598984 3.4999599457 3.5496299267 3.5817298889 3.7154400349 6.5830988884 59.278541565 67.236602783 125.77890015
 6649.5000000 12.274760246 0.0988800004 2.2398300171 2.4382100105 2.2171399593 2.2573699951 2.2666099072 2.3426799774 4.3237800598 49.651920319 66.613098145 125.08789825
 6650.0000000 12.234100342 0.1018600017 2.2021000385 2.3883500099 1.4747600555 1.4879000187 1.4846999645 1.5320899487 2.5376300812 42.310741425 64.578697205 117.40209961
 6650.5000000 12.395150185 0.1179300025 2.2034099102 2.3565399647 1.2431399822 1.2437200546 1.2347799540 1.2711199522 1.8889900446 41.095981598 66.303100586 109.44830322
 6651.0000000 12.230480194 0.1360100061 2.2216300964 2.3378000259 1.1829700470 1.1828900576 1.1704000235 1.2014900446 1.6200200319 40.187999725 69.631896973 109.44760132
 6651.5000000 12.284029961 0.1528100073 2.2396800518 2.3217499256 1.2096300125 1.2120000124 1.1965600252 1.2256699800 1.6526399851 39.861530304 73.617202759 122.85859680
 6652.0000000 12.258119583 0.1620099992 2.2325398922 2.3092799187 1.2001500130 1.2122700214 1.1950399876 1.2220699787 1.5737899542 40.206710815 77.342498779 137.91259766
 6652.5000000 12.282199860 0.1749300063 2.2136199474 2.3013200760 1.1358200312 1.1635999680 1.1500600576 1.1680599451 1.5303000212 40.656070709 79.109298706 147.11599731
 6653.0000000 12.252599716 0.1762599945 2.2065699100 2.2923500538 1.0638300180 1.1104700565 1.1058499813 1.1187299490 1.4096299410 41.299301147 78.850898743 150.37620544
 6653.5000000 12.296990395 0.1767400056 2.2281699181 2.2823100090 1.0891200304 1.1473300457 1.1580599546 1.1675200462 1.4714900255 41.080291748 78.925796509 148.87210083
 6654.0000000 12.260370255 0.1764100045 2.2589700222 2.2760000229 1.0834699869 1.1569999456 1.1908600330 1.1978100538 1.4801399708 40.730621338 79.323097229 148.08000183
 6654.5000000 12.285019875 0.1870699972 2.2931098938 2.2815599442 0.9958900213 1.0582799911 1.1062899828 1.1111299992 1.4069099426 40.426589966 80.667800903 149.09840393
 6655.0000000 12.428759575 0.1820899993 2.3194200993 2.3004798889 1.0168199539 1.0753599405 1.1337499619 1.1416900158 1.3829900026 40.471958160 80.927200317 150.25450134
 6655.5000000 12.369649887 0.1851100028 2.3185899258 2.3203999996 1.1618299484 1.2389500141 1.3069599867 1.3191699982 1.4959700108 42.131309509 81.367301941 151.25559998
 6656.0000000 12.246720314 0.1747000068 2.2832899094 2.3343799114 1.1875900030 1.2801500559 1.3460400105 1.3689600229 1.7028700113 42.488670349 82.620002747 153.07040405
 6656.5000000 12.264309883 0.1734600067 2.2450799942 2.3268399239 1.1421999931 1.2282999754 1.2846200466 1.3228299618 1.6998300552 42.644981384 81.203598022 155.04080200
 6657.0000000 12.280699730 0.1669799984 2.2220199108 2.3180201054 1.1218500137 1.1972299814 1.2452299595 1.2979999781 1.6121699810 42.147758484 79.138298035 155.14619446
 6657.5000000 12.278759956 0.1659400016 2.2146000862 2.3052999973 1.0721999407 1.1394799948 1.1784199476 1.2397199869 1.5171999931 42.957950592 77.565803528 151.78770447
 6658.0000000 12.278690338 0.1619199961 2.2200300694 2.2949900627 1.0284800529 1.0869200230 1.1163799763 1.1861399412 1.4208899736 41.950061798 78.434501648 147.77330017
 6658.5000000 12.404680252 0.1637299955 2.2705600262 2.2781999111 0.9922900200 1.0388000011 1.0580400229 1.1337499619 1.2873200178 41.440769196 78.813102722 146.10189819
 6659.0000000 12.331219673 0.1677400023 2.3597400188 2.2770800591 0.9512500167 0.9878000021 1.0016599894 1.0837600231 1.2166399956 43.049060822 79.050300598 147.51249695
 6659.5000000 12.303090096 0.1725800037 2.4411399364 2.2961399555 1.0023800135 1.0260499716 1.0360900164 1.1317299604 1.2423599958 45.189399719 80.567298889 148.45179749
 6660.0000000 12.308810234 0.1832399964 2.4517400265 2.3267099857 1.1847800016 1.2233099937 1.2335599661 1.3586900234 1.4255800247 47.359878540 81.308998108 151.23649597
 6660.5000000 12.274780273 0.1791200042 2.4056999683 2.3457899094 1.2355300188 1.2784199715 1.2883499861 1.4242500067 1.6593300104 47.356479645 82.442100525 154.03160095
 6661.0000000 12.305210114 0.1816399992 2.3545699120 2.3551399708 1.2514300346 1.2957799435 1.3083300591 1.4496599436 1.7450699806 46.890560150 81.048797607 154.24130249
 6661.5000000 12.315919876 0.1697999984 2.3295199871 2.3591599464 1.4372600317 1.5039000511 1.5225299597 1.6780500412 1.9150400162 46.334308624 79.340896606 151.82739258
 6662.0000000 12.353949547 0.1524000019 2.3088200092 2.3649499416 1.4136099815 1.4759299755 1.4902499914 1.6342799664 2.0249400139 45.874408722 78.480697632 148.31120300
 6662.5000000 12.404720306 0.1404500008 2.3011500835 2.3719000816 1.5088700056 1.5662599802 1.5861500502 1.7279100418 2.3374900818 48.574390411 76.463401794 145.35169983
 6663.0000000 12.354000092 0.1315300018 2.3274900913 2.3839900494 1.8243800402 1.9140800238 1.9495300055 2.1099400520 2.4780299664 49.987060547 74.421798706 141.94619751
 6663.5000000 12.266320229 0.1276600063 2.3911700249 2.3947899342 1.7530699968 1.7859899998 1.8126699924 1.9367500544 2.7637999058 52.875019073 71.575599670 138.73449707
 6664.0000000 12.239720345 0.1193599999 2.4385499954 2.3949100971 1.7395399809 1.7606500387 1.7783800364 1.8885999918 2.8499300480 53.032920837 69.856399536 135.26710510
 6664.5000000 12.256850243 0.1168200001 2.4623000622 2.3724699020 1.7673499584 1.8464399576 1.8620799780 1.9757299423 2.2424700260 53.562351227 69.633102417 132.29769897
 6665.0000000 12.235269547 0.1139800027 2.4439599514 2.3314399719 1.1402699947 1.1664999723 1.1599800587 1.2223099470 1.7257299423 52.828289032 73.249000549 129.55059814
 6665.5000000 12.346050262 0.1167699993 2.4145500660 2.3014099598 1.0704699755 1.0774500370 1.0689100027 1.1229799986 1.3398100138 52.065528870 77.868103027 135.11790466
 6666.0000000 12.439319611 0.1327999979 2.3961899281 2.2938001156 1.1129499674 1.1036700010 1.0924500227 1.1390700340 1.3341399431 51.893230438 80.411003113 148.47590637
 6666.5000000 12.337149620 0.1599099934 2.4222400188 2.3099501133 1.4310499430 1.4390100241 1.4262900352 1.4832199812 1.6064399481 50.728038788 80.020698547 155.30700684
 6667.0000000 12.249560356 0.1718800068 2.4767699242 2.3062500954 1.4274400473 1.4573600292 1.4417899847 1.5012300014 1.6172000170 50.195381165 76.112098694 155.29449463
 6667.5000000 12.232199669 0.1764999926 2.5206999779 2.2857599258 0.9940099716 1.0144200325 0.9970899820 1.0354100466 1.3496099710 48.716270447 73.971000671 145.18130493
 6668.0000000 12.314749718 0.1714999974 2.5433199406 2.2611799240 0.8735899925 0.8909500241 0.8770400286 0.9082499743 1.0004899502 47.634189606 76.818298340 141.04829407
 6668.5000000 12.626549721 0.1726700068 2.5351700783 2.2622699738 0.8798099756 0.8920800090 0.8802599907 0.9081100225 0.9684299827 46.825420380 80.803298950 149.89579773
 6669.0000000 12.396450043 0.1821800023 2.5152299404 2.2855401039 0.9981300235 1.0037900209 0.9971299767 1.0240600109 1.1463999748 46.525520325 83.853797913 160.60800171
 6669.5000000 12.282600403 0.1975100040 2.4851400852 2.3011000156 1.2161400318 1.2273000479 1.2289500237 1.2583099604 1.5169700384 45.465679169 84.560401917 167.26719666
 6670.0000000 12.229960442 0.2020799965 2.4823899269 2.3012800217 1.0156899691 1.0247299671 1.0274699926 1.0502400398 1.4678100348 45.803550720 83.361503601 168.27529907
 6670.5000000 12.378009796 0.1997500062 2.5119400024 2.2872800827 0.8931900263 0.9066900015 0.9084900022 0.9286400080 1.2802000046 45.821041107 82.344703674 166.60929871
