# LAS format log file from PETREL
# Project units are specified as depth units
#==================================================================
~Version information
VERS.   2.0:
WRAP.   NO:
#==================================================================
~Well
STRT .ft 5039.0000000         :
STOP .ft 7236.0000000         :
STEP .ft 0.50000000           :
NULL .   -999.250000          :
COMP.                         : COMPANY
WELL.    CCS1                 : WELL
FLD.                          : FIELD
LOC.                          : LOCATION
SRVC.                         : SERVICE COMPANY
DATE.    2020-07-27 11:17:06  : Log Export Date {yyyy-MM-dd HH:mm:ss}
PROV.                         : PROVINCE
UWI.     121152341500         : UNIQUE WELL ID
API.     121152341500         : API NUMBER
#==================================================================
~Curve
DEPT .ft                   : DEPTH
HCAL .in                  : HCAL
HTNP .ft3/ft3             : HTNP
PEFZ .b/e                 : PEFZ
RHOZ .g/cm3               : RHOZ
RLA2 .ohm.m               : RLA2
RLA3 .ohm.m               : RLA3
RLA4 .ohm.m               : RLA4
RLA5 .ohm.m               : RLA5
RXOZ .ohm.m               : RXOZ
Gamma .gAPI               : Gamma
DTCO .us/ft               : DTCO
DTSM .us/ft               : DTSM
~Parameter
#==================================================================
~Ascii
# ...
 5903.0000000 12.259989738 0.0497700013 2.1572399139 2.4734399319 2.7653601170 2.8668000698 2.8182399273 2.7924399376 3.0502600670 25.799320221 61.305900574 101.04589844
 5903.5000000 12.259989738 0.0540199988 2.1579000950 2.4844601154 2.8924200535 2.9851000309 2.9203500748 2.9097299576 3.2802500725 26.158739090 62.315399170 101.95729828
 5904.0000000 12.259579659 0.0560499988 2.1716899872 2.4948699474 3.3089699745 3.4468500614 3.3519699574 3.3646399975 3.4371600151 27.538850784 62.534698486 103.41560364
 5904.5000000 12.238129616 0.0573900007 2.1825799942 2.5082399845 3.9568500519 4.1517300606 4.0513200760 4.0733098984 4.2150111198 28.668190002 62.432498932 104.68879700
 5905.0000000 12.304129601 0.0526200011 2.1671400070 2.5206000805 4.6348910332 4.9086399078 4.8084301949 4.8464097977 4.9251298904 26.489419937 62.019298553 105.23249817
 5905.5000000 12.260190010 0.0495299995 2.1285700798 2.5322198868 5.2371101379 5.6422300339 5.5558900833 5.6308498383 6.1429400444 25.282140732 61.767501831 105.22280121
 5906.0000000 12.266799927 0.0467800014 2.1671500206 2.5415599346 4.9641098976 5.1807699203 5.1795110703 5.2699489594 6.0580201149 30.040620804 60.881301880 104.39949799
 5906.5000000 12.252550125 0.0451399982 2.3524301052 2.5444400311 5.0871400833 5.2795600891 5.3556799889 5.4661488533 5.6952400208 52.887901306 61.291801453 103.69779968
 5907.0000000 12.209110260 0.0462099984 2.5901100636 2.5429298878 6.4120798111 6.8752198219 7.0814499855 7.4316511154 6.9338297844 77.740341187 60.456901550 103.48439789
 5907.5000000 12.264570236 0.0502699986 2.6520700455 2.5396299362 5.1868209839 5.2706999779 5.3374300003 5.6069798470 7.4463009834 81.280921936 61.208801270 102.91960144
 5908.0000000 12.296549797 0.0696400031 2.5273799896 2.5356800556 4.4187598228 4.4533901215 4.5050001144 4.6525998116 6.8982801437 62.624839783 62.906299591 102.36959839
 5908.5000000 12.307840347 0.0824100003 2.3912000656 2.5294899940 4.1517500877 4.1638598442 4.2222099304 4.2893400192 5.1805100441 40.636608124 62.831199646 103.40940094
 5909.0000000 12.264780045 0.0764200017 2.3409299850 2.5275099277 4.0998997688 4.2424688339 4.3369297981 4.3885498047 5.0655097961 35.062168121 62.669200897 105.65989685
 5909.5000000 12.286109924 0.0617999993 2.3163800240 2.5210599899 3.1892700195 3.3143401146 3.3914000988 3.3968100548 4.0875501633 33.386589050 61.346900940 107.00640106
 5910.0000000 12.295889854 0.0658000037 2.2660601139 2.5000000000 2.5438599586 2.6450300217 2.6915500164 2.6410601139 3.0677499771 30.635129929 61.050498962 106.20919800
 5910.5000000 12.275919914 0.0784699991 2.1953699589 2.4772999287 2.4044299126 2.5274500847 2.5723700523 2.4812600613 2.3702399731 24.778350830 62.275501251 104.97209930
 5911.0000000 12.284410477 0.0825399980 2.1488800049 2.4609200954 2.2595601082 2.4048700333 2.4427399635 2.3176000118 2.1521100998 22.259220123 62.250301361 104.84690094
 5911.5000000 12.251919746 0.0789700001 2.1213099957 2.4535501003 2.0636401176 2.2012600899 2.2325000763 2.0926499367 2.0222399235 20.721370697 62.448501587 106.26540375
 5912.0000000 12.221610069 0.0712200031 2.1231300831 2.4442200661 2.0531499386 2.2027099133 2.2344999313 2.0764799118 1.9153200388 21.271720886 62.527198792 108.17729950
 5912.5000000 12.219579697 0.0706999972 2.1374399662 2.4357099533 1.9608399868 2.1219398975 2.1321599483 1.9755899906 1.8659299612 23.298219681 63.034698486 108.94400024
 5913.0000000 12.208860397 0.0737200007 2.1390500069 2.4328699112 1.8947999477 2.0673298836 2.0601899624 1.9070600271 1.8219399452 24.496559143 63.501098633 109.24120331
 5913.5000000 12.252550125 0.0789100006 2.1242198944 2.4346899986 1.9281400442 2.1008899212 2.0866200924 1.9375900030 1.7840800285 25.467880249 64.660797119 110.26499939
 5914.0000000 12.251759529 0.0804900005 2.1199400425 2.4366400242 1.9990299940 2.1530299187 2.1572899818 2.0168199539 1.8175200224 24.625310898 65.017997742 111.67859650
 5914.5000000 12.252550125 0.0803000033 2.1172099113 2.4439299107 2.0459799767 2.1707000732 2.1964399815 2.0715000629 1.9188599586 25.404369354 65.473197937 111.75599670
 5915.0000000 12.229080200 0.0803899989 2.1275699139 2.4549899101 2.1789300442 2.2890899181 2.3375499249 2.2313499451 2.0884499550 25.870889664 65.569503784 112.72380066
 5915.5000000 12.201629639 0.0820100009 2.1324501038 2.4772999287 2.3347198963 2.4575200081 2.5300099850 2.4517199993 2.3134300709 26.474580765 65.433898926 113.99050140
 5916.0000000 12.217399597 0.0794000030 2.1519100666 2.4923799038 2.4449799061 2.5812799931 2.6723101139 2.6353099346 2.5469400883 27.664829254 65.646400452 113.83840179
 5916.5000000 12.209540367 0.0707399994 2.2308399677 2.5039598942 2.5380899906 2.6769499779 2.7665500641 2.7842400074 2.8175001144 35.628910065 64.923599243 113.11699677
 5917.0000000 12.291990280 0.0623699985 2.3245499134 2.5138199329 2.9582500458 3.1227400303 3.2488999367 3.3276100159 3.7000699043 53.052181244 64.949798584 112.68669891
 5917.5000000 12.331930161 0.0604199991 2.3833999634 2.5271799564 4.7846288681 5.2041602135 5.4843502045 5.7141699791 5.2379899025 64.056419373 64.392402649 113.40239716
 5918.0000000 12.322480202 0.0610500015 2.3304100037 2.5364201069 6.8030500412 7.4462590218 7.7769498825 8.1815996170 8.7969703674 58.950740814 65.141799927 113.74569702
 5918.5000000 12.308600426 0.0675299987 2.2303199768 2.5377700329 6.6854300499 7.2646298409 7.3996200562 7.8033599854 8.0329599380 42.409099579 65.362396240 110.63069916
 5919.0000000 12.275859833 0.0647500008 2.1503200531 2.5367400646 6.1611800194 6.3534998894 6.5159101486 6.8061590195 6.4176797867 29.566240311 63.192401886 108.62220001
 5919.5000000 12.275899887 0.0510200001 2.1412000656 2.5317900181 6.1232810020 6.2684898376 6.3900699615 6.6328911781 5.9317798615 25.394100189 61.324501038 107.97840118
 5920.0000000 12.288749695 0.0355099998 2.1705300808 2.5250599384 6.3619699478 6.6446189880 6.7043600082 6.9296588898 6.6594300270 25.525119781 60.491500854 106.50050354
 5920.5000000 12.296970367 0.0324199982 2.1969499588 2.5225000381 5.9368300438 6.2582402229 6.2566399574 6.4591898918 6.3532500267 27.640439987 60.394100189 102.85569763
 5921.0000000 12.293259621 0.0326800011 2.2173199654 2.5201699734 5.1526799202 5.3073701859 5.2595500946 5.3920297623 5.6519799232 28.365280151 60.443401337 100.39350128
 5921.5000000 12.284720421 0.0361500010 2.2201499939 2.5165300369 4.8555002213 4.8860602379 4.8020601273 4.8620901108 4.8828501701 26.911600113 60.508800507 101.14689636
 5922.0000000 12.298879623 0.0410000011 2.2161600590 2.5050399303 4.7960309982 4.8273901939 4.7236700058 4.7309899330 5.2690801620 24.957130432 60.694499969 103.45610046
 5922.5000000 12.311109543 0.0438800007 2.1966600418 2.4970500469 4.6062002182 4.6227598190 4.5253000259 4.4965300560 4.8512902260 24.329259872 60.644298553 104.58950043
 5923.0000000 12.288189888 0.0425899997 2.1839001179 2.4918301105 4.5972399712 4.5956997871 4.5097398758 4.4542798996 4.8337001801 25.100330353 60.607101440 104.52210236
 5923.5000000 12.288860321 0.0397600010 2.1935100555 2.4964399338 4.6150498390 4.6292610168 4.5539398193 4.4664502144 4.6852598190 25.475500107 60.566001892 104.15910339
 5924.0000000 12.288860321 0.0398500003 2.1924300194 2.5068099499 4.9845800400 5.0266299248 4.9572401047 4.8574600220 5.0767102242 26.735670090 60.875099182 103.67980194
 5924.5000000 12.279109955 0.0411599986 2.2007400990 2.5142800808 5.4430398941 5.5345301628 5.4722909927 5.3707089424 5.5615401268 26.894859314 61.276500702 102.80460358
 5925.0000000 12.285149574 0.0442299992 2.1872100830 2.5256299973 5.7583198547 5.8119502068 5.7691798210 5.6691699028 6.0555500984 29.669029236 61.249298096 101.89679718
 5925.5000000 12.295459747 0.0438000001 2.2028501034 2.5292499065 6.1377000809 6.1200199127 6.1336798668 6.0412797928 6.1991200447 34.714641571 60.774799347 101.93890381
 5926.0000000 12.305769920 0.0414200015 2.2012300491 2.5311000347 7.1465110779 7.1860599518 7.2573089600 7.2038698196 6.7362189293 37.786991119 60.331001282 102.05740356
 5926.5000000 12.286649704 0.0423099995 2.1779899597 2.5277199745 7.0228099823 7.0239100456 7.0582098961 7.0756888390 7.4439902306 34.886669159 59.954898834 101.49389648
