# LAS format log file from PETREL
# Project units are specified as depth units
#==================================================================
~Version information
VERS.   2.0:
WRAP.   NO:
#==================================================================
~Well
STRT .ft 5039.0000000         :
STOP .ft 7236.0000000         :
STEP .ft 0.50000000           :
NULL .   -999.250000          :
COMP.                         : COMPANY
WELL.    CCS1                 : WELL
FLD.                          : FIELD
LOC.                          : LOCATION
SRVC.                         : SERVICE COMPANY
DATE.    2020-07-27 11:17:06  : Log Export Date {yyyy-MM-dd HH:mm:ss}
PROV.                         : PROVINCE
UWI.     121152341500         : UNIQUE WELL ID
API.     121152341500         : API NUMBER
#==================================================================
~Curve
DEPT .ft                   : DEPTH
HCAL .in                  : HCAL
HTNP .ft3/ft3             : HTNP
PEFZ .b/e                 : PEFZ
RHOZ .g/cm3               : RHOZ
RLA2 .ohm.m               : RLA2
RLA3 .ohm.m               : RLA3
RLA4 .ohm.m               : RLA4
RLA5 .ohm.m               : RLA5
RXOZ .ohm.m               : RXOZ
Gamma .gAPI               : Gamma
DTCO .us/ft               : DTCO
DTSM .us/ft               : DTSM
~Parameter
#==================================================================
~Ascii
# ...
 5471.0000000 12.643099785 0.1402699947 3.6356298923 2.5558199883 10.769780159 11.719349861 12.135100365 12.866849899 11.073089600 169.57020569 72.294601440 143.57429504
 5471.5000000 12.641690254 0.1346099973 3.6494200230 2.5894598961 9.4667406082 10.945010185 11.987079620 12.716830254 12.420619965 172.56480408 71.905799866 139.91349792
 5472.0000000 12.642829895 0.1401800066 3.5658600330 2.5945799351 9.5045900345 11.451129913 12.220600128 12.971520424 12.384070396 171.66850281 70.113700867 135.96090698
 5472.5000000 12.637889862 0.1460600048 3.5219700336 2.5808799267 8.5563802719 10.113439560 10.759119987 11.394579887 10.756010056 165.79989624 68.130699158 129.50480652
 5473.0000000 12.651579857 0.1459899992 3.5556600094 2.5623099804 9.0119600296 10.378279686 10.792539597 11.356730461 10.680250168 159.95719910 72.754798889 127.91729736
 5473.5000000 12.940440178 0.1505800039 3.6073000431 2.5529201031 7.3590497971 8.9519987106 9.5775995255 10.086850166 3.1548399925 159.92610168 76.056098938 151.17570496
 5474.0000000 13.513879776 0.1756599993 3.5841000080 2.5370299816 7.6850500107 8.7142686844 9.2115602493 9.5208396912 2.3150699139 162.96749878 77.959503174 158.43060303
 5474.5000000 12.933360100 0.1833900064 3.4859299660 2.5252699852 8.0269699097 8.9009790421 9.4429197311 9.6248693466 2.3234400749 163.14999390 76.725601196 160.68739319
 5475.0000000 12.904359818 0.1610900015 3.3998401165 2.5234699249 7.7504711151 8.9711503983 9.4919099808 9.7518196106 6.2471098900 162.45339966 73.117103577 152.21569824
 5475.5000000 12.896519661 0.1298400015 3.3629999161 2.5261700153 6.8252301216 8.5966997147 9.3359804153 9.5503702164 9.2707796097 163.51269531 72.442703247 132.81579590
 5476.0000000 12.896519661 0.1203700006 3.3739199638 2.5174798965 5.8849201202 6.9590802193 7.3355698586 7.3815598488 7.5275788307 166.37109375 72.832702637 137.91810608
 5476.5000000 12.895870209 0.1115000024 3.3860900402 2.5076000690 6.6236701012 8.3079996109 8.8449802399 8.9676399231 7.2006788254 169.33219910 73.189201355 141.27520752
 5477.0000000 12.897020340 0.1150600016 3.4355599880 2.5046200752 6.8338789940 8.8828687668 9.6401796341 9.8168296814 7.1509099007 172.92900085 72.814498901 142.66709900
 5477.5000000 12.898400307 0.1225399971 3.4790399075 2.5119700432 7.3323397636 9.3604097366 9.9159908295 10.051070213 9.4232292175 176.29510498 71.963203430 141.47019958
 5478.0000000 12.913229942 0.1272000074 3.5310199261 2.5100100040 5.9424500465 7.2985100746 7.9394302368 8.0079097748 8.1907997131 174.94470215 71.863403320 139.18510437
 5478.5000000 12.925200462 0.1333400011 3.5288798809 2.5094499588 5.8700098991 7.5738902092 8.2764701843 8.4682502747 7.4289088249 171.83200073 72.027999878 142.91740417
 5479.0000000 12.921930313 0.1319500059 3.5104200840 2.5087199211 6.2975702286 7.6881089211 8.1180496216 8.3442096710 7.1901488304 170.91319275 73.175498962 145.86639404
 5479.5000000 12.930439949 0.1300199926 3.5576400757 2.4973199368 6.0080399513 7.9330801964 8.6388301849 9.1151199341 8.2251796722 172.99879456 74.082000732 143.35899353
 5480.0000000 13.011650085 0.1267900020 3.6666700840 2.4972798824 6.8386301994 8.2820796967 8.9264402390 9.2443704605 3.4967501163 176.50280762 75.407501221 146.40530396
 5480.5000000 13.092049599 0.1371099949 3.7880001068 2.5004799366 7.3134589195 8.9175100327 9.5615997314 9.8983812332 1.8862099648 179.77540588 76.053596497 149.54389954
 5481.0000000 13.146570206 0.1401900053 3.7934501171 2.5432999134 7.9504299164 9.6654090881 10.554579735 10.988019943 1.8918600082 184.41679382 76.094703674 151.92120361
 5481.5000000 13.149310112 0.1272899956 3.7286100388 2.5679099560 10.654279709 13.036749840 14.190959930 14.814169884 6.3827810287 187.95669556 75.364097595 155.29260254
 5482.0000000 13.162989616 0.1155200005 3.6494901180 2.5896100998 14.448080063 16.945749283 17.989299774 18.835750580 11.108590126 192.10569763 73.172096252 154.16140747
 5482.5000000 13.224280357 0.1146700010 3.6119399071 2.5875799656 14.147749901 17.021089554 18.443969727 19.654920578 10.562190056 193.72760010 71.337501526 154.61920166
 5483.0000000 13.105179787 0.1111399978 3.5575599670 2.5895099640 14.395050049 16.528339386 17.907009125 19.024660110 8.7313089371 192.99209595 70.568298340 154.09280396
 5483.5000000 12.968290329 0.1077200025 3.5279200077 2.5878100395 15.636529922 18.071310043 19.523450851 20.771490097 7.9900288582 192.51300049 69.572601318 149.70559692
 5484.0000000 12.982839584 0.1064599976 3.5685300827 2.5251700878 16.712640762 18.319290161 19.229759216 20.720600128 7.2520489693 195.17230225 69.412200928 142.12869263
 5484.5000000 12.925820351 0.1148099974 3.7177801132 2.3629999161 16.859430313 17.563369751 17.806119919 19.057790756 1.3680100441 199.08740234 69.356399536 135.03129578
 5485.0000000 13.611160278 0.1293099970 3.8206501007 2.2243599892 17.051240921 17.723739624 17.455869675 18.699649811 0.6765699983 197.41319275 72.514099121 133.81640625
 5485.5000000 15.125840187 0.1315400004 3.8023400307 2.1965599060 17.145080566 17.848150253 16.377719879 17.049190521 0.4751999974 191.71510315 77.064598083 146.93009949
 5486.0000000 15.188030243 0.1405799985 3.7382500172 2.3131299019 16.885280609 19.495090485 16.745569229 17.229019165 0.4708999991 186.80999756 80.469802856 163.10539246
 5486.5000000 15.366999626 0.1606899947 3.7636599541 2.4271500111 17.270099640 27.630970001 18.110979080 17.759180069 0.5919799805 186.69230652 80.118797302 173.27360535
 5487.0000000 15.213870049 0.1883900017 3.9172799587 2.4767301083 15.757840157 26.049140930 17.017990112 16.578090668 0.8067799807 188.59730530 78.017700195 158.37390137
 5487.5000000 14.084730148 0.1982800066 4.0709600449 2.4878299236 15.293180466 24.023469925 15.911359787 15.435560226 1.5667300224 187.20199585 77.287300110 151.27900696
 5488.0000000 14.369609833 0.2032299936 4.2027301788 2.4533801079 14.708270073 25.188360214 16.447299957 15.807100296 1.5437500477 184.23120117 76.794998169 145.04780579
 5488.5000000 14.727310181 0.1967500001 4.2400498390 2.4035499096 13.693869591 19.317180634 16.499300003 16.359680176 1.0684499741 179.73280334 78.239898682 136.71980286
 5489.0000000 15.684470177 0.1828799993 4.2068200111 2.3637499809 12.887439728 19.698179245 15.941900253 15.398710251 0.7516099811 179.06340027 74.435501099 144.15750122
 5489.5000000 15.803259850 0.1791200042 4.1602602005 2.3131999969 12.519000053 23.311109543 16.891580582 16.024160385 0.4806599915 177.73809814 69.555099487 142.94869995
 5490.0000000 17.345779419 0.1889200062 4.1330599785 2.2703299522 11.655449867 22.366489410 15.260580063 14.189319611 0.3856799901 176.37640381 76.095397949 158.41270447
 5490.5000000 18.066040039 0.2233300060 4.1217799187 2.2368099689 12.330410004 25.566820145 16.142120361 14.294619560 0.3668099940 174.69509888 83.071601868 176.69679260
 5491.0000000 17.138509750 0.2475900054 4.1322498322 2.2093799114 12.592479706 27.328069687 18.609840393 15.189530373 0.3346199989 174.42610168 87.940399170 178.91130066
 5491.5000000 17.190549850 0.2821300030 4.1686100960 2.1994900703 12.499239922 26.844789505 19.670690536 14.551819801 0.3186300099 175.01890564 93.060203552 196.71150208
 5492.0000000 17.815959930 0.2736800015 4.2052998543 2.2194299698 12.808629990 29.642580032 21.487529755 15.603859901 0.3482399881 175.05290222 95.536796570 192.73120117
 5492.5000000 16.672220230 0.2774499953 4.1967201233 2.2703399658 12.945750237 28.972930908 19.734050751 15.297789574 0.4563499987 175.55419922 91.189697266 182.70660400
 5493.0000000 16.495819092 0.2637299895 4.1512498856 2.3067300320 12.124259949 27.543619156 20.004859924 15.103210449 0.5705500245 177.58479309 85.557502747 172.58160400
 5493.5000000 16.366930008 0.2525300086 4.1438097954 2.2617499828 12.109330177 27.123140335 18.906820297 15.425749779 0.4508599937 178.17759705 81.940803528 165.47979736
 5494.0000000 16.680450439 0.2288399935 4.1118302345 2.2483699322 11.807769775 25.498649597 16.905719757 14.702739716 0.4577699900 178.78199768 81.408401489 166.87019348
 5494.5000000 15.571680069 0.2227299958 4.0666999817 2.2871301174 12.883660316 27.201309204 18.427690506 16.310539246 0.6002799869 177.96380615 81.954399109 174.49040222
