# LAS format log file from PETREL
# Project units are specified as depth units
#==================================================================
~Version information
VERS.   2.0:
WRAP.   NO:
#==================================================================
~Well
STRT .ft 5039.0000000         :
STOP .ft 7236.0000000         :
STEP .ft 0.50000000           :
NULL .   -999.250000          :
COMP.                         : COMPANY
WELL.    CCS1                 : WELL
FLD.                          : FIELD
LOC.                          : LOCATION
SRVC.                         : SERVICE COMPANY
DATE.    2020-07-27 11:17:06  : Log Export Date {yyyy-MM-dd HH:mm:ss}
PROV.                         : PROVINCE
UWI.     121152341500         : UNIQUE WELL ID
API.     121152341500         : API NUMBER
#==================================================================
~Curve
DEPT .ft                   : DEPTH
HCAL .in                  : HCAL
HTNP .ft3/ft3             : HTNP
PEFZ .b/e                 : PEFZ
RHOZ .g/cm3               : RHOZ
RLA2 .ohm.m               : RLA2
RLA3 .ohm.m               : RLA3
RLA4 .ohm.m               : RLA4
RLA5 .ohm.m               : RLA5
RXOZ .ohm.m               : RXOZ
Gamma .gAPI               : Gamma
DTCO .us/ft               : DTCO
DTSM .us/ft               : DTSM
~Parameter
#==================================================================
~Ascii
# ...
 7223.0000000 12.193349838 0.1809200048 3.1734600067 2.7390599251 49.612430573 86.998672485 97.219833374 97.307823181 177.27430725  -999.250000 59.294399261 103.44170380
 7223.5000000 12.193369865 0.1809200048 3.1554501057 2.7334098816 49.612430573 87.139511108 97.202766418 97.277450562 187.56210327  -999.250000 59.294399261 103.44170380
 7224.0000000 12.289580345 0.1809200048 3.1535298824 2.7241699696 49.612430573 86.705940247 97.085151672 97.215629578 136.61729431  -999.250000 59.294399261 103.44170380
 7224.5000000 12.119219780 0.1809200048 3.1725199223 2.7082099915 49.612430573 85.640258789 96.816001892 97.084136963 47.245220184  -999.250000 59.294399261 103.44170380
 7225.0000000 12.089570045 0.1809200048 3.2219998837 2.6979401112 49.612430573 85.139846802 96.407081604 96.768547058 20.452119827  -999.250000 59.294399261 103.44170380
 7225.5000000 11.889829636 0.1808599979 3.2644801140 2.6961600780 49.612430573 83.059761047 96.000411987 96.629646301 12.980110168  -999.250000 59.294399261 103.44170380
 7226.0000000 11.852849960 0.1809200048 3.2860898972 2.7141098976 49.612430573 81.258583069 95.687156677 96.548782349 10.726530075  -999.250000 59.294399261 103.44170380
 7226.5000000 11.825099945 0.1809200048 3.2711200714 2.7223300934 49.612430573 79.182373047 95.559753418 96.667610168 9.9039287567  -999.250000 59.294399261 103.44170380
 7227.0000000 11.823229790 0.1809200048 3.2501499653 2.7281899452 49.612430573 78.181259155 95.520652771 96.745758057 9.3106603622  -999.250000 59.294399261 103.44170380
 7227.5000000 11.801059723 0.1809200048 3.2276599407 2.7284600735 49.612430573 77.884956360 95.495040894 96.756568909 8.8224897385  -999.250000 59.294399261 103.44170380
 7228.0000000 11.793629646 0.1809200048 3.2190999985 2.7270600796 49.612430573 77.723548889 95.485321045 96.766159058 8.4472799301  -999.250000 59.294399261 103.44170380
 7228.5000000 11.808420181 0.1809200048 3.2259600163 2.7244100571 49.612430573 77.642311096 95.461357117 96.754066467 8.1348886490  -999.250000 59.294399261 103.44170380
 7229.0000000 11.786230087 0.1809200048 3.2430500984 2.7232999802 49.612430573 77.383247375 95.447372437 96.771018982 7.8493599892  -999.250000 59.294399261 103.44170380
 7229.5000000 11.786219597 0.1809200048 3.2623500824 2.7268600464 49.612430573 77.403068542 95.427726746 96.751419067 7.6663599014  -999.250000 59.294399261 103.44170380
 7230.0000000 11.786219597 0.1809200048 3.2775499821 2.7329299450 49.612430573 77.396476746 95.392433167 96.720863342 7.5767011642  -999.250000 59.294399261 103.44170380
 7230.5000000 11.786230087 0.1809200048 3.2930600643 2.7349998951 49.612430573 77.168403625 95.362533569 96.720207214 7.5123901367  -999.250000 59.294399261 103.44170380
 7231.0000000 11.778829575 0.1809200048 3.2987699509 2.7324800491 49.612430573 76.956016541 95.356483459 96.738906860 7.4615201950  -999.250000 59.294399261 103.44170380
 7231.5000000 11.771439552 0.1809200048 3.2920999527 2.7285199165 49.612430573 77.043632507 95.337898254 96.712570190 7.4342999458  -999.250000 59.294399261 103.44170380
 7232.0000000 11.780659676 0.1809200048 3.2747800350 2.7235500813 49.612430573 76.947723389 95.329940796 96.716423035 7.4363298416  -999.250000 59.294399261 103.44170380
 7232.5000000 11.775110245 0.1809200048 3.2626099586 2.7253999710 49.612430573 76.831283569 95.358779907 96.755126953 7.3909997940  -999.250000 59.294399261 103.44170380
 7233.0000000 11.780659676 0.1809200048 3.2606399059 2.7246799469 49.612430573 76.907241821 95.381690979 96.766738892 7.3167300224  -999.250000 59.294399261 103.44170380
 7233.5000000 11.764030457 0.1809200048 3.2670600414 2.7246999741 49.612430573 77.010841370 95.374893188 96.749046326 7.2717089653  -999.250000 59.294399261 103.44170380
 7234.0000000 11.768469810 0.1809200048 3.2728700638 2.7226800919 49.612430573 76.943649292 95.377601624 96.759086609 7.2319388390  -999.250000 59.294399261 103.44170380
 7234.5000000 11.778800011 0.1809200048 3.2817699909 2.7267301083 49.612430573 77.053413391 95.355407715 96.726959229 7.1944890022  -999.250000 59.294399261 103.44170380
 7235.0000000 11.749259949 0.1809200048 3.2909600735 2.7318799496 49.612430573 77.028106689 95.342689514 96.718566895 7.1486501694  -999.250000 59.294399261 103.44170380
 7235.5000000 11.745550156 0.1809200048 3.2989799976 2.7318599224 49.612430573 76.887207031 95.343437195 96.735298157 7.1147198677  -999.250000 59.294399261 103.44170380
 7236.0000000 11.751330376 0.1809200048 3.3004500866 2.7245199680 49.612430573 76.051361084 94.972442627 96.500846863 6.8277311325  -999.250000 59.294399261 103.44170380
