# LAS format log file from PETREL
# Project units are specified as depth units
#==================================================================
~Version information
VERS.   2.0:
WRAP.   NO:
#==================================================================
~Well
STRT .ft 5039.0000000         :
STOP .ft 7236.0000000         :
STEP .ft 0.50000000           :
NULL .   -999.250000          :
COMP.                         : COMPANY
WELL.    CCS1                 : WELL
FLD.                          : FIELD
LOC.                          : LOCATION
SRVC.                         : SERVICE COMPANY
DATE.    2020-07-27 11:17:06  : Log Export Date {yyyy-MM-dd HH:mm:ss}
PROV.                         : PROVINCE
UWI.     121152341500         : UNIQUE WELL ID
API.     121152341500         : API NUMBER
#==================================================================
~Curve
DEPT .ft                   : DEPTH
HCAL .in                  : HCAL
HTNP .ft3/ft3             : HTNP
PEFZ .b/e                 : PEFZ
RHOZ .g/cm3               : RHOZ
RLA2 .ohm.m               : RLA2
RLA3 .ohm.m               : RLA3
RLA4 .ohm.m               : RLA4
RLA5 .ohm.m               : RLA5
RXOZ .ohm.m               : RXOZ
Gamma .gAPI               : Gamma
DTCO .us/ft               : DTCO
DTSM .us/ft               : DTSM
~Parameter
#==================================================================
~Ascii
# ...
 6503.0000000 12.474630356 0.1328199953 2.8039400578 2.3914299011 2.8062300682 2.8831899166 2.9115900993 2.9343900681 3.5898499489 51.681789398 72.252601624 127.31890106
 6503.5000000 12.590370178 0.1297100037 2.7947099209 2.3945701122 3.0866699219 3.1645400524 3.1990299225 3.2256999016 4.0519099236 50.518089294 71.644302368 128.77960205
 6504.0000000 12.604660034 0.1265700012 2.7869999409 2.3966200352 3.1768600941 3.3002800941 3.3166799545 3.3541300297 3.8645598888 50.114650726 71.393898010 127.16870117
 6504.5000000 12.582300186 0.1239600033 2.7911899090 2.3899600506 2.6114199162 2.6764400005 2.6651699543 2.6882200241 3.4512999058 49.649459839 71.244102478 126.29709625
 6505.0000000 12.580980301 0.1209700033 2.7990400791 2.3832199574 2.5525801182 2.5908799171 2.5730500221 2.5974600315 3.0571799278 51.158580780 71.370697021 126.10410309
 6505.5000000 12.598620415 0.1209800020 2.7776000500 2.3894500732 2.8288300037 2.8882200718 2.8751699924 2.9069099426 3.2474899292 53.109821320 71.732597351 126.40550232
 6506.0000000 12.634389877 0.1247000024 2.7858700752 2.3938100338 2.9366400242 3.0140500069 2.9932599068 3.0270700455 3.5203499794 53.913318634 72.449600220 127.03620148
 6506.5000000 12.630069733 0.1305000037 2.7915201187 2.3949699402 2.9933600426 3.0764999390 3.0528199673 3.0875599384 3.6562500000 54.318729401 72.564102173 127.59040070
 6507.0000000 12.634630203 0.1315799952 2.7729799747 2.3963999748 2.9839699268 3.0660700798 3.0515499115 3.0819098949 3.4934999943 53.914779663 72.540397644 128.28540039
 6507.5000000 12.616760254 0.1348299980 2.7310400009 2.4089100361 2.8974099159 2.9579401016 2.9511799812 2.9721000195 3.4933700562 57.595169067 72.638298035 127.83689880
 6508.0000000 12.636690140 0.1382800043 2.7066900730 2.4225599766 3.3353900909 3.4623100758 3.4952499866 3.5102300644 3.8942499161 59.792079926 72.582901001 126.90570068
 6508.5000000 12.607859612 0.1424299926 2.7603600025 2.4160099030 3.3976500034 3.5327000618 3.5467998981 3.5743598938 4.1395897865 60.382530212 71.693496704 126.65119934
 6509.0000000 12.594349861 0.1409800053 2.8039600849 2.4077100754 3.0609300137 3.1720199585 3.1841099262 3.1880400181 4.0975089073 55.009391785 71.407600403 126.84940338
 6509.5000000 12.598979950 0.1377300024 2.8140199184 2.4031600952 3.1208600998 3.2520799637 3.2740199566 3.2805399895 3.6776499748 51.274620056 71.559303284 126.77909851
 6510.0000000 12.603300095 0.1385599971 2.7354199886 2.4204299450 2.9176299572 2.9918398857 2.9963300228 2.9953000546 3.8376998901 50.268089294 71.541099548 126.00779724
 6510.5000000 12.607850075 0.1220400035 2.6272199154 2.4353699684 3.4286201000 3.5533099174 3.5822200775 3.5710699558 4.6259989738 51.009471893 71.688903809 124.83209991
 6511.0000000 12.590209961 0.1091300026 2.5548300743 2.4379000664 3.8802800179 4.0876889229 4.1141810417 4.1325001717 5.1496400833 49.302028656 70.659301758 124.48159790
 6511.5000000 12.609339714 0.0982000008 2.5130600929 2.4280900955 3.1232900620 3.2023999691 3.1986799240 3.1938300133 4.7505202293 45.346778870 68.534698486 125.03179932
 6512.0000000 12.607850075 0.1010999978 2.5148200989 2.4056599140 2.5702400208 2.6457300186 2.6366300583 2.6270000935 3.4217998981 42.239849091 67.510200500 124.03289795
 6512.5000000 12.589799881 0.1052900031 2.5137200356 2.3936100006 2.2661299706 2.2958300114 2.2814900875 2.2635300159 2.9447801113 42.837818146 67.355903625 121.26380157
 6513.0000000 12.554800034 0.1138999984 2.5504899025 2.3872900009 2.6229500771 2.6958599091 2.6927199364 2.6678400040 3.0670399666 45.872848511 68.530097961 119.17530060
 6513.5000000 12.474619865 0.1193799973 2.5921599865 2.3980898857 2.9853498936 3.1322801113 3.1557700634 3.1130099297 3.5968201160 48.895580292 69.400596619 121.14559937
 6514.0000000 12.432869911 0.1242199987 2.6646299362 2.4012699127 2.7699100971 2.8496100903 2.8411500454 2.7948200703 3.4504299164 52.103900909 69.410896301 125.18609619
 6514.5000000 12.714309692 0.1215299964 2.7074599266 2.4010500908 3.3838000298 3.6388399601 3.6698300838 3.6126499176 3.5274200439 54.019699097 71.488197327 128.58940125
 6515.0000000 12.459540367 0.1204600036 2.6887900829 2.3897399902 3.1923201084 3.4173600674 3.4250199795 3.3642199039 3.8198900223 53.749439240 73.789596558 131.86940002
 6515.5000000 12.413209915 0.1199800000 2.5912799835 2.3870999813 2.4898800850 2.6479001045 2.6327400208 2.5767500401 3.3034000397 51.113788605 75.402297974 131.78070068
 6516.0000000 12.507490158 0.1257600039 2.4938099384 2.3842699528 2.2400400639 2.2907099724 2.2769699097 2.2183799744 3.0333399773 48.554149628 76.423103333 130.16160583
 6516.5000000 12.430190086 0.1330800056 2.4148800373 2.3902199268 2.6470999718 2.7570199966 2.7707200050 2.7005100250 2.8921298981 46.869171143 75.617500305 128.82299805
 6517.0000000 12.411829948 0.1290400028 2.3793900013 2.3903501034 2.4238400459 2.4998700619 2.5009698868 2.4354801178 3.2692899704 47.568641663 74.836700439 129.35009766
 6517.5000000 12.407979965 0.1214900017 2.3731000423 2.3850998878 2.3314800262 2.3954100609 2.3881900311 2.3367300034 2.9361600876 49.246040344 74.215599060 131.65950012
 6518.0000000 12.405489922 0.1185899973 2.3918800354 2.3816699982 2.4186100960 2.4827699661 2.4765501022 2.4330399036 2.9524099827 53.854919434 74.272201538 131.50770569
 6518.5000000 12.410449982 0.1227699965 2.4241700172 2.3783299923 2.7454500198 2.8821599483 2.8884301186 2.8610200882 3.3962099552 58.193229675 73.922203064 130.94970703
 6519.0000000 12.408040047 0.1322900057 2.4489099979 2.3879399300 2.7747099400 2.9452400208 2.9394400120 2.9359700680 3.3720200062 59.631549835 73.798400879 132.09689331
 6519.5000000 12.425339699 0.1313299984 2.5227699280 2.3852500916 2.4744300842 2.5643200874 2.5433399677 2.5483999252 3.3290500641 58.117229462 73.315200806 133.38859558
 6520.0000000 12.425359726 0.1278900057 2.6442000866 2.3801600933 2.8278000355 2.9575200081 2.9518599510 2.9664399624 3.1918001175 55.650539398 73.025299072 132.86819458
 6520.5000000 12.418720245 0.1267299950 2.7789299488 2.3749699593 2.8529200554 2.9266600609 2.9259300232 2.9433300495 3.6011400223 55.522171021 73.110198975 131.97140503
 6521.0000000 12.445249557 0.1296200007 2.8648099899 2.3854899406 2.8076701164 2.8540699482 2.8452799320 2.8755300045 3.6963999271 55.508399963 73.529296875 131.01170349
 6521.5000000 12.462519646 0.1292999983 2.8696599007 2.4040799141 3.2298600674 3.3197100163 3.3230900764 3.3771901131 3.9709899426 54.587810516 73.817398071 131.76519775
 6522.0000000 12.464489937 0.1311700046 2.8086900711 2.4107799530 3.2251899242 3.2982499599 3.2797200680 3.3601100445 4.1249499321 56.295608521 73.296699524 132.20429993
 6522.5000000 12.466970444 0.1268700063 2.7148299217 2.4073901176 2.6019999981 2.6315000057 2.6116800308 2.6788001060 3.7787499428 61.327400208 72.586898804 131.52799988
 6523.0000000 12.486849785 0.1260800064 2.6331000328 2.4080100060 2.9353299141 2.9696600437 2.9806199074 3.0610198975 3.6662700176 69.375350952 72.391502380 127.26139832
 6523.5000000 12.519020081 0.1226399988 2.5962200165 2.4146900177 3.7104101181 3.7862699032 3.8509099483 3.9563701153 4.0980100632 72.970832825 72.514503479 125.06629944
 6524.0000000 12.531209946 0.1282200068 2.5748999119 2.4169600010 3.7149300575 3.7960700989 3.8540399075 3.9630300999 5.0191397667 67.870567322 71.514801025 125.92949677
 6524.5000000 12.524160385 0.1289300025 2.5895500183 2.4035298824 3.1531898975 3.2294399738 3.2732698917 3.3624598980 4.1723399162 58.094200134 70.869796753 126.83290100
 6525.0000000 12.474630356 0.1273699999 2.6154599190 2.3860199451 2.4952499866 2.5152800083 2.5398800373 2.6001400948 3.2829999924 50.176349640 70.220298767 126.21929932
 6525.5000000 12.484629631 0.1280200034 2.6394801140 2.3750000000 2.6872799397 2.7358999252 2.7541499138 2.8231999874 3.0629599094 48.863109589 70.697303772 124.08959961
 6526.0000000 12.474599838 0.1307200044 2.6387801170 2.3736000061 2.4633300304 2.5322299004 2.5293900967 2.5948600769 2.8911499977 51.804840088 71.544403076 122.51560211
 6526.5000000 12.474610329 0.1258099973 2.6266899109 2.3775999546 2.2759599686 2.3192100525 2.2986600399 2.3532400131 3.0730199814 55.487659454 71.924102783 123.97329712
