# LAS format log file from PETREL
# Project units are specified as depth units
#==================================================================
~Version information
VERS.   2.0:
WRAP.   NO:
#==================================================================
~Well
STRT .ft 5039.0000000         :
STOP .ft 7236.0000000         :
STEP .ft 0.50000000           :
NULL .   -999.250000          :
COMP.                         : COMPANY
WELL.    CCS1                 : WELL
FLD.                          : FIELD
LOC.                          : LOCATION
SRVC.                         : SERVICE COMPANY
DATE.    2020-07-27 11:17:06  : Log Export Date {yyyy-MM-dd HH:mm:ss}
PROV.                         : PROVINCE
UWI.     121152341500         : UNIQUE WELL ID
API.     121152341500         : API NUMBER
#==================================================================
~Curve
DEPT .ft                   : DEPTH
HCAL .in                  : HCAL
HTNP .ft3/ft3             : HTNP
PEFZ .b/e                 : PEFZ
RHOZ .g/cm3               : RHOZ
RLA2 .ohm.m               : RLA2
RLA3 .ohm.m               : RLA3
RLA4 .ohm.m               : RLA4
RLA5 .ohm.m               : RLA5
RXOZ .ohm.m               : RXOZ
Gamma .gAPI               : Gamma
DTCO .us/ft               : DTCO
DTSM .us/ft               : DTSM
~Parameter
#==================================================================
~Ascii
# ...
 5183.0000000 17.528249741 0.0768005475 5.0318708420 2.7017650604 48.101940155 193.81950378 492.88180542 263.39630127 232.65049744 28.070619583 52.410198212 98.726997375
 5183.5000000 17.513069153 0.0721751302 5.0068778992 2.7077519894 48.138481140 193.83680725 488.29928589 262.64819336 224.82189941 27.940349579 52.313701630 98.592399597
 5184.0000000 17.497890472 0.0639013201 4.9079971313 2.7015669346 48.209781647 194.57919312 505.25711060 274.51370239 220.02079773 27.539709091 51.454898834 98.604797363
 5184.5000000 17.459949493 0.0509781018 4.8348569870 2.7174808979 48.570690155 201.67979431 567.90478516 319.66909790 209.10659790 28.333530426 50.826499939 98.326103210
 5185.0000000 17.444770813 0.0374845006 4.7735729218 2.7281448841 48.647689819 210.95950317 658.53729248 398.17068481 269.38000488 27.586460114 50.441898346 97.765296936
 5185.5000000 17.422000885 0.0310850497 4.8039608002 2.7440040112 49.336669922 219.15750122 742.30157471 474.12759399 322.79568481 28.158679962 49.747299194 97.254898071
 5186.0000000 17.422000885 0.0264723692 4.8541259766 2.7506120205 49.356380463 221.43659973 794.59838867 538.87322998 404.33950806 28.604049683 49.446701050 96.683097839
 5186.5000000 17.422000885 0.0271515697 4.9264321327 2.7661750317 49.760559082 224.42640686 823.30987549 578.19171143 427.71200562 29.244710922 49.297401428 96.097999573
 5187.0000000 17.422000885 0.0275989808 4.9486727715 2.7700049877 50.333808899 228.88830566 873.86358643 650.58422852 514.80828857 30.484390259 49.161899567 95.524200439
 5187.5000000 17.433380127 0.0294101797 4.9391598701 2.7596600056 50.222980499 232.62739563 922.87121582 729.84832764 586.32110596 30.146139145 49.084701538 95.304901123
 5188.0000000 17.433380127 0.0284781791 4.9391541481 2.7369399071 49.887569427 231.23219299 920.15997314 743.10119629 685.33691406 32.916431427 49.116798401 95.206001282
 5188.5000000 17.422000885 0.0335765593 4.9646401405 2.7265410423 49.281410217 225.28559875 867.80700684 676.20458984 636.80731201 32.008628845 49.143199921 95.136199951
 5189.0000000 17.422000885 0.0374999717 4.9991950989 2.7247929573 49.417961121 225.49119568 855.71411133 649.47290039 526.46087646 31.611770630 49.238201141 94.851799011
 5189.5000000 17.422000885 0.0374508612 4.9597511292 2.7287399769 49.406799316 227.35000610 856.03082275 644.19262695 458.10089111 30.809000015 49.358898163 94.384201050
 5190.0000000 17.422000885 0.0329959989 4.8816461563 2.7334110737 49.105480194 221.86869812 825.66217041 616.62921143 436.78628540 31.293260574 49.479698181 94.484802246
 5190.5000000 17.437179565 0.0327434391 4.8101491928 2.7443859577 48.513008118 218.39920044 831.52508545 641.91491699 456.48968506 33.838531494 49.599201202 94.763999939
 5191.0000000 17.437179565 0.0337979682 4.8396811485 2.7432999611 48.718700409 219.13589478 854.82812500 679.77551270 493.37289429 33.786769867 50.291999817 95.261398315
 5191.5000000 17.452360153 0.0405241884 4.9308118820 2.7392520905 48.846569061 223.39230347 865.54852295 665.51562500 453.91580200 34.570781708 50.383300781 95.409202576
 5192.0000000 17.467529297 0.0426881500 5.0180029869 2.7347710133 48.895610809 226.28770447 883.08251953 683.36871338 427.79541016 33.569820404 50.424999237 95.663696289
 5192.5000000 17.467529297 0.0438181087 5.0176467896 2.7378339767 48.962120056 225.19619751 887.45062256 678.39611816 395.36538696 33.627429962 50.431400299 96.163696289
 5193.0000000 17.497890472 0.0402688012 5.0030369759 2.7484469414 50.787540436 238.84140015 972.23767090 756.25091553 489.44158936 33.084159851 50.392398834 96.174697876
 5193.5000000 17.497890472 0.0368432812 4.9174189568 2.7523601055 48.828578949 226.07870483 914.62518311 715.71337891 473.73208618 32.868499756 50.315700531 95.891998291
 5194.0000000 17.478919983 0.0333693512 4.8848628998 2.7572340965 49.747871399 227.39190674 868.35083008 633.57128906 440.27441406 32.280731201 49.685798645 95.717399597
 5194.5000000 17.467529297 0.0322461389 4.8204979897 2.7556920052 49.814460754 226.36030579 835.95068359 592.27398682 397.81298828 32.923439026 49.574401855 95.663803101
 5195.0000000 17.475120544 0.0323286988 4.7564377785 2.7539689541 49.313709259 222.29969788 780.94732666 526.22778320 420.86178589 33.951938629 49.423900604 94.960700989
 5195.5000000 17.467529297 0.0306990705 4.6554708481 2.7516140938 49.649211884 218.66940308 738.10772705 469.56680298 373.55358887 35.387081146 49.278099060 94.180000305
 5196.0000000 17.482709885 0.0287888199 4.6115970612 2.7579340935 49.395519257 219.37170410 739.27148438 467.28021240 370.97390747 35.930278778 49.117401123 94.146598816
 5196.5000000 17.482709885 0.0255720802 4.6297860146 2.7583019733 49.187889099 219.07090759 756.37762451 484.68319702 356.67388916 36.050861359 48.990798950 94.330001831
 5197.0000000 17.459949493 0.0244038701 4.7023649216 2.7534420490 49.745960236 222.45329285 754.34362793 475.43341064 407.19131470 34.037841797 48.920200348 93.961601257
 5197.5000000 17.467529297 0.0220663808 4.7228279114 2.7430250645 50.228580475 222.66889954 728.71368408 445.41430664 386.42459106 33.841129303 48.888500214 94.216697693
 5198.0000000 17.444770813 0.0260752104 4.7825150490 2.7351799011 49.915111542 218.17759705 720.64251709 443.76971436 364.71490479 32.084648132 48.876998901 94.348297119
 5198.5000000 17.452360153 0.0248396993 4.7949919701 2.7333259583 49.392219543 218.73010254 724.91638184 453.49310303 346.83981323 32.608070374 48.919998169 94.408996582
 5199.0000000 17.444770813 0.0259299707 4.8030681610 2.7282140255 50.203128815 222.10679626 736.01727295 452.04971313 311.51998901 31.380449295 49.010700226 94.303298950
 5199.5000000 17.444770813 0.0254244804 4.7596311569 2.7290019989 50.725399017 228.30099487 764.57977295 466.28259277 320.29730225 32.965461731 49.134300232 93.930198669
 5200.0000000 17.459949493 0.0265891701 4.7665009499 2.7346129417 50.804290771 224.37989807 749.43780518 462.63308716 331.00170898 33.850669861 49.309700012 93.473396301
 5200.5000000 17.459949493 0.0312926993 4.8331499100 2.7353730202 50.985031128 222.51420593 716.27667236 430.56988525 299.81201172 35.885971069 49.498699188 94.319702148
 5201.0000000 17.452360153 0.0388430282 4.9127621651 2.7336928844 50.252998352 221.93519592 715.86987305 432.82778931 303.09439087 35.631328583 50.320999146 95.176399231
 5201.5000000 17.444770813 0.0428229012 4.9253630638 2.7326710224 49.978599548 217.33399963 665.73406982 393.06188965 278.12460327 35.086490631 50.442699432 95.311302185
 5202.0000000 17.478919983 0.0424327813 4.8430519104 2.7349739075 50.662498474 219.95219421 653.63238525 374.90930176 269.13250732 33.087600708 50.498001099 95.392501831
 5202.5000000 17.433380127 0.0412077717 4.7424359322 2.7437078953 51.157379150 223.20779419 681.34619141 394.04080200 277.66250610 31.545440674 50.343101501 96.154701233
 5203.0000000 17.437179565 0.0365873203 4.6927781105 2.7442069054 51.301010132 222.83599854 648.83111572 370.43438721 340.15490723 32.162021637 50.246398926 95.819396973
 5203.5000000 17.456150055 0.0346535183 4.7074251175 2.7427120209 50.436611176 212.85830688 580.69067383 316.55731201 362.18771362 32.013530731 50.381801605 95.721099854
 5204.0000000 17.444770813 0.0370946415 4.7174530029 2.7375240326 50.179920197 205.98129272 530.02001953 279.71520996 279.40460205 32.246250153 49.805900574 95.412101746
 5204.5000000 17.429590225 0.0387981310 4.6933431625 2.7329969406 49.817459106 200.31520081 492.79611206 257.41128540 245.45799255 32.254379272 49.649600983 95.090499878
 5205.0000000 17.422000885 0.0418842509 4.6437540054 2.7350709438 50.366279602 203.40069580 511.85049438 271.12149048 213.36010742 34.168651581 49.517700195 94.369003296
 5205.5000000 17.429590225 0.0384287983 4.6708459854 2.7295780182 50.847919464 212.00419617 570.82012939 316.43881226 211.45309448 35.085540771 49.311199188 93.713401794
 5206.0000000 17.406820297 0.0345925204 4.7295470238 2.7253470421 51.736488342 221.59449768 625.90832520 365.76181030 230.70860291 34.558570862 49.297199249 93.496101379
 5206.5000000 17.406820297 0.0315399505 4.7824449539 2.7236568928 51.822441101 223.98429871 643.98077393 393.66870117 312.14471436 33.899360657 49.227600098 93.905899048
