# LAS format log file from PETREL
# Project units are specified as depth units
#==================================================================
~Version information
VERS.   2.0:
WRAP.   NO:
#==================================================================
~Well
STRT .ft 5039.0000000         :
STOP .ft 7236.0000000         :
STEP .ft 0.50000000           :
NULL .   -999.250000          :
COMP.                         : COMPANY
WELL.    CCS1                 : WELL
FLD.                          : FIELD
LOC.                          : LOCATION
SRVC.                         : SERVICE COMPANY
DATE.    2020-07-27 11:17:06  : Log Export Date {yyyy-MM-dd HH:mm:ss}
PROV.                         : PROVINCE
UWI.     121152341500         : UNIQUE WELL ID
API.     121152341500         : API NUMBER
#==================================================================
~Curve
DEPT .ft                   : DEPTH
HCAL .in                  : HCAL
HTNP .ft3/ft3             : HTNP
PEFZ .b/e                 : PEFZ
RHOZ .g/cm3               : RHOZ
RLA2 .ohm.m               : RLA2
RLA3 .ohm.m               : RLA3
RLA4 .ohm.m               : RLA4
RLA5 .ohm.m               : RLA5
RXOZ .ohm.m               : RXOZ
Gamma .gAPI               : Gamma
DTCO .us/ft               : DTCO
DTSM .us/ft               : DTSM
~Parameter
#==================================================================
~Ascii
# ...
 5327.0000000 12.299360275 0.3699600101 3.7482669353 2.4717988968 0.0182600003 0.0164800007 0.0152500002 0.0163400006 0.0299999993 67.190872192 66.943801880 140.56779480
 5327.5000000 12.317079544 0.3391799927 3.7138860226 2.4786748886 0.0167800002 0.0152500002 0.0141700003 0.0155999996 0.0300699994 63.890209198 65.628097534 140.43989563
 5328.0000000 12.612319946 0.2969399989 3.8857820034 2.4958651066 0.0161899999 0.0146700004 0.0135700004 0.0143400002 0.0332599990 62.288349152 65.577003479 113.46869659
 5328.5000000 12.570779800 0.3007299900 4.9171509743 2.5096158981 0.0376700088 0.0344999991 0.0317500010 0.0315699987 0.0542000011 66.546302795 65.202301025 111.45729828
 5329.0000000 13.579219818 0.3100700080 4.9515299797 2.5302441120 0.1316699982 0.1218800023 0.1111399978 0.1065099984 0.1682099998 72.561332703 63.797000885 126.53769684
 5329.5000000 13.326210022 0.2744399905 5.0546660423 2.5336821079 0.4973500073 0.4488100111 0.4038299918 0.3571299911 2.7218699455 79.862892151 61.826900482 130.26510620
 5330.0000000 13.466349602 0.2394700050 4.9432601929 2.5405569077 1.3962500095 1.2251199484 1.1051399708 0.9606199861 5.0129699707 85.451957703 62.678001404 131.76960754
 5330.5000000 13.562700272 0.2357099950 4.8370499611 2.5373399258 3.1468100548 2.7642199993 2.5398600101 2.2027800083 3.6984999180 93.169067383 65.529296875 106.78659821
 5331.0000000 13.572620392 0.2412099987 4.7688097954 2.5065300465 7.2936902046 5.4939489365 5.0101199150 4.2873601913 3.2290399075 98.700462341 68.479400635 106.61499786
 5331.5000000 13.612139702 0.2480199933 4.6757497787 2.5229499340 11.481100082 10.483510017 10.065070152 8.6371011734 2.1738300323 99.772186279 67.500900269 100.86350250
 5332.0000000 13.648090363 0.2271800041 4.4637198448 2.5883500576 11.181469917 13.003529549 12.134420395 10.379269600 3.0073199272 94.968727112 62.491100311 108.79129791
 5332.5000000 15.569470406 0.1988099962 4.1455698013 2.6682200432 10.043390274 14.067170143 13.722570419 11.901880264 4.2585701942 91.852996826 53.331600189 113.02069855
 5333.0000000 16.764739990 0.1867199987 3.8502600193 2.6682400703 8.2289800644 11.029500008 10.679149628 8.9528903961 13.426500320 95.425727844 51.839199066 122.81510162
 5333.5000000 17.342170715 0.1945900023 3.7084600925 2.5681200027 7.4491300583 9.2473993301 8.0688495636 6.3756098747 11.521459579 105.01969910 60.256099701 133.07269287
 5334.0000000 17.463600159 0.2223799974 3.6904098988 2.4851899147 6.1690311432 7.5858688354 5.6241202354 4.1183099747 5.8369798660 111.16239929 64.769203186 138.38380432
 5334.5000000 17.287000656 0.2412499934 3.7151100636 2.4582901001 5.9450798035 8.1180295944 5.6014089584 3.8991899490 5.2072110176 111.21009827 63.456798553 141.96580505
 5335.0000000 17.295270920 0.2621499896 3.7377200127 2.5134201050 6.8719801903 14.224029541 9.0867099762 5.9273700714 6.7634701729 105.16600037 59.616100311 136.65299988
 5335.5000000 17.511610031 0.2633300126 3.7386300564 2.5778100491 7.0455899239 18.006599426 13.194120407 8.6007204056 14.673729897 101.17420197 57.540199280 132.40660095
 5336.0000000 17.546670914 0.2841100097 3.7326200008 2.5968000889 6.6858010292 17.690660477 13.340840340 8.8379201889 17.694520950 100.09429932 58.538700104 129.97860718
 5336.5000000 17.559730530 0.2669300139 3.7080600262 2.5649499893 6.3663702011 16.332899094 12.406680107 8.4966697693 11.136170387 103.01329803 60.781299591 130.76390076
 5337.0000000 17.553010941 0.2595199943 3.6484699249 2.5024600029 5.5897789001 12.208600044 8.4196596146 6.0822510719 6.7914600372 105.17549896 62.432598114 133.57330322
 5337.5000000 17.532049179 0.2578299940 3.5519099236 2.4409499168 5.1795001030 10.118100166 7.1874399185 5.1393899918 4.1142101288 107.63459778 64.562103271 137.05589294
 5338.0000000 17.666339874 0.2938399911 3.4690699577 2.3998999596 4.8018288612 8.2502403259 6.2557001114 4.5000801086 2.9920799732 111.89240265 70.429702759 140.87120056
 5338.5000000 17.883960724 0.3255299926 3.4614899158 2.3914499283 4.4953098297 6.6712799072 5.3312711716 3.9860000610 2.5850899220 116.50890350 71.007698059 148.49420166
 5339.0000000 17.781230927 0.3197799921 3.5160799026 2.4027600288 4.5413098335 6.9347510338 5.4656100273 4.3623399734 2.7192699909 121.06379700 73.305603027 149.59880066
 5339.5000000 17.679319382 0.3062500060 3.5740699768 2.4292600155 4.6558899879 7.8937201500 5.8225297928 4.8866209984 3.3470399380 124.58159637 71.106796265 146.20849609
 5340.0000000 17.551319122 0.2907299995 3.5690999031 2.4312300682 4.7827901840 8.7181501389 6.2568101883 5.4531211853 4.1181898117 128.51449585 69.760597229 141.28900146
 5340.5000000 17.513010025 0.3017899990 3.5798699856 2.4037899971 4.3557801247 6.9360899925 5.1328601837 4.6492099762 3.2671499252 131.65469360 72.434600830 142.45429993
 5341.0000000 17.709920883 0.3183400035 3.5949800014 2.3652000427 4.0599899292 5.4774498940 4.2278189659 3.8980100155 2.4651699066 133.43870544 74.373497009 146.32699585
 5341.5000000 17.631320953 0.3452199996 3.6755199432 2.3559999466 4.0565810204 5.1347098351 4.1081700325 3.8303499222 2.2481999397 133.99200439 76.341300964 149.58419800
 5342.0000000 17.798330307 0.3424600065 3.8231999874 2.3694999218 4.3461699486 5.6967101097 4.4749898911 4.1792497635 2.7625699043 133.76400757 70.386901855 150.65199280
 5342.5000000 17.715759277 0.3365499973 4.0233402252 2.3831100464 5.6055002213 9.6050596237 6.6860799789 6.2618198395 2.5457201004 132.93949890 71.945098877 142.63070679
 5343.0000000 17.054130554 0.3127500117 4.2055802345 2.3417999744 6.3992900848 12.944239616 8.6365404129 8.1038398743 0.6551499963 127.56199646 79.148200989 158.00900269
 5343.5000000 17.293680191 0.2808600068 4.3138999939 2.3625900745 6.9960498810 15.145079613 10.993419647 10.316579819 0.5155299902 115.59200287 85.508796692 159.76460266
 5344.0000000 18.067789078 0.2305700034 4.3202600479 2.4586899281 8.2006196976 19.807559967 17.075580597 16.265470505 0.6153100133 101.40290070 87.973602295 157.05580139
 5344.5000000 16.529050827 0.1732300073 4.2657799721 2.6119899750 9.9060707092 25.898029327 23.858499527 23.714269638 2.5053400993 93.750236511 77.436096191 132.58329773
 5345.0000000 13.194629669 0.1196400002 4.1279101372 2.6889300346 11.697629929 28.714939117 23.749479294 26.488079071 10.543700218 94.035003662 67.545600891 114.46089935
 5345.5000000 12.944780350 0.0852399990 3.9881100655 2.6881599426 13.078630447 20.249309540 21.762170792 25.986850739 19.119749069 99.538436890 59.741001129 115.87039948
 5346.0000000 12.687060356 0.0793899968 3.8674800396 2.6697900295 13.901459694 19.215599060 24.012199402 29.510509491 19.706970215 107.15920258 59.227500916 118.59819794
 5346.5000000 12.505189896 0.0841199979 3.8320500851 2.6652700901 16.352800369 21.176589966 27.072599411 33.917320251 22.628089905 115.09369659 60.827201843 123.18329620
 5347.0000000 12.409079552 0.0861200020 3.8597800732 2.6769499779 15.842650414 21.038490295 26.211080551 33.121059418 22.898679733 120.30709839 61.152500153 121.73799896
 5347.5000000 12.408229828 0.0987500027 3.9203898907 2.6896300316 13.836170197 18.773109436 22.413099289 28.309480667 21.894109726 116.95159912 59.966098785 118.97519684
 5348.0000000 12.400609970 0.1031399965 3.9358699322 2.6733200550 15.249959946 21.368349075 24.684749603 31.229000092 20.804660797 111.43679810 59.435501099 120.65809631
 5348.5000000 12.407959938 0.1018000022 3.8567299843 2.6292200089 13.811260223 19.340759277 21.506719589 27.309560776 19.603109360 116.32610321 59.375301361 121.35440063
 5349.0000000 12.407990456 0.0909899995 3.7241899967 2.5920300484 11.763230324 15.370980263 16.723300934 20.761560440 16.847320557 136.14860535 60.710201263 121.58249664
 5349.5000000 12.429650307 0.0939999968 3.6560299397 2.5849499702 10.683119774 14.324609756 15.758079529 19.372409821 15.352199554 158.42590332 62.024299622 122.38680267
 5350.0000000 12.485980034 0.1138100028 3.7157199383 2.6001000404 9.9415988922 13.551010132 14.820010185 17.917690277 12.799810410 167.15730286 63.672698975 123.99569702
 5350.5000000 12.486049652 0.1298500001 3.7991399765 2.5932500362 8.3016290665 10.941699982 11.847479820 13.848010063 9.8752698898 163.79110718 65.203102112 125.19129944
