# LAS format log file from PETREL
# Project units are specified as depth units
#==================================================================
~Version information
VERS.   2.0:
WRAP.   NO:
#==================================================================
~Well
STRT .ft 5039.0000000         :
STOP .ft 7236.0000000         :
STEP .ft 0.50000000           :
NULL .   -999.250000          :
COMP.                         : COMPANY
WELL.    CCS1                 : WELL
FLD.                          : FIELD
LOC.                          : LOCATION
SRVC.                         : SERVICE COMPANY
DATE.    2020-07-27 11:17:06  : Log Export Date {yyyy-MM-dd HH:mm:ss}
PROV.                         : PROVINCE
UWI.     121152341500         : UNIQUE WELL ID
API.     121152341500         : API NUMBER
#==================================================================
~Curve
DEPT .ft                   : DEPTH
HCAL .in                  : HCAL
HTNP .ft3/ft3             : HTNP
PEFZ .b/e                 : PEFZ
RHOZ .g/cm3               : RHOZ
RLA2 .ohm.m               : RLA2
RLA3 .ohm.m               : RLA3
RLA4 .ohm.m               : RLA4
RLA5 .ohm.m               : RLA5
RXOZ .ohm.m               : RXOZ
Gamma .gAPI               : Gamma
DTCO .us/ft               : DTCO
DTSM .us/ft               : DTSM
~Parameter
#==================================================================
~Ascii
# ...
 6359.0000000 12.355680466 0.0721499994 2.3938400745 2.4747700691 6.6784601212 6.3449897766 6.3959999084 6.5109601021 6.5431900024 66.949012756 66.935096741 106.69059753
 6359.5000000 12.348030090 0.0710600019 2.4488298893 2.4764399529 5.7621197701 5.7672901154 5.7901701927 5.9144101143 6.7879400253 67.536903381 67.171096802 110.32230377
 6360.0000000 12.331489563 0.0674899966 2.4447801113 2.4758000374 5.9888601303 5.9080801010 5.9209198952 6.0099201202 6.8390488625 64.192108154 66.995399475 113.34439850
 6360.5000000 12.319450378 0.0694599971 2.4146399498 2.4734799862 6.7356810570 6.7584600449 6.7263588905 6.8305201530 6.8054389954 59.228790283 66.524696350 115.25260162
 6361.0000000 12.341090202 0.0667499974 2.3724699020 2.4779601097 6.1243901253 6.2980799675 6.2184610367 6.2823801041 7.5760498047 55.633750916 65.629402161 114.63040161
 6361.5000000 12.341380119 0.0667999983 2.3747799397 2.4763898849 5.7624602318 6.1553797722 6.1299099922 6.1610999107 8.2430992126 54.411441803 65.167800903 111.82450104
 6362.0000000 12.375169754 0.0639199987 2.4036400318 2.4715399742 5.4978399277 5.8763790131 5.8884201050 5.8950700760 7.0125198364 56.502090454 65.046096802 109.62879944
 6362.5000000 12.388380051 0.0657500029 2.4357199669 2.4716100693 6.0647201538 6.2439098358 6.3965802193 6.2955698967 6.5653100014 60.104640961 65.455299377 109.54550171
 6363.0000000 12.428000450 0.0643099993 2.4619998932 2.4842500687 7.7138700485 7.8606801033 8.0541896820 7.9683489799 6.8769388199 66.099319458 65.127899170 110.15390015
 6363.5000000 12.462160110 0.0625000000 2.5002799034 2.5056700706 9.0121707916 9.0901708603 9.2995796204 9.2411699295 9.6372098923 74.150657654 64.759696960 110.24539948
 6364.0000000 12.466179848 0.0617199987 2.5566298962 2.5232899189 8.6024703979 8.6655197144 8.7361803055 8.7644100189 9.5350599289 82.009529114 64.286903381 109.17829895
 6364.5000000 12.693499565 0.0654800013 2.5563800335 2.5315899849 7.2880501747 7.1135201454 7.0880298615 7.0811100006 7.4215798378 80.592987061 63.527999878 107.02400208
 6365.0000000 13.304849625 0.0659499988 2.4808700085 2.5286200047 7.3979802132 7.1572999954 7.1416501999 7.1321401596 6.7880902290 72.800148010 63.633701324 105.92369843
 6365.5000000 12.568820000 0.0623899996 2.3537900448 2.5168600082 8.0898799896 7.6897602081 7.6234698296 7.5699801445 9.5666103363 64.967597961 63.571300507 106.81759644
 6366.0000000 12.471380234 0.0585299991 2.2958199978 2.5099899769 8.7872190475 7.8344011307 7.6843090057 7.6372900009 10.542240143 65.294731140 63.758300781 107.56340027
 6366.5000000 12.474590302 0.0596400015 2.3660299778 2.4837899208 6.2157001495 5.8766198158 5.6825199127 5.6471400261 9.8821897507 68.228523254 64.667701721 107.48940277
 6367.0000000 12.474650383 0.0612300001 2.5445499420 2.4720599651 5.0461001396 4.7706499100 4.5948410034 4.5441699028 5.0569300652 70.934463501 65.025703430 107.44560242
 6367.5000000 12.531929970 0.0650200024 2.6930699348 2.4977200031 6.7616310120 6.5096898079 6.4055199623 6.2611899376 4.7052202225 73.947189331 64.867103577 108.02960205
 6368.0000000 12.415120125 0.0649899989 2.7004499435 2.5450599194 10.004549980 9.5935297012 9.3459596634 9.4040899277 5.3711500168 81.412086487 63.707698822 109.49389648
 6368.5000000 12.413760185 0.0600100011 2.5787398815 2.5585598946 8.6715602875 7.8602709770 7.6186499596 7.6541299820 9.6764497757 92.164062500 62.817699432 109.38459778
 6369.0000000 12.364480019 0.0489999987 2.4159300327 2.5222899914 7.4213709831 6.9040398598 6.7011799812 6.7164111137 10.790140152 97.376342773 63.330699921 108.09269714
 6369.5000000 12.407979965 0.0492100008 2.3020899296 2.4817099571 6.1392211914 5.7872600555 5.6352701187 5.6206398010 7.8106899261 90.725677490 65.343902588 108.55220032
 6370.0000000 12.371950150 0.0633699968 2.2677500248 2.4650599957 5.6993589401 5.5310301781 5.4192600250 5.3313398361 6.3145899773 79.581886292 66.797096252 109.90519714
 6370.5000000 12.370840073 0.0723500028 2.2724900246 2.4754900932 7.2772111893 7.2076988220 7.2070589066 7.0390901566 6.7744698524 72.533073425 66.959999084 112.59149933
 6371.0000000 12.414679527 0.0758100003 2.2905399799 2.5034101009 8.4267501831 8.6280002594 8.7950897217 8.5879001617 8.8055887222 72.207832336 66.424301147 113.14920044
 6371.5000000 12.449580193 0.0678000003 2.3069698811 2.5312399864 9.3321504593 9.7790603638 10.049429893 9.8730096817 9.9512500763 70.075653076 64.905197144 110.72200012
 6372.0000000 12.415390015 0.0564999990 2.3543500900 2.5346999168 9.7885007858 10.179829597 10.373629570 10.190409660 9.9446601868 63.677680969 63.311000824 107.76920319
 6372.5000000 12.467849731 0.0500000007 2.5027899742 2.5166900158 8.0699796677 8.2940797806 8.1545495987 8.0753297806 9.4316587448 56.610050201 62.555198669 105.73609924
 6373.0000000 12.439929962 0.0449800007 2.7510499954 2.4912300110 7.1155099869 7.1742110252 7.2241601944 7.0610189438 7.6509699821 53.866798401 62.281101227 104.97699738
 6373.5000000 12.787529945 0.0441900007 3.0220301151 2.5006499290 6.9540100098 7.1687011719 7.2048988342 7.0708899498 5.8835601807 56.878131866 62.699100494 105.26190186
 6374.0000000 12.609660149 0.0430799983 3.1832299232 2.5192000866 6.4684100151 6.8141398430 7.0277600288 6.8996601105 5.3381800652 61.993801117 63.187099457 106.67669678
 6374.5000000 12.681790352 0.0469999984 3.2019000053 2.5263500214 6.2136898041 6.6680197716 6.8048901558 6.7318801880 4.3770198822 66.501770020 64.245796204 107.33129883
 6375.0000000 12.260049820 0.0512799993 3.1478400230 2.5083599091 4.7656898499 4.8294200897 4.8163700104 4.7669501305 2.8784899712 67.702598572 65.351600647 108.04959869
 6375.5000000 12.763090134 0.0614599995 3.1021900177 2.4937400818 4.6113200188 4.6275601387 4.6003098488 4.5406899452 2.4859099388 65.044403076 66.841499329 110.19049835
 6376.0000000 12.767100334 0.0685100034 3.0904099941 2.5107998848 5.3784799576 5.3373699188 5.2782301903 5.2176299095 2.9851999283 61.654838562 67.184700012 112.66110229
 6376.5000000 13.137120247 0.0729300007 3.0704400539 2.5352599621 6.3737897873 6.2955989838 6.2119488716 6.1496300697 4.3250298500 63.645610809 66.699302673 113.49330139
 6377.0000000 13.585670471 0.0663900003 2.9597299099 2.5387399197 7.9954400063 7.9447488785 7.8386597633 7.8020601273 6.2601399422 73.833259583 66.352096558 112.75800323
 6377.5000000 12.770509720 0.0586499982 2.7510600090 2.5210499763 6.8250999451 6.0981111526 5.9094400406 5.8530797958 7.3690299988 82.776496887 65.461097717 110.93879700
 6378.0000000 12.642459869 0.0567700006 2.5305800438 2.5035200119 7.8354201317 6.6882400513 6.4589509964 6.3653788567 8.9965000153 82.771942139 65.564796448 110.11689758
 6378.5000000 12.560159683 0.0684499964 2.3899800777 2.5111000538 8.2140398026 7.3628897667 7.2494897842 7.1477699280 9.7510910034 75.862503052 65.083099365 109.20909882
 6379.0000000 12.483900070 0.0678400025 2.3760800362 2.4989399910 9.0608701706 8.4459896088 8.3333997726 8.3003997803 11.411210060 69.818626404 64.672401428 109.02130127
 6379.5000000 12.489680290 0.0630899966 2.5187199116 2.4714999199 7.4365501404 7.0873599052 7.0151209831 7.0352802277 10.282329559 66.807113647 63.567199707 109.66519928
 6380.0000000 12.424079895 0.0540399998 2.7962000370 2.4301300049 6.7277698517 6.1565899849 6.0858497620 6.0905299187 6.2751588821 64.323219299 62.860198975 109.68399811
 6380.5000000 12.623459816 0.0528700016 3.0880300999 2.4303700924 7.5182390213 6.7820401192 6.6428098679 6.6742310524 5.0391402245 63.399860382 63.270801544 108.30789948
 6381.0000000 12.465640068 0.0500600003 3.2527298927 2.4683499336 9.0115709305 7.9961500168 7.8641510010 7.9000501633 4.8200597763 65.968490601 64.067199707 106.65190125
 6381.5000000 12.785770416 0.0527799986 3.2947499752 2.5108799934 9.9007902145 8.6586198807 8.4277095795 8.4996700287 5.3564801216 69.926277161 64.879203796 106.57569885
 6382.0000000 12.407489777 0.0631000027 3.3009800911 2.5134301186 8.6900997162 7.7014999390 7.5221400261 7.5636200905 5.0800800323 71.655006409 64.739898682 107.33439636
 6382.5000000 12.608409882 0.0694800019 3.3298099041 2.4816401005 8.0615701675 7.0769200325 6.8742389679 6.8814702034 4.8573198318 66.757087708 64.464698792 107.76300049
