# LAS format log file from PETREL
# Project units are specified as depth units
#==================================================================
~Version information
VERS.   2.0:
WRAP.   NO:
#==================================================================
~Well
STRT .ft 5039.0000000         :
STOP .ft 7236.0000000         :
STEP .ft 0.50000000           :
NULL .   -999.250000          :
COMP.                         : COMPANY
WELL.    CCS1                 : WELL
FLD.                          : FIELD
LOC.                          : LOCATION
SRVC.                         : SERVICE COMPANY
DATE.    2020-07-27 11:17:06  : Log Export Date {yyyy-MM-dd HH:mm:ss}
PROV.                         : PROVINCE
UWI.     121152341500         : UNIQUE WELL ID
API.     121152341500         : API NUMBER
#==================================================================
~Curve
DEPT .ft                   : DEPTH
HCAL .in                  : HCAL
HTNP .ft3/ft3             : HTNP
PEFZ .b/e                 : PEFZ
RHOZ .g/cm3               : RHOZ
RLA2 .ohm.m               : RLA2
RLA3 .ohm.m               : RLA3
RLA4 .ohm.m               : RLA4
RLA5 .ohm.m               : RLA5
RXOZ .ohm.m               : RXOZ
Gamma .gAPI               : Gamma
DTCO .us/ft               : DTCO
DTSM .us/ft               : DTSM
~Parameter
#==================================================================
~Ascii
# ...
 6215.0000000 12.304599762 0.0468799993 2.5116000175 2.4920899868 7.7566089630 7.5474801064 7.6180100441 7.5741100311 10.997369766 87.031517029 61.201999664 106.69789886
 6215.5000000 12.280209541 0.0466400012 2.4575700760 2.4942998886 7.5763401985 7.6321902275 7.6821298599 7.6618700027 7.7075300217 80.006881714 63.100299835 106.18620300
 6216.0000000 12.296939850 0.0492100008 2.3963201046 2.4981400967 5.1021900177 5.0138201714 4.9430499077 4.9111399651 6.3002500534 71.736968994 63.425300598 106.49780273
 6216.5000000 12.230330467 0.0482200012 2.3214499950 2.5072898865 5.1863799095 5.1338410378 5.1174302101 5.0541710854 5.7964010239 64.122833252 62.993999481 105.88449860
 6217.0000000 12.254770279 0.0473599993 2.2779800892 2.5051600933 5.7508702278 5.7126398087 5.6247200966 5.5831398964 6.5032610893 59.160549164 62.922000885 105.29750061
 6217.5000000 12.254770279 0.0495299995 2.2757599354 2.4978899956 5.4078397751 5.3886198997 5.2777099609 5.2441501617 6.4935598373 58.686130524 62.509899139 105.42900085
 6218.0000000 12.268260002 0.0508400016 2.3121800423 2.4819700718 4.9140601158 4.9182300568 4.7962598801 4.7752199173 5.7457199097 59.604679108 62.363300323 104.98079681
 6218.5000000 12.221859932 0.0486599989 2.3449399471 2.4732100964 4.5776000023 4.5543198586 4.4397301674 4.4258999825 5.1299901009 61.895278931 62.420600891 103.72740173
 6219.0000000 12.236619949 0.0480899997 2.3521599770 2.4722700119 4.4412999153 4.4769802094 4.3767700195 4.3707199097 4.8683099747 65.421943665 62.417198181 102.46640015
 6219.5000000 12.272700310 0.0516499989 2.3778400421 2.4743399620 4.2745800018 4.3513598442 4.2770099640 4.2684998512 4.2944798470 76.331657410 62.736301422 102.25859833
 6220.0000000 12.296959877 0.0570200011 2.4535000324 2.4619600773 4.9302501678 5.0698099136 5.0558500290 5.0542998314 4.4635210037 94.342033386 63.293899536 103.46279907
 6220.5000000 12.322170258 0.0584799983 2.5452198982 2.4586999416 5.0094599724 5.0766100883 5.0778899193 5.0680599213 4.5323400497 107.89969635 63.565498352 105.08609772
 6221.0000000 12.332989693 0.0595300011 2.5976600647 2.4789700508 6.1168189049 6.2593498230 6.3300399780 6.3123798370 6.3307499886 113.46880341 64.412803650 106.76670074
 6221.5000000 12.280599594 0.0617300011 2.5895900726 2.4993999004 7.0925998688 7.3265900612 7.3457698822 7.4480800629 6.8317499161 105.58809662 63.553001404 107.84750366
 6222.0000000 12.272839546 0.0623500012 2.5423200130 2.4956099987 5.6267099380 5.6151189804 5.5796899796 5.6512799263 7.1655502319 96.339370728 63.234600067 108.63729858
 6222.5000000 12.238670349 0.0597999990 2.4839799404 2.4785299301 5.0414299965 4.9702410698 4.9752998352 5.0063500404 6.3950500488 86.487533569 62.636501312 108.57920074
 6223.0000000 12.224829674 0.0613799989 2.4168701172 2.4767200947 5.5043101311 5.4387698174 5.4805588722 5.4939699173 6.4577598572 78.919166565 62.529998779 107.71340179
 6223.5000000 12.222029686 0.0589400008 2.4004399776 2.4821600914 5.8076400757 5.7154002190 5.7428097725 5.7609200478 6.7979698181 71.843231201 62.949100494 106.32440186
 6224.0000000 12.247280121 0.0578599982 2.4067800045 2.4814000130 6.3209199905 6.2576999664 6.2866702080 6.3000698090 6.8120999336 66.468482971 63.013698578 104.56819916
 6224.5000000 12.230349541 0.0547100008 2.4263899326 2.4861199856 6.2759590149 6.2282509804 6.2389211655 6.2652997971 8.0077400208 65.947860718 62.684700012 103.98090363
 6225.0000000 12.241189957 0.0545599982 2.4274098873 2.4986500740 5.9610900879 5.8155698776 5.7814798355 5.7767801285 8.9084005356 69.551773071 61.921901703 104.01069641
 6225.5000000 12.258259773 0.0499100015 2.4052600861 2.5131800175 6.5321397781 6.3571100235 6.3117899895 6.2976899147 9.3090200424 70.155906677 61.500301361 104.27919769
 6226.0000000 12.244319916 0.0487099998 2.3722000122 2.5148301125 6.7208399773 6.5435700417 6.4621601105 6.4481310844 9.3401203156 66.859123230 61.924701691 104.28959656
 6226.5000000 12.254980087 0.0553800017 2.3387498856 2.5106101036 6.1766901016 5.9752202034 5.9126100540 5.9198098183 8.7016296387 62.312530518 62.513500214 104.76159668
 6227.0000000 12.274720192 0.0596700013 2.3204801083 2.5042700768 5.6700401306 5.4195098877 5.3284797668 5.3341898918 7.4993810654 60.224388123 62.479000092 105.16510010
 6227.5000000 12.270050049 0.0588000007 2.3210599422 2.4983301163 5.1161298752 4.8795900345 4.7604598999 4.7654099464 6.4970588684 63.193820953 62.242500305 104.73600006
 6228.0000000 12.272459984 0.0548899993 2.3365299702 2.4918398857 5.4195899963 5.1591701508 5.0509700775 5.0382699966 6.5036511421 68.153617859 61.491901398 102.99160004
 6228.5000000 12.265939713 0.0568899997 2.3509299755 2.4879999161 5.9944500923 5.6325402260 5.4908399582 5.5021400452 6.5492801666 70.468673706 61.592498779 101.34410095
 6229.0000000 12.230330467 0.0591799989 2.3597500324 2.4876399040 5.3846211433 5.0132398605 4.8811302185 4.8720798492 6.4265298843 66.635307312 62.311401367 100.15889740
 6229.5000000 12.246609688 0.0576899983 2.3652000427 2.4874300957 6.4002499580 6.0211000443 5.9407701492 5.9170498848 5.6194000244 61.000720978 61.604598999 100.22769928
 6230.0000000 12.268779755 0.0563400015 2.4099199772 2.4910399914 6.8598198891 6.5187897682 6.3660898209 6.3899688721 5.6254301071 65.273216248 61.349098206 101.32050323
 6230.5000000 12.297010422 0.0514900014 2.5391399860 2.5039000511 5.5394101143 5.1907901764 5.0793800354 5.0637798309 6.7376890182 87.275718689 60.878700256 102.06880188
 6231.0000000 12.331290245 0.0467399992 2.7280199528 2.5253200531 7.3750309944 6.9880399704 6.8979997635 6.8720898628 7.6864299774 121.13140106 60.681198120 103.56580353
 6231.5000000 12.341329575 0.0445800014 2.8627200127 2.5379800797 8.7481803894 8.1625699997 8.1488103867 8.1300811768 9.7009601593 150.40220642 60.540298462 107.95030212
 6232.0000000 12.308799744 0.0502599999 2.8541400433 2.5262899399 7.7180600166 7.4452810287 7.3932099342 7.4359788895 7.9557800293 152.21600342 61.298900604 112.77919769
 6232.5000000 12.350589752 0.0640700012 2.7318000793 2.4953598976 5.2309799194 5.0059599876 4.9511289597 4.9004502296 6.0832300186 128.87269592 63.585399628 115.20999908
 6233.0000000 12.341380119 0.0869999975 2.5931699276 2.4716000557 4.7483901978 4.5068788528 4.5124101639 4.4009299278 4.8970899582 98.905349731 65.117202759 113.85130310
 6233.5000000 12.312970161 0.0985099971 2.5290400982 2.4623301029 4.8221898079 4.5796599388 4.6042098999 4.4403500557 4.9168701172 82.018249512 66.537101746 111.24800110
 6234.0000000 12.288979530 0.0916799977 2.4890799522 2.4715199471 5.1514000893 5.0699801445 5.0588998795 4.8459401131 5.8020801544 77.050170898 66.266799927 109.94159698
 6234.5000000 12.296939850 0.0761500001 2.4528501034 2.4808299541 5.2962889671 5.4646801949 5.3528800011 5.1530900002 5.7439689636 73.029556274 65.277496338 108.22589874
 6235.0000000 12.325449944 0.0662200004 2.4161798954 2.4859099388 4.6460499763 4.7679300308 4.6148800850 4.4282197952 5.2786698341 68.050361633 64.453201294 107.94920349
 6235.5000000 12.244039536 0.0626799986 2.4389100075 2.4838299751 4.8880701065 5.1188502312 4.9428200722 4.7480201721 4.6426110268 63.784931183 63.391799927 108.09210205
 6236.0000000 12.258899689 0.0584999993 2.5070700645 2.4785499573 5.4877309799 5.6835799217 5.5740900040 5.3611102104 4.8690500259 60.499740601 63.244598389 107.97139740
 6236.5000000 12.214099884 0.0546500012 2.5827798843 2.4802699089 6.3562498093 6.6876101494 6.6324501038 6.4217400551 5.6933097839 59.462070465 63.291099548 106.69799805
 6237.0000000 12.208160400 0.0540999994 2.6293599606 2.4818799496 5.9369611740 6.1541900635 6.1331610680 5.9815998077 5.9640197754 60.800510406 63.459098816 104.39710236
 6237.5000000 12.243320465 0.0518799983 2.6425399780 2.4799499512 4.6036500931 4.7427701950 4.7234601974 4.6491198540 6.0287799835 66.672836304 62.624500275 102.44950104
 6238.0000000 12.281240463 0.0472000018 2.6379098892 2.4757099152 3.6030600071 3.6632099152 3.6795299053 3.6295800209 5.4107389450 75.953559875 61.707901001 102.23149872
 6238.5000000 12.276049614 0.0434500016 2.6653699875 2.4959900379 3.9938399792 4.0654501915 4.1202201843 4.1190700531 5.4312710762 92.945877075 61.803298950 103.32959747
