# LAS format log file from PETREL
# Project units are specified as depth units
#==================================================================
~Version information
VERS.   2.0:
WRAP.   NO:
#==================================================================
~Well
STRT .ft 5039.0000000         :
STOP .ft 7236.0000000         :
STEP .ft 0.50000000           :
NULL .   -999.250000          :
COMP.                         : COMPANY
WELL.    CCS1                 : WELL
FLD.                          : FIELD
LOC.                          : LOCATION
SRVC.                         : SERVICE COMPANY
DATE.    2020-07-27 11:17:06  : Log Export Date {yyyy-MM-dd HH:mm:ss}
PROV.                         : PROVINCE
UWI.     121152341500         : UNIQUE WELL ID
API.     121152341500         : API NUMBER
#==================================================================
~Curve
DEPT .ft                   : DEPTH
HCAL .in                  : HCAL
HTNP .ft3/ft3             : HTNP
PEFZ .b/e                 : PEFZ
RHOZ .g/cm3               : RHOZ
RLA2 .ohm.m               : RLA2
RLA3 .ohm.m               : RLA3
RLA4 .ohm.m               : RLA4
RLA5 .ohm.m               : RLA5
RXOZ .ohm.m               : RXOZ
Gamma .gAPI               : Gamma
DTCO .us/ft               : DTCO
DTSM .us/ft               : DTSM
~Parameter
#==================================================================
~Ascii
# ...
 7079.0000000 12.208160400 0.0768200010 2.3460500240 2.5630500317 11.568869591 14.685509682 16.150320053 16.739219666 14.276920319 76.336418152 61.433101654 106.43689728
 7079.5000000 12.326620102 0.0738999993 2.3271100521 2.5500900745 10.251910210 12.665780067 13.457579613 13.915080070 11.496509552 84.070686340 61.076698303 106.60800171
 7080.0000000 12.282150269 0.0700299963 2.3085200787 2.5158300400 7.7286801338 8.7166004181 8.8496799469 9.0281696320 8.0242004395 81.879043579 63.071800232 104.37750244
 7080.5000000 12.296919823 0.0722900033 2.2868299484 2.4932799339 7.0652289391 7.4927601814 7.5032911301 7.5709500313 7.3270702362 75.884841919 65.269401550 103.42500305
 7081.0000000 12.259980202 0.0914599970 2.2655301094 2.4950599670 8.4759101868 9.0672101974 9.0118904114 9.1250095367 7.3954200745 70.742080688 66.816299438 107.25620270
 7081.5000000 12.274769783 0.1167899966 2.2729399204 2.5228099823 10.778360367 11.952420235 12.193909645 12.329360008 9.6188297272 72.717842102 66.705703735 112.60240173
 7082.0000000 12.267350197 0.1338099986 2.2748599052 2.5459198952 10.571689606 11.716030121 11.878140450 12.144000053 10.006409645 71.204032898 65.255897522 114.29100037
 7082.5000000 12.289489746 0.1303199977 2.2818100452 2.5474898815 8.1957302094 8.7611799240 8.7549295425 8.8675603867 8.6681098938 67.356910706 64.999099731 111.73799896
 7083.0000000 12.245169640 0.1236699969 2.2837200165 2.5474998951 7.0389299393 7.5098910332 7.4663200378 7.5296201706 6.5317101479 62.057079315 65.400703430 108.96880341
 7083.5000000 12.208120346 0.1160999984 2.3046200275 2.5514500141 7.9299201965 8.7520694733 8.9206800461 8.8793001175 8.1561298370 61.846149445 65.200698853 108.67220306
 7084.0000000 12.274760246 0.1152400002 2.3236799240 2.5580101013 11.161299706 13.397330284 14.127630234 14.498649597 9.8956604004 62.636409760 64.407798767 110.95839691
 7084.5000000 12.267370224 0.1196599975 2.3075599670 2.5532999039 8.0780200958 8.7692604065 9.0842914581 9.1128597260 9.5873107910 61.733810425 62.819900513 111.59799957
 7085.0000000 12.222979546 0.1232300028 2.2684600353 2.5491700172 8.8983688354 9.7708902359 10.314259529 10.230389595 9.4383096695 59.770599365 62.539901733 109.21970367
 7085.5000000 12.252550125 0.1199600026 2.2129900455 2.5466499329 12.158579826 14.295020103 15.221460342 15.344799995 12.228369713 57.659500122 62.822200775 106.25890350
 7086.0000000 12.311759949 0.1087400019 2.1829800606 2.5279200077 11.490139961 13.093079567 13.610289574 13.746839523 17.395769119 53.832839966 63.056301117 104.97789764
 7086.5000000 12.259960175 0.1010899991 2.1686100960 2.5061199665 10.078399658 11.025429726 11.212300301 11.284629822 13.586150169 49.638221741 63.046298981 103.61380005
 7087.0000000 12.304420471 0.0909899995 2.1704599857 2.5006299019 9.3444004059 10.060020447 10.171179771 10.189940453 12.222169876 50.367198944 63.214099884 102.59269714
 7087.5000000 12.237759590 0.0843600035 2.1758799553 2.5115799904 9.0939598083 10.007160187 10.239700317 10.197830200 12.206789970 55.057140350 64.495697021 104.56500244
 7088.0000000 12.267419815 0.0873700008 2.1566100121 2.5319700241 9.5068502426 10.865240097 11.116430283 11.105609894 11.160599709 59.307678223 64.862998962 108.55670166
 7088.5000000 12.285849571 0.0911699980 2.1350100040 2.5414500237 8.4563598633 9.3418207169 9.5690603256 9.5239496231 10.747119904 58.731708527 64.520500183 111.39150238
 7089.0000000 12.252510071 0.0920500010 2.1249499321 2.5415499210 8.3236503601 9.3829202652 9.7273101807 9.6772403717 9.6426296234 56.729549408 64.435302734 111.78890228
 7089.5000000 12.289580345 0.0915300027 2.1424000263 2.5375199318 7.3910198212 8.2468395233 8.5385799408 8.4827995300 8.9054813385 55.187370300 64.326896667 110.19709778
 7090.0000000 12.319169998 0.0943199992 2.1935100555 2.5354299545 6.7885699272 7.4709310532 7.6953101158 7.5810098648 8.1083002090 56.106700897 64.503997803 109.59590149
 7090.5000000 12.296979904 0.0964000002 2.2695300579 2.5340800285 7.7073898315 9.0259513855 9.3661699295 9.3410301208 8.5618400574 56.253261566 65.504997253 110.42299652
 7091.0000000 12.241459846 0.1027799994 2.3525400162 2.5180199146 6.6793398857 7.5405302048 7.6568188667 7.5535311699 9.4196596146 53.345451355 66.606796265 111.31600189
 7091.5000000 12.197019577 0.1096400023 2.4031798840 2.5034799576 6.5986599922 7.3916001320 7.5278801918 7.3527288437 8.3629503250 49.033260345 66.553703308 110.51069641
 7092.0000000 12.208129883 0.1122400016 2.4129900932 2.4878599644 7.2687802315 8.2281398773 8.4267997742 8.1650295258 8.5281801224 46.220241547 65.349098206 107.78500366
 7092.5000000 12.208140373 0.1105900034 2.3682401180 2.4896800518 7.8548197746 9.0785903931 9.3765001297 9.0965986252 8.8920001984 46.125488281 63.778900146 106.06559753
 7093.0000000 12.215530396 0.0988299996 2.3148400784 2.4839999676 8.0685701370 9.1965303421 9.4970903397 9.2055301666 9.8005685806 52.854148865 62.644199371 105.17620087
 7093.5000000 12.230360031 0.0803399980 2.2693200111 2.4797201157 8.2252197266 9.5250701904 9.8753995895 9.6187810898 9.6379203796 64.530578613 62.546600342 104.47830200
 7094.0000000 12.200759888 0.0647300035 2.2533700466 2.4894099236 7.7145299911 9.0878400803 9.4149303436 9.1901798248 9.2644300461 79.375236511 62.799400330 103.55609894
 7094.5000000 12.230299950 0.0623099990 2.2234699726 2.5216100216 10.060609818 12.711259842 13.884969711 13.630359650 10.871009827 86.409439087 62.642101288 102.89320374
 7095.0000000 12.222920418 0.0627200007 2.2003500462 2.5624599457 10.709449768 12.659319878 13.421810150 13.283760071 10.727319717 80.670486450 62.285701752 103.20629883
 7095.5000000 12.259940147 0.0666500032 2.1955399513 2.5835800171 8.8666296005 9.8737602234 10.313170433 10.149100304 11.026769638 69.902351379 60.672401428 104.17150116
 7096.0000000 12.267330170 0.0701500028 2.2052600384 2.5780699253 9.6664495468 10.977149963 11.677800179 11.476429939 12.555219650 63.397109985 60.859298706 105.22209930
 7096.5000000 12.237759590 0.0798299983 2.2231099606 2.5385899544 9.0552196503 10.401320457 10.688529968 10.676710129 9.9243898392 60.246398926 61.169601440 105.70410156
 7097.0000000 12.282150269 0.0921399966 2.2315800190 2.4907898903 6.1928601265 6.5560998917 6.4746689796 6.3869810104 7.0056300163 55.992061615 62.483699799 106.32499695
 7097.5000000 12.219240189 0.1033099964 2.2211101055 2.4675300121 5.2178711891 5.4257698059 5.3241600990 5.2226099968 6.1870589256 49.054889679 64.568000793 107.27790070
 7098.0000000 12.222960472 0.1154899970 2.1708500385 2.4881699085 6.8494300842 7.3307099342 7.2833089828 7.0460400581 9.1224098206 44.838588715 66.517402649 108.02970123
 7098.5000000 12.285849571 0.1180299968 2.1282799244 2.5247800350 10.442379951 12.191129684 12.566410065 12.329059601 15.213589668 47.402370453 67.140403748 110.13430023
 7099.0000000 12.285880089 0.1172299981 2.1259300709 2.5434000492 10.145330429 11.646430016 11.896989822 11.627599716 17.152589798 54.236858368 65.086402893 110.43820190
 7099.5000000 12.263710022 0.1006700024 2.1490299702 2.5396599770 9.2607612610 10.569560051 10.757419586 10.516839981 12.066029549 60.143970490 62.843898773 108.19400024
 7100.0000000 12.245209694 0.0824199989 2.1603100300 2.5353100300 7.1509499550 7.8311800957 7.8659009933 7.5830898285 9.7842597961 61.175621033 62.716201782 105.90670013
 7100.5000000 12.341360092 0.0729599968 2.1566801071 2.5481998920 6.8954300880 7.5935101509 7.5536599159 7.1959900856 8.8945398331 60.031070709 64.384399414 106.04920197
 7101.0000000 12.318989754 0.0785700008 2.1520099640 2.5771698952 8.4252300262 9.5343904495 9.7322807312 9.1960792542 10.800339699 64.665298462 63.920398712 107.42320251
 7101.5000000 12.285820007 0.0919800028 2.1644299030 2.5927200317 11.867469788 14.367919922 15.321649551 14.689169884 16.609840393 68.038482666 61.467399597 108.47139740
 7102.0000000 12.319109917 0.1020599976 2.1830000877 2.5802199841 9.3989896774 10.992580414 11.520930290 11.092960358 14.193010330 66.280441284 60.464698792 105.74050140
 7102.5000000 12.330189705 0.1030000001 2.1932098866 2.5494399071 6.4209198952 7.0178298950 7.1656098366 6.8170900345 8.8352699280 58.538219452 62.543598175 102.61340332
