# LAS format log file from PETREL
# Project units are specified as depth units
#==================================================================
~Version information
VERS.   2.0:
WRAP.   NO:
#==================================================================
~Well
STRT .ft 5039.0000000         :
STOP .ft 7236.0000000         :
STEP .ft 0.50000000           :
NULL .   -999.250000          :
COMP.                         : COMPANY
WELL.    CCS1                 : WELL
FLD.                          : FIELD
LOC.                          : LOCATION
SRVC.                         : SERVICE COMPANY
DATE.    2020-07-27 11:17:06  : Log Export Date {yyyy-MM-dd HH:mm:ss}
PROV.                         : PROVINCE
UWI.     121152341500         : UNIQUE WELL ID
API.     121152341500         : API NUMBER
#==================================================================
~Curve
DEPT .ft                   : DEPTH
HCAL .in                  : HCAL
HTNP .ft3/ft3             : HTNP
PEFZ .b/e                 : PEFZ
RHOZ .g/cm3               : RHOZ
RLA2 .ohm.m               : RLA2
RLA3 .ohm.m               : RLA3
RLA4 .ohm.m               : RLA4
RLA5 .ohm.m               : RLA5
RXOZ .ohm.m               : RXOZ
Gamma .gAPI               : Gamma
DTCO .us/ft               : DTCO
DTSM .us/ft               : DTSM
~Parameter
#==================================================================
~Ascii
# ...
 6791.0000000 12.080129623 0.1859100014 2.9413499832 2.3663499355 1.6408200264 1.6421799660 1.6270400286 1.6739799976 2.3908200264 100.25050354 81.697898865 167.12390137
 6791.5000000 12.069419861 0.1860300004 2.8096899986 2.3552899361 1.6323299408 1.6309800148 1.6231399775 1.6696900129 2.4000799656 95.171127319 80.800003052 161.67759705
 6792.0000000 12.043430328 0.1908600032 2.6491000652 2.3397400379 1.3321399689 1.3377799988 1.3314900398 1.3710000515 2.1112899780 89.170669556 80.406898499 155.82150269
 6792.5000000 12.028770447 0.1856500059 2.5343000889 2.3196699619 1.1438100338 1.1251200438 1.1226400137 1.1517000198 1.8089799881 82.777656555 77.927299500 153.86390686
 6793.0000000 12.255439758 0.1862200052 2.4714500904 2.3045599461 1.0577600002 1.0437400341 1.0432300568 1.0657000542 1.5240399837 79.404830933 77.621803284 151.49310303
 6793.5000000 12.149000168 0.1875800043 2.4630498886 2.2913899422 0.9161000252 0.9012200236 0.8995299935 0.9157599807 1.3419899940 79.071250916 77.362899780 149.26220703
 6794.0000000 12.012900352 0.1969700009 2.4682199955 2.2922000885 0.9427700043 0.9228600264 0.9193300009 0.9332399964 1.4200099707 80.802696228 79.046997070 151.05380249
 6794.5000000 11.981739998 0.2003999949 2.4748399258 2.2958400249 1.0294100046 1.0251300335 1.0204600096 1.0360000134 1.4696600437 80.318740845 80.611297607 155.35870361
 6795.0000000 12.150540352 0.2039300054 2.4770500660 2.3011300564 0.8746799827 0.8778600097 0.8719199896 0.8842599988 1.4315099716 78.036651611 82.372299194 160.81399536
 6795.5000000 12.018679619 0.2124200016 2.5156900883 2.2936100960 0.8741999865 0.8848999739 0.8799200058 0.8924300075 1.2547999620 76.794219971 82.408302307 164.05079651
 6796.0000000 12.063899994 0.2177699953 2.5524699688 2.2796199322 0.8879200220 0.9023299813 0.8990600109 0.9104400277 1.2120900154 76.073257446 82.470298767 166.22549438
 6796.5000000 12.074410439 0.2226500064 2.5818901062 2.2671399117 0.8369299769 0.8589900136 0.8580600023 0.8688099980 1.1995600462 76.205093384 82.531898499 167.69619751
 6797.0000000 12.052740097 0.2204300016 2.5805499554 2.2492499352 0.8213199973 0.8488100171 0.8511400223 0.8623999953 1.1734399796 75.750663757 83.032203674 169.05569458
 6797.5000000 12.175849915 0.2162099928 2.5805499554 2.2317099571 0.7144299746 0.7353900075 0.7418599725 0.7532500029 1.0252200365 75.727622986 84.390502930 169.22850037
 6798.0000000 12.191189766 0.2172700018 2.6024301052 2.2168800831 0.6331599951 0.6450300217 0.6531000137 0.6641799808 0.9826700091 77.184173584 85.183097839 169.76960754
 6798.5000000 12.167130470 0.2306199968 2.6774098873 2.2165501118 0.6839600205 0.7005800009 0.7110999823 0.7258700132 0.9663800001 79.002632141 86.739097595 170.98159790
 6799.0000000 12.563549995 0.2455600053 2.7736599445 2.2196500301 0.7186800241 0.7351700068 0.7442299724 0.7618200183 1.0250699520 82.206420898 87.947196960 177.03720093
 6799.5000000 12.485480309 0.2430800050 2.8312399387 2.2106900215 0.7350299954 0.7535300255 0.7614700198 0.7844700217 0.9398900270 84.518661499 88.745002747 182.66679382
 6800.0000000 12.477580070 0.2332800031 2.8194899559 2.2068600655 0.7081400156 0.7284799814 0.7332199812 0.7604600191 0.8868299723 85.152137756 89.468101501 185.71809387
 6800.5000000 12.280090332 0.2372899950 2.7529599667 2.2174201012 0.7181400061 0.7364299893 0.7394499779 0.7719500065 0.9557300210 86.943809509 89.953399658 187.25920105
 6801.0000000 12.335390091 0.2438299954 2.6969799995 2.2370300293 0.8802899718 0.9153400064 0.9240599871 0.9732800126 1.1160199642 89.888656616 91.822799683 186.57960510
 6801.5000000 12.417110443 0.2550399899 2.6643099785 2.2498099804 0.8738800287 0.8993899822 0.9117199779 0.9658799767 1.2829999924 92.155906677 91.818000793 188.83999634
 6802.0000000 12.555450439 0.2757000029 2.6497600079 2.2464900017 0.8395199776 0.8581299782 0.8737499714 0.9308699965 1.1339999437 90.094039917 90.414199829 191.10220337
 6802.5000000 12.497650146 0.2659699917 2.6399099827 2.2414300442 0.7988499999 0.8159999847 0.8335999846 0.8945000172 1.0511000156 86.226257324 88.838996887 187.94230652
 6803.0000000 12.491160393 0.2601799965 2.6261100769 2.2408399582 0.7902699709 0.8131099939 0.8294500113 0.8976100087 1.0086200237 84.694976807 88.365501404 182.86259460
 6803.5000000 12.386799812 0.2443999946 2.6242001057 2.2506000996 0.8617500067 0.8851100206 0.9030900002 0.9794300199 1.0669100285 86.655349731 88.927398682 179.48880005
 6804.0000000 12.302430153 0.2375900000 2.5979099274 2.2727398872 0.9651700258 0.9908499718 1.0123800039 1.0962599516 1.2287000418 91.827552795 89.777603149 180.24450684
 6804.5000000 12.309160233 0.2267200053 2.5587298870 2.2923200130 1.1171599627 1.1578500271 1.1835600138 1.2813099623 1.5366499424 95.553337097 89.945297241 184.81300354
 6805.0000000 12.417309761 0.2270600051 2.5555100441 2.2925300598 1.1536400318 1.2109600306 1.2351499796 1.3321299553 1.7127399445 100.02290344 89.605499268 186.79910278
 6805.5000000 12.256050110 0.2241500020 2.5857400894 2.2782099247 1.0157200098 1.0708700418 1.0882300138 1.1682100296 1.5104600191 100.76210022 87.504699707 186.28880310
 6806.0000000 12.332739830 0.2094099969 2.6330599785 2.2560598850 0.8853700161 0.9257100224 0.9416800141 1.0022699833 1.2853200436 100.39749908 83.994003296 181.21600342
 6806.5000000 12.503569603 0.1875399947 2.6259698868 2.2432999611 0.8711299896 0.9065700173 0.9262400270 0.9757699966 1.2081899643 97.518096924 83.544998169 170.44259644
 6807.0000000 12.367489815 0.1952199936 2.6124100685 2.2378599644 0.8695799708 0.8984000087 0.9184100032 0.9590399861 1.2119200230 94.751953125 84.823196411 166.49620056
 6807.5000000 12.488329887 0.2127600014 2.6298100948 2.2376298904 0.9348999858 0.9652900100 0.9862099886 1.0239599943 1.2717900276 92.878036499 85.980003357 169.52209473
 6808.0000000 12.244819641 0.2197400033 2.6993200779 2.2348399162 0.9254199862 0.9574400187 0.9767500162 1.0075399876 1.2616200447 91.334350586 87.932899475 178.37190247
 6808.5000000 12.269909859 0.2229200006 2.8003098965 2.2264699936 0.8345699906 0.8619599938 0.8750100136 0.8957200050 1.1206300259 88.926277161 87.762496948 184.27340698
 6809.0000000 12.652930260 0.2139299959 2.8908200264 2.2269599438 0.8390399814 0.8687199950 0.8754400015 0.8890100121 1.0773299932 87.691352844 87.600196838 184.15559387
 6809.5000000 12.191140175 0.2114100009 2.9381198883 2.2406001091 0.9336000085 0.9827799797 0.9875199795 0.9943699837 1.1348400116 88.475028992 88.348899841 181.16670227
 6810.0000000 12.195240021 0.2191600055 2.9340898991 2.2484300137 1.0041300058 1.0572999716 1.0601700544 1.0600899458 1.3246599436 88.803009033 89.193901062 181.50920105
 6810.5000000 12.167799950 0.2152799964 2.8988900185 2.2494399548 0.9375200272 0.9901199937 0.9900000095 0.9857400060 1.2244600058 87.266731262 90.379699707 183.06350708
 6811.0000000 12.200869560 0.2130900025 2.8331699371 2.2499699593 0.7909500003 0.8174899817 0.8112099767 0.8026400208 1.1581799984 85.716613770 88.936996460 184.96270752
 6811.5000000 12.482919693 0.2085299939 2.7781300545 2.2602300644 0.9343799949 0.9641799927 0.9590499997 0.9464899898 1.2208100557 89.432220459 87.630599976 182.85839844
 6812.0000000 12.322899818 0.2269800007 2.7401700020 2.2686800957 1.0248800516 1.0624099970 1.0551500320 1.0383299589 1.3690099716 92.604072571 88.406501770 178.32940674
 6812.5000000 12.628930092 0.2331099957 2.7484500408 2.2690100670 1.0125900507 1.0336600542 1.0277199745 1.0107899904 1.3675800562 94.175758362 87.749496460 178.20379639
 6813.0000000 12.491160393 0.2207400054 2.7631599903 2.2737300396 1.0472600460 1.0690599680 1.0688099861 1.0514800549 1.3553199768 93.466056824 88.344802856 179.22489929
 6813.5000000 12.696680069 0.2121499926 2.8038899899 2.2863700390 1.1402699947 1.1556999683 1.1595900059 1.1395900249 1.4674700499 97.714782715 87.610397339 178.64649963
 6814.0000000 12.586259842 0.2036399990 2.8376600742 2.3245201111 1.3210500479 1.3538700342 1.3622399569 1.3398799896 1.8147599697 106.10440063 87.515296936 177.38769531
 6814.5000000 12.614179611 0.2056999952 2.8589301109 2.3797900677 1.6855700016 1.7277799845 1.7488100529 1.7185599804 2.6638100147 114.99109650 87.098999023 174.68609619
