# LAS format log file from PETREL
# Project units are specified as depth units
#==================================================================
~Version information
VERS.   2.0:
WRAP.   NO:
#==================================================================
~Well
STRT .ft 5039.0000000         :
STOP .ft 7236.0000000         :
STEP .ft 0.50000000           :
NULL .   -999.250000          :
COMP.                         : COMPANY
WELL.    CCS1                 : WELL
FLD.                          : FIELD
LOC.                          : LOCATION
SRVC.                         : SERVICE COMPANY
DATE.    2020-07-27 11:17:06  : Log Export Date {yyyy-MM-dd HH:mm:ss}
PROV.                         : PROVINCE
UWI.     121152341500         : UNIQUE WELL ID
API.     121152341500         : API NUMBER
#==================================================================
~Curve
DEPT .ft                   : DEPTH
HCAL .in                  : HCAL
HTNP .ft3/ft3             : HTNP
PEFZ .b/e                 : PEFZ
RHOZ .g/cm3               : RHOZ
RLA2 .ohm.m               : RLA2
RLA3 .ohm.m               : RLA3
RLA4 .ohm.m               : RLA4
RLA5 .ohm.m               : RLA5
RXOZ .ohm.m               : RXOZ
Gamma .gAPI               : Gamma
DTCO .us/ft               : DTCO
DTSM .us/ft               : DTSM
~Parameter
#==================================================================
~Ascii
# ...
 5615.0000000 12.269989967 0.0572400019 2.5604600906 2.4894900322 4.7770600319 4.8536300659 4.9474000931 4.9125699997 5.4362602234 50.315750122 63.332401276 105.74500275
 5615.5000000 12.240409851 0.0632599965 2.5251801014 2.4869298935 5.8204498291 6.1405501366 6.2176299095 6.2398600578 5.0601701736 44.746238708 63.558200836 107.17960358
 5616.0000000 12.213109970 0.0612800010 2.4874999523 2.4851200581 4.6241798401 4.6798901558 4.6344189644 4.6170997620 4.9324097633 39.638168335 63.204898834 108.06839752
 5616.5000000 12.208140373 0.0554400012 2.4524900913 2.4902300835 4.7006001472 4.8433799744 4.7946300507 4.7670297623 4.4302201271 35.162570953 62.536899567 107.77760315
 5617.0000000 12.230349541 0.0519100018 2.3984599113 2.5089199543 6.6240501404 7.0282101631 7.0854401588 7.0359501839 5.5277800560 29.621320724 62.360599518 105.14620209
 5617.5000000 12.296959877 0.0482299998 2.3500499725 2.5264201164 7.8985199928 8.5388097763 8.5412406921 8.5506687164 7.4357299805 25.054800034 60.958499908 102.39839935
 5618.0000000 12.268429756 0.0391900018 2.3385798931 2.5264298916 8.2226800919 9.1477088928 9.1733207703 9.1415195465 9.4357500076 30.283519745 60.524799347 101.98100281
 5618.5000000 12.293829918 0.0345200002 2.4259200096 2.5188899040 8.0938796997 9.0251398087 9.0598201752 8.9966897964 8.9822006226 46.138439178 59.189399719 102.96659851
 5619.0000000 12.296999931 0.0347599983 2.5732100010 2.5196499825 8.0961399078 9.0082302094 9.1546096802 8.9919099808 9.6942100525 68.443656921 59.184799194 103.35639954
 5619.5000000 12.379289627 0.0487099998 2.7324199677 2.5249700546 9.5011997223 10.825209618 11.167880058 10.943739891 10.531259537 88.109283447 60.742000580 104.44909668
 5620.0000000 12.379719734 0.0716399997 2.8437500000 2.5278398991 10.633649826 11.620269775 11.869899750 11.557350159 12.250479698 104.15740204 62.630798340 107.19580078
 5620.5000000 12.388819695 0.0882200003 2.8978600502 2.5389099121 12.495229721 13.200039864 13.583410263 13.115169525 13.578889847 113.68659973 64.708099365 111.13770294
 5621.0000000 12.390179634 0.0977400020 2.8656599522 2.5530099869 14.586629868 15.155879974 15.506150246 14.818030357 14.897430420 115.49960327 65.427101135 117.65650177
 5621.5000000 12.396129608 0.0996999964 2.7214100361 2.5631499290 17.180030823 18.278810501 18.678789139 17.813760757 16.668899536 104.64350128 66.601799011 120.45390320
 5622.0000000 12.399180412 0.0971999988 2.4973700047 2.5637300014 17.091789246 18.484449387 18.692499161 17.772739410 17.212900162 90.289436340 66.520797729 119.88619995
 5622.5000000 12.406999588 0.0870599970 2.3099400997 2.5611400604 16.941980362 18.385730743 18.680160522 17.512289047 19.420440674 74.189529419 64.650596619 115.55159760
 5623.0000000 12.404069901 0.0710100010 2.2360699177 2.5523200035 18.262029648 20.277860641 20.436920166 19.175630569 18.355449677 67.621437073 62.864799500 110.60510254
 5623.5000000 12.405170441 0.0582600012 2.3050398827 2.5346100330 15.651780128 16.768680573 16.697669983 15.380209923 18.567930222 73.771087646 61.373798370 108.36019897
 5624.0000000 12.410810471 0.0510200001 2.4649600983 2.5182499886 13.837439537 14.832249641 14.702540398 13.508079529 13.864419937 93.706748962 60.477401733 106.11519623
 5624.5000000 12.460700035 0.0584900007 2.6335101128 2.5088400841 13.206680298 14.090000153 13.968879700 12.733039856 12.308799744 117.66149902 60.602100372 105.32409668
 5625.0000000 12.471870422 0.0827199966 2.7245199680 2.5040299892 12.933609962 13.524860382 13.290450096 12.090060234 10.670100212 120.99600220 62.808700562 106.47920227
 5625.5000000 12.503840446 0.1053600013 2.7074398994 2.5022599697 13.063799858 13.617130280 13.405449867 12.062620163 11.173580170 110.67259979 64.572097778 109.38510132
 5626.0000000 12.471969604 0.1077900007 2.5921599865 2.5168700218 13.730330467 14.349610329 14.181079865 12.738499641 11.096520424 91.081420898 65.004600525 112.65950012
 5626.5000000 12.484350204 0.0928400010 2.4670600891 2.5316898823 13.257249832 14.456489563 14.457440376 12.957039833 11.880849838 80.515029907 64.338600159 114.03990173
 5627.0000000 12.457209587 0.0777100027 2.3860199451 2.5411200523 13.187919617 14.707220078 14.777689934 13.252140045 12.288100243 75.485679626 62.498798370 110.52639771
 5627.5000000 12.438850403 0.0688600019 2.3946700096 2.5348000526 14.047659874 16.523670197 16.864269257 15.184760094 12.722789764 72.427726746 61.561599731 106.09549713
 5628.0000000 12.437720299 0.0630000010 2.4260900021 2.5388801098 14.091159821 16.896789551 17.289899826 15.601759911 14.524740219 79.195938110 60.822498322 102.39409637
 5628.5000000 12.420479774 0.0569600016 2.4984800816 2.5402200222 14.421520233 17.820299149 18.380050659 16.742349625 15.583780289 94.450942993 60.388900757 100.08249664
 5629.0000000 12.445030212 0.0529799983 2.5595400333 2.5376000404 14.506159782 18.293130875 19.158439636 17.534049988 16.396049500 115.80889893 61.160198212 101.68869781
 5629.5000000 12.452389717 0.0594500005 2.5768399239 2.5292398930 14.570980072 18.611089706 19.380819321 18.151060104 16.205120087 120.63240051 62.662601471 107.78399658
 5630.0000000 12.467399597 0.0684999973 2.4817199707 2.5259699821 13.146650314 15.657469749 15.964200020 15.056889534 14.849329948 99.486816406 64.529296875 113.08180237
 5630.5000000 12.408670425 0.0764999986 2.3484799862 2.5315001011 12.955780029 15.399570465 15.710249901 15.031049728 12.906029701 69.087661743 64.717300415 115.01660156
 5631.0000000 12.332810402 0.0680399984 2.2839701176 2.5325300694 12.057459831 13.810090065 13.956339836 13.571740150 11.134799957 51.144489288 63.418598175 114.91549683
 5631.5000000 12.381179810 0.0504399985 2.3225100040 2.5304501057 13.408909798 15.718009949 16.218820572 16.000650406 11.292180061 52.571208954 61.318000793 109.67759705
 5632.0000000 12.383489609 0.0330399983 2.4101901054 2.5229799747 15.071789742 17.825300217 18.549659729 18.562339783 13.115659714 61.603530884 60.936100006 104.80319977
 5632.5000000 12.390290260 0.0369599983 2.4507799149 2.5345299244 16.242139816 19.120460510 19.814289093 20.455320358 16.506860733 72.740676880 61.096599579 102.34339905
 5633.0000000 12.396900177 0.0480999984 2.4432001114 2.5533099174 16.794219971 20.211709976 21.286420822 22.604280472 20.254810333 90.345153809 61.181598663 102.80180359
 5633.5000000 12.382530212 0.0576499999 2.4076099396 2.5708799362 15.137479782 18.075120926 19.043249130 20.853540421 22.971679688 101.29540253 61.216098785 106.79750061
 5634.0000000 12.355739594 0.0636200011 2.3488600254 2.5714499950 11.734519958 13.264579773 13.697130203 15.059940338 18.529729843 91.913627625 61.374801636 109.08090210
 5634.5000000 12.318220139 0.0750000030 2.2586998940 2.5658099651 9.4948196411 10.320400238 10.523090363 11.585510254 13.647930145 66.285926819 62.638801575 107.54650116
 5635.0000000 12.258790016 0.0764899999 2.1650500298 2.5578200817 8.6998701096 9.5330200195 9.6660404205 10.623530388 10.325690269 42.180828094 63.371601105 105.08509827
 5635.5000000 12.224169731 0.0585299991 2.1023900509 2.5510599613 7.2272210121 7.9696288109 7.9827399254 8.8261995316 8.8816099167 32.420959473 62.305198669 104.11340332
 5636.0000000 12.189000130 0.0364100002 2.0910499096 2.5431001186 5.9256410599 6.3729100227 6.3585200310 7.0433897972 7.1802511215 29.917070389 59.372200012 103.86699677
 5636.5000000 12.236379623 0.0225099996 2.1028499603 2.5360500813 5.1894798279 5.4052600861 5.4312500954 6.0154399872 6.1447901726 31.994890213 57.144100189 101.13569641
 5637.0000000 12.270489693 0.0243800003 2.1563000679 2.5199000835 4.8426399231 5.0056800842 5.0494499207 5.6199798584 5.4291400909 35.636199951 57.315898895 97.674400330
 5637.5000000 12.285900116 0.0309900008 2.2066099644 2.5009999275 3.9214200974 4.0464601517 4.0802302361 4.5481100082 4.6731300354 40.360980988 58.435100555 95.298896790
 5638.0000000 12.286009789 0.0385399982 2.2458999157 2.4795899391 3.1075999737 3.2353000641 3.2780799866 3.6515600681 3.8571200371 45.947650909 59.113998413 99.296302795
 5638.5000000 12.241490364 0.0466599986 2.2761900425 2.4521999359 2.5887401104 2.6943500042 2.7369999886 3.0351099968 2.9088799953 54.685321808 59.109798431 101.90440369
