~VERSION
 VERS.        2.00                                                                   :CWLS LOG ASCII STANDARD
 WRAP.        NO                                                                     :NO WRAP PERFORMED
 PROD.        Schlumberger                                                           :LAS Producer
 CREA.        11/7/2012                                     :LAS Creation Date and time
~Well
#MNEM.UNIT    VALUE                                                                   :DESCRIPTION
#----.----    ---------------                                                        :-------------------
 STRT.F       5061.000                                                               :START DEPTH
 STOP.F       7239.000                                                               :STOP  DEPTH
 STEP.F       0.500                                                                  :DEPTH STEP
 NULL.        -999.250                                                               :NULL VALUE
 COMP.        ADM COMPANY                                   :COMPANY NAME
 WELL.        Verification Well #2                          :WELL NAME
 FLD.         Wildcat                                       :FIELD NAME
 API.         121152355200                                                           :API NUMBER
 CNTY.        Macon                                                                  :COUNTY
 STAT.        Illinois                                                               :STATE
 CTRY.        US                                                                     :COUNTRY
 LOC.         Lat: 39.8922313 Long: -88.8924449                                      :WELL SURFACE LOCATION LINE 1
 LOC2.        248' South and 233' East From NW corner of the                         :WELL SURFACE LOCATION LINE 2
 LOC3.        NW/4, of the NE/4, of the NW/4, of Section 32                          :WELL SURFACE LOCATION LINE 3
 SECT.        32                                                                     :SECTION
 TOWN.        17 North                                                               :TOWNSHIP
 RANG.        3 East                                                                 :RANGE
 LATI.        39.892231 degrees                                                      :Latitude
 LONG.        -88.892444 degrees                                                     :Longitude
 DATE.        2012/10/31                                                             :LOGGING DATE
 SRVC.        Schlumberger                                                           :SERVICE COMPANY
~Parameter
#MNEM.UNIT    VALUE                                                                  :DESCRIPTION
#----.----    ---------------                                                        :-------------------
 APD.F        17.000                                                                 :Elevation of depth reference above permanent datum
 EDF.F        -999.250                                                               :Elevation of Derrick Floor
 EGL.F        686.500                                                                :Elevation of Ground Level
 EKB.F        703.500                                                                :Elevation of Kelly Bushing
 EPD.F        686.500                                                                :Elevation of Permnaent Datum
 LMF.         Kelly Bushing                                                          :Logging Measured From
 PDAT.        Ground Level                                                           :Permanent Datum
 TDD.F        7225.000                                                               :Total Depth Driller
 TDL.F        7223.000                                                               :Total Depth Logger
 BS.IN        8.500                                                                  :Bit Size
 R1.          TOOLSTRING RAN AS PER TOOL SKETCH                                      :REMARK 1
 R2.          PRESENTATIONS AS PER CLIENT REQUEST                                    :REMARK 2
 R3.          WELL LOCATION UPDATED FROM SURFACE LOGS                                :REMARK 3
 R4.          THANK YOU FOR CHOOSING SCHLUMBERGER!                                   :REMARK 4
 R5.          CREW: B. DOUGLAS & R. VAUGHAN                                          :REMARK 5
 R6.                                                                                 :REMARK 6
 R7.                                                                                 :REMARK 7
 R8.                                                                                 :REMARK 8
 R9.                                                                                 :REMARK 9
 R10.                                                                                :REMARK 10
 DCS_CENTER.  Denver                                                                 :Schlumberger DCS Center
 LOG_ANALYST. Schroer                                                                :Log Analyst Name
 ENG.         Beth DiBella                                                           :Field Engineer Name
 GF_BASELINE. 45                                                                     :GeoFrame Baseline
~Curve
#MNEM.UNIT                                                                           :DESCRIPTION
#----.----                                                                           :--------------------------------
 DEPT.F                                                                              :Depth Index
 RLA0.OHMM                                                                           : 1 Apparent Resistivity from Computed Focusing Mode 0                                        
 RLA1.OHMM                                                                           : 2 Apparent Resistivity from Computed Focusing Mode 1                                        
 RLA2.OHMM                                                                           : 3 Apparent Resistivity from Computed Focusing Mode 2                                        
 RLA3.OHMM                                                                           : 4 Apparent Resistivity from Computed Focusing Mode 3                                        
 RLA4.OHMM                                                                           : 5 Apparent Resistivity from Computed Focusing Mode 4                                        
 RLA5.OHMM                                                                           : 6 Apparent Resistivity from Computed Focusing Mode 5                                        
 RXOZ.OHMM                                                                           : 7 Invaded Formation Resistivity filtered at 18 inches                                       
 BS.IN                                                                               : 8 Bit Size                                                                                  
 DCAL.IN                                                                             : 9 Differential Caliper                                                                      
 HCAL.IN                                                                             :10 HRCC Caliper Calibrated                                                                   
 HDAR.IN                                                                             :11 Hole Diameter from Area                                                                   
 HD1_PPC1.IN                                                                         :12 PPC1 Hole Diameter 1                                                                      
 HD2_PPC1.IN                                                                         :13 PPC1 Hole Diameter 2                                                                      
 TENS.LBS                                                                            :14 Cable Tension                                                                             
 GR_EDTC.GAPI                                                                        :15 Gamma Ray                                                                                 
 NPHI.CFCF                                                                           :16 Thermal Neutron Porosity (original Ratio Method) in Selected Lithology                    
 NPOR.CFCF                                                                           :17 Enhanced Thermal Neutron Porosity in Selected Lithology                                   
 PEFZ.                                                                               :18 HRDD Standard Resolution Formation Photoelectric Factor                                   
 RHOZ.G/C3                                                                           :19 HRDD Standard Resolution Formation Density                                                
 DPHZ.CFCF                                                                           :20 Standard Resolution Density Porosity                                                      
 SPHI.CFCF                                                                           :21 Sonic Porosity                                                                            
 VCL_HILT.CFCF                                                                       :22 Volume of Clay type Material relative to Total Volume                                     
 DTCO.US/FT                                                                          :23 Delta-T Compressional                                                                     
 DTSM.US/FT                                                                          :24 Delta-T Shear                                                                             
 PR.                                                                                 :25 Poisson Ratio                                                                             
 VPVS.                                                                               :26 Compressional to Shear Velocity Ratio                                                     
 CHR_FAST.                                                                           :27 Peak Coherence, Receiver Array - FAST                                                     
 CHRP.                                                                               :28 Label Peak Coherence, Receiver Array, Compressional - Monopole P&S                        
 TICO.US                                                                             :29 Compressional Integrated Transit Time Channel                                             
 FLAG.                                                                               :30 General Indicator Flag                                                                    
~Ascii   DEPT          RLA0          RLA1          RLA2          RLA3          RLA4          RLA5          RXOZ            BS          DCAL          HCAL          HDAR      HD1_PPC1      HD2_PPC1          TENS       GR_EDTC          NPHI          NPOR          PEFZ          RHOZ          DPHZ          SPHI      VCL_HILT          DTCO          DTSM            PR          VPVS      CHR_FAST          CHRP          TICO          FLAG
# ...
    5232.00000       0.03086       0.01478       0.01380       0.01372       0.01424       0.02018       0.11357      17.50000     -14.19677       3.30323    -999.25000    -999.25000    -999.25000    -999.25000    -999.25000       0.42258       0.28310      10.00000       2.24678       0.24437    -999.25000       0.00000    -999.25000    -999.25000    -999.25000    -999.25000    -999.25000    -999.25000    -999.25000    -999.25000
    5232.50000       0.03073       0.01968       0.01917       0.01918       0.01866       0.02124       0.11541      17.50000     -14.21898       3.28102    -999.25000    -999.25000    -999.25000    -999.25000    -999.25000       0.40667       0.28488      10.00000       2.25626       0.23863    -999.25000       0.00000    -999.25000    -999.25000    -999.25000    -999.25000    -999.25000    -999.25000    -999.25000    -999.25000
    5233.00000       0.03083       0.01841       0.01791       0.01746       0.01695       0.01501       0.11723      17.50000     -14.19677       3.30323    -999.25000    -999.25000    -999.25000    -999.25000    -999.25000       0.38091       0.26062      10.00000       2.26318       0.23444    -999.25000       0.00000    -999.25000    -999.25000    -999.25000    -999.25000    -999.25000    -999.25000    -999.25000    -999.25000
    5233.50000       0.03132       0.06202       0.05235       0.04893       0.04622       0.04964       0.11913      17.50000     -14.21898       3.28102    -999.25000    -999.25000    -999.25000    -999.25000    -999.25000       0.35091       0.25733       9.96783       2.26594       0.23276    -999.25000       0.00000    -999.25000    -999.25000    -999.25000    -999.25000    -999.25000    -999.25000    -999.25000    -999.25000
    5234.00000       0.03070  100000.00000  100000.00000       0.00015       0.00234       0.01109       0.12117      17.50000     -14.20788       3.29212    -999.25000    -999.25000    -999.25000    -999.25000    -999.25000       0.31045       0.22402       9.86815       2.26816       0.23142    -999.25000       0.00000    -999.25000    -999.25000    -999.25000    -999.25000    -999.25000    -999.25000    -999.25000    -999.25000
    5234.50000       0.03136       0.00207       0.00441       0.00604       0.00651       0.00638       0.12376      17.50000     -14.20788       3.29212    -999.25000    -999.25000    -999.25000    -999.25000    -999.25000       0.28594       0.18830       9.71302       2.27246       0.22881    -999.25000       0.00000    -999.25000    -999.25000    -999.25000    -999.25000    -999.25000    -999.25000    -999.25000    -999.25000
    5235.00000       0.03102       0.04635       0.03927       0.03670       0.03517       0.04092       0.12679      17.50000     -14.19677       3.30323    -999.25000    -999.25000    -999.25000    -999.25000    -999.25000       0.26981       0.18308       9.54258       2.27009       0.23025    -999.25000       0.00000    -999.25000    -999.25000    -999.25000    -999.25000    -999.25000    -999.25000    -999.25000    -999.25000
    5235.50000       0.03097       0.06832       0.05692       0.05244       0.04898       0.04575       0.13012      17.50000     -14.19677       3.30323    -999.25000    -999.25000    -999.25000    -999.25000      23.54077       0.27534       0.16484       9.37297       2.26081       0.23587    -999.25000       0.00000    -999.25000    -999.25000    -999.25000    -999.25000    -999.25000    -999.25000    -999.25000    -999.25000
    5236.00000       0.03057       0.04761       0.04135       0.03825       0.03615       0.03358       0.13339      17.50000     -14.19677       3.30323    -999.25000    -999.25000    -999.25000    -999.25000      23.54077       0.33323       0.18440       9.20043       2.24321       0.24654    -999.25000       0.00000    -999.25000    -999.25000    -999.25000    -999.25000    -999.25000    -999.25000    -999.25000    -999.25000
    5236.50000       0.03096       0.01153       0.01276       0.01355       0.01394       0.02292       0.13640      17.50000     -14.20788       3.29212    -999.25000    -999.25000    -999.25000    -999.25000      23.54077       0.41083       0.26698       9.03350       2.22439       0.25794    -999.25000       0.00000    -999.25000    -999.25000    -999.25000    -999.25000    -999.25000    -999.25000    -999.25000    -999.25000
    5237.00000       0.03140  100000.00000  100000.00000  100000.00000  100000.00000       0.00053       0.13988      17.50000     -14.13013       3.36987    -999.25000    -999.25000    -999.25000    -999.25000      23.54077       0.46182       0.32345       8.89068       2.19789       0.27401    -999.25000       0.00000    -999.25000    -999.25000    -999.25000    -999.25000    -999.25000    -999.25000    -999.25000    -999.25000
    5237.50000       0.03093       0.01449       0.01477       0.01498       0.01532       0.02149       0.14345      17.50000     -14.04128       3.45872    -999.25000    -999.25000    -999.25000    -999.25000      23.54077       0.47709       0.32596       8.77777       2.18183       0.28374    -999.25000       0.00000    -999.25000    -999.25000    -999.25000    -999.25000    -999.25000    -999.25000    -999.25000    -999.25000
    5238.00000       0.03093       0.02943       0.02546       0.02508       0.02428       0.02836       0.14206      17.50000     -13.94133       3.55867    -999.25000    -999.25000    -999.25000    -999.25000      23.54077       0.46685       0.35214       8.64941       2.19299       0.27698    -999.25000       0.00000    -999.25000    -999.25000    -999.25000    -999.25000    -999.25000    -999.25000    -999.25000    -999.25000
    5238.50000       0.03074       0.01593       0.01646       0.01517       0.01494       0.01267       0.12855      17.50000     -13.84137       3.65863    -999.25000    -999.25000    -999.25000    -999.25000      23.54077       0.45447       0.34345       8.48300       2.27357       0.22814    -999.25000       0.00000    -999.25000    -999.25000    -999.25000    -999.25000    -999.25000    -999.25000    -999.25000    -999.25000
    5239.00000       0.03054       0.03541       0.03043       0.02781       0.02722       0.03209       0.10686      17.50000     -13.70810       3.79190    -999.25000    -999.25000    -999.25000    -999.25000      23.54077       0.40479       0.33715       8.25024       2.45636       0.11736    -999.25000       0.47271    -999.25000    -999.25000    -999.25000    -999.25000    -999.25000    -999.25000    -999.25000    -999.25000
    5239.50000       0.03058       0.06071       0.05148       0.04703       0.04464       0.04721       0.09185      17.50000     -13.49708       4.00292    -999.25000    -999.25000    -999.25000    -999.25000      23.54077       0.37868       0.28036       7.98928       2.70580      -0.03382    -999.25000       0.46693    -999.25000    -999.25000    -999.25000    -999.25000    -999.25000    -999.25000    -999.25000    -999.25000
    5240.00000       0.03080       0.02782       0.02266       0.02137       0.02065       0.01780       0.08685      17.50000     -13.24163       4.25837    -999.25000    -999.25000    -999.25000    -999.25000      23.54077       0.35072       0.26569       7.76822       2.90247      -0.15301    -999.25000       0.39346    -999.25000    -999.25000    -999.25000    -999.25000    -999.25000    -999.25000    -999.25000    -999.25000
    5240.50000       0.03061  100000.00000  100000.00000  100000.00000       0.00100       0.01169       0.08811      17.50000     -12.98619       4.51381    -999.25000    -999.25000    -999.25000    -999.25000      23.54077       0.30524       0.22051       7.53433       3.02556      -0.22761    -999.25000       0.24705    -999.25000    -999.25000    -999.25000    -999.25000    -999.25000    -999.25000    -999.25000    -999.25000
    5241.00000       0.03069       0.00839       0.00997       0.01001       0.01025       0.01218       0.08974      17.50000     -12.81960       4.68040    -999.25000    -999.25000    -999.25000    -999.25000      23.54077       0.25875       0.17669       7.34186       3.08254      -0.26214    -999.25000       0.13519    -999.25000    -999.25000    -999.25000    -999.25000    -999.25000    -999.25000    -999.25000    -999.25000
