~VERSION
 VERS.        2.00                                                                   :CWLS LOG ASCII STANDARD
 WRAP.        NO                                                                     :NO WRAP PERFORMED
 PROD.        Schlumberger                                                           :LAS Producer
 CREA.        11/7/2012                                     :LAS Creation Date and time
~Well
#MNEM.UNIT    VALUE                                                                   :DESCRIPTION
#----.----    ---------------                                                        :-------------------
 STRT.F       5061.000                                                               :START DEPTH
 STOP.F       7239.000                                                               :STOP  DEPTH
 STEP.F       0.500                                                                  :DEPTH STEP
 NULL.        -999.250                                                               :NULL VALUE
 COMP.        ADM COMPANY                                   :COMPANY NAME
 WELL.        Verification Well #2                          :WELL NAME
 FLD.         Wildcat                                       :FIELD NAME
 API.         121152355200                                                           :API NUMBER
 CNTY.        Macon                                                                  :COUNTY
 STAT.        Illinois                                                               :STATE
 CTRY.        US                                                                     :COUNTRY
 LOC.         Lat: 39.8922313 Long: -88.8924449                                      :WELL SURFACE LOCATION LINE 1
 LOC2.        248' South and 233' East From NW corner of the                         :WELL SURFACE LOCATION LINE 2
 LOC3.        NW/4, of the NE/4, of the NW/4, of Section 32                          :WELL SURFACE LOCATION LINE 3
 SECT.        32                                                                     :SECTION
 TOWN.        17 North                                                               :TOWNSHIP
 RANG.        3 East                                                                 :RANGE
 LATI.        39.892231 degrees                                                      :Latitude
 LONG.        -88.892444 degrees                                                     :Longitude
 DATE.        2012/10/31                                                             :LOGGING DATE
 SRVC.        Schlumberger                                                           :SERVICE COMPANY
~Parameter
#MNEM.UNIT    VALUE                                                                  :DESCRIPTION
#----.----    ---------------                                                        :-------------------
 APD.F        17.000                                                                 :Elevation of depth reference above permanent datum
 EDF.F        -999.250                                                               :Elevation of Derrick Floor
 EGL.F        686.500                                                                :Elevation of Ground Level
 EKB.F        703.500                                                                :Elevation of Kelly Bushing
 EPD.F        686.500                                                                :Elevation of Permnaent Datum
 LMF.         Kelly Bushing                                                          :Logging Measured From
 PDAT.        Ground Level                                                           :Permanent Datum
 TDD.F        7225.000                                                               :Total Depth Driller
 TDL.F        7223.000                                                               :Total Depth Logger
 BS.IN        8.500                                                                  :Bit Size
 R1.          TOOLSTRING RAN AS PER TOOL SKETCH                                      :REMARK 1
 R2.          PRESENTATIONS AS PER CLIENT REQUEST                                    :REMARK 2
 R3.          WELL LOCATION UPDATED FROM SURFACE LOGS                                :REMARK 3
 R4.          THANK YOU FOR CHOOSING SCHLUMBERGER!                                   :REMARK 4
 R5.          CREW: B. DOUGLAS & R. VAUGHAN                                          :REMARK 5
 R6.                                                                                 :REMARK 6
 R7.                                                                                 :REMARK 7
 R8.                                                                                 :REMARK 8
 R9.                                                                                 :REMARK 9
 R10.                                                                                :REMARK 10
 DCS_CENTER.  Denver                                                                 :Schlumberger DCS Center
 LOG_ANALYST. Schroer                                                                :Log Analyst Name
 ENG.         Beth DiBella                                                           :Field Engineer Name
 GF_BASELINE. 45                                                                     :GeoFrame Baseline
~Curve
#MNEM.UNIT                                                                           :DESCRIPTION
#----.----                                                                           :--------------------------------
 DEPT.F                                                                              :Depth Index
 RLA0.OHMM                                                                           : 1 Apparent Resistivity from Computed Focusing Mode 0                                        
 RLA1.OHMM                                                                           : 2 Apparent Resistivity from Computed Focusing Mode 1                                        
 RLA2.OHMM                                                                           : 3 Apparent Resistivity from Computed Focusing Mode 2                                        
 RLA3.OHMM                                                                           : 4 Apparent Resistivity from Computed Focusing Mode 3                                        
 RLA4.OHMM                                                                           : 5 Apparent Resistivity from Computed Focusing Mode 4                                        
 RLA5.OHMM                                                                           : 6 Apparent Resistivity from Computed Focusing Mode 5                                        
 RXOZ.OHMM                                                                           : 7 Invaded Formation Resistivity filtered at 18 inches                                       
 BS.IN                                                                               : 8 Bit Size                                                                                  
 DCAL.IN                                                                             : 9 Differential Caliper                                                                      
 HCAL.IN                                                                             :10 HRCC Caliper Calibrated                                                                   
 HDAR.IN                                                                             :11 Hole Diameter from Area                                                                   
 HD1_PPC1.IN                                                                         :12 PPC1 Hole Diameter 1                                                                      
 HD2_PPC1.IN                                                                         :13 PPC1 Hole Diameter 2                                                                      
 TENS.LBS                                                                            :14 Cable Tension                                                                             
 GR_EDTC.GAPI                                                                        :15 Gamma Ray                                                                                 
 NPHI.CFCF                                                                           :16 Thermal Neutron Porosity (original Ratio Method) in Selected Lithology                    
 NPOR.CFCF                                                                           :17 Enhanced Thermal Neutron Porosity in Selected Lithology                                   
 PEFZ.                                                                               :18 HRDD Standard Resolution Formation Photoelectric Factor                                   
 RHOZ.G/C3                                                                           :19 HRDD Standard Resolution Formation Density                                                
 DPHZ.CFCF                                                                           :20 Standard Resolution Density Porosity                                                      
 SPHI.CFCF                                                                           :21 Sonic Porosity                                                                            
 VCL_HILT.CFCF                                                                       :22 Volume of Clay type Material relative to Total Volume                                     
 DTCO.US/FT                                                                          :23 Delta-T Compressional                                                                     
 DTSM.US/FT                                                                          :24 Delta-T Shear                                                                             
 PR.                                                                                 :25 Poisson Ratio                                                                             
 VPVS.                                                                               :26 Compressional to Shear Velocity Ratio                                                     
 CHR_FAST.                                                                           :27 Peak Coherence, Receiver Array - FAST                                                     
 CHRP.                                                                               :28 Label Peak Coherence, Receiver Array, Compressional - Monopole P&S                        
 TICO.US                                                                             :29 Compressional Integrated Transit Time Channel                                             
 FLAG.                                                                               :30 General Indicator Flag                                                                    
~Ascii   DEPT          RLA0          RLA1          RLA2          RLA3          RLA4          RLA5          RXOZ            BS          DCAL          HCAL          HDAR      HD1_PPC1      HD2_PPC1          TENS       GR_EDTC          NPHI          NPOR          PEFZ          RHOZ          DPHZ          SPHI      VCL_HILT          DTCO          DTSM            PR          VPVS      CHR_FAST          CHRP          TICO          FLAG
# ...
    6514.50000       0.19819       8.65268       7.63425       7.20678       6.79883       6.21804      16.80492      17.50000      -9.02126       8.47874       8.50730       8.54024       8.47436    2689.25000      66.62098       0.13315       0.09318       1.92872       2.49726       0.09257       0.10850       0.23204      66.24092     111.07252       0.32121       1.67680       0.97396       0.98091    1182.86621    -999.25000
    6515.00000       0.19915       9.87951       8.68049       8.15635       7.73989       7.08280      18.21480      17.50000      -8.95463       8.54537       8.53358       8.56354       8.50362    2669.75000      83.56168       0.13210       0.09408       1.99849       2.50276       0.08924       0.10689       0.36803      66.01840     108.97197       0.31546       1.65063       0.97877       0.98569    1179.18982    -999.25000
    6515.50000       0.19953      11.78610      10.43036       9.78946       9.32286       8.55212      20.91718      17.50000      -8.95463       8.54537       8.53757       8.56262       8.51253    2607.25000      87.81116       0.13851       0.10580       2.08180       2.52943       0.07307       0.10291       0.47711      65.47061     108.12673       0.31565       1.65153       0.98093       0.98902    1175.32104    -999.25000
    6516.00000       0.19929      12.30157      10.91117      10.24665       9.71043       8.94128      23.08796      17.50000      -8.95463       8.54537       8.53125       8.56262       8.49988    2649.66675      83.35696       0.14133       0.09455       2.09967       2.54024       0.06652       0.09955       0.56291      65.00777     107.54988       0.31629       1.65442       0.98256       0.99167    1171.82581    -999.25000
    6516.50000       0.19930      13.32026      11.88277      11.15401      10.51186       9.70954      26.14131      17.50000      -8.96573       8.53427       8.53779       8.56306       8.51253    2696.50000      68.95707       0.13819       0.10393       2.09060       2.53545       0.06943       0.09720       0.49857      64.68401     106.99995       0.31624       1.65419       0.97900       0.99182    1168.55664    -999.25000
    6517.00000       0.20053      16.21984      14.44796      13.61444      12.77610      11.83534      30.91060      17.50000      -8.95463       8.54537       8.54339       8.57424       8.51253    2704.00000      60.82932       0.13131       0.09405       2.03353       2.53764       0.06810       0.09523       0.41637      64.41289     106.35146       0.31554       1.65109       0.97450       0.99232    1165.49048    -999.25000
    6517.50000       0.20142      19.40773      17.37569      16.39599      15.39879      14.29020      37.02835      17.50000      -8.96573       8.53427       8.52810       8.55236       8.50384    2800.00000      57.45491       0.12118       0.07333       1.97669       2.55104       0.05998       0.09091       0.30277      63.81833     105.59480       0.31632       1.65462       0.97695       0.99239    1162.90845    -999.25000
    6518.00000       0.20123      18.60918      16.57982      15.62107      14.70615      13.62501      38.65737      17.50000      -8.95463       8.54537       8.53939       8.57515       8.50362    2822.75000      60.08083       0.11502       0.07554       1.95830       2.55272       0.05896       0.08628       0.32930      63.18143     104.91496       0.31762       1.66053       0.97720       0.99396    1160.78882    -999.25000
    6518.50000       0.20159      17.13262      15.24142      14.34839      13.55492      12.53758      40.82082      17.50000      -8.97684       8.52316       8.54339       8.57424       8.51253    2821.75000      58.70333       0.11945       0.07049       1.98053       2.53186       0.07160       0.08723       0.32708      63.31094     104.25831       0.31454       1.64677       0.97081       0.98594    1159.05640    -999.25000
    6519.00000       0.20151      16.41188      14.50615      13.72047      12.96125      12.00242      30.75244      17.50000      -8.95463       8.54537       8.52726       8.56354       8.49099    2754.75000      55.25631       0.11935       0.08377       1.99750       2.51332       0.08284       0.09111       0.36524      63.84549     103.62623       0.30907       1.62308       0.97179       0.98846    1158.10315    -999.25000
    6519.50000       0.20144      15.87794      13.91265      13.19385      12.49029      11.48267      28.49195      17.50000      -8.97684       8.52316       8.53696       8.57424       8.49967    2704.25000      50.54975       0.12409       0.08456       1.97926       2.51322       0.08290       0.09250       0.30154      64.03745     103.11687       0.30600       1.61026       0.97214       0.99162    1157.68091    -999.25000
    6520.00000       0.20203      18.70695      16.56590      15.70611      14.89043      13.63676      27.29107      17.50000      -8.96573       8.53427       8.53369       8.56354       8.50384    2719.00000      52.90857       0.11879       0.07860       1.95197       2.52267       0.07717       0.09346       0.32933      64.17012     102.92513       0.30446       1.60394       0.96957       0.98261    1157.38794    -999.25000
    6520.50000       0.20155      16.41390      14.51679      13.71465      13.04840      11.88621      31.50876      17.50000      -8.97684       8.52316       8.54400       8.56262       8.52539    2727.66675      57.82188       0.12371       0.07746       1.93557       2.52715       0.07446       0.09475       0.35515      64.34639     103.09399       0.30403       1.60217       0.96498       0.98626    1156.79602    -999.25000
    6521.00000       0.20236      17.62749      15.68741      14.84399      14.18049      12.88859      31.73840      17.50000      -8.96573       8.53427       8.54447       8.57328       8.51566    2827.30566      58.37534       0.11897       0.08845       1.94145       2.51816       0.07990       0.09563       0.37815      64.46892     103.27061       0.30396       1.60187       0.96426       0.98115    1155.34656    -999.25000
    6521.50000       0.20242      18.03844      16.08835      15.28067      14.52813      13.21743      29.80198      17.50000      -8.95463       8.54537       8.54593       8.56600       8.52585    2852.61108      58.95742       0.12573       0.08362       1.94317       2.50408       0.08844       0.09875       0.33841      64.89758     103.13966       0.30083       1.58927       0.97070       0.98069    1153.20166    -999.25000
    6522.00000       0.20182      14.73299      13.05529      12.39164      11.82111      10.71923      26.57907      17.50000      -8.98794       8.51206       8.54064       8.56322       8.51806    2740.50000      56.96783       0.13011       0.07536       1.93095       2.49242       0.09551       0.10462       0.29147      65.70652     102.99349       0.29523       1.56748       0.96547       0.97905    1150.65247    -999.25000
    6522.50000       0.19809      11.32917      10.00070       9.47683       9.01694       8.18151      22.45914      17.50000      -8.97684       8.52316       8.54576       8.56978       8.52174    2798.22217      58.18888       0.15152       0.10408       1.91849       2.48376       0.10075       0.11231       0.30433      66.76460     103.43297       0.29037       1.54922       0.96347       0.97770    1148.25769    -999.25000
    6523.00000       0.19845      10.70689       9.46966       8.98879       8.53799       7.73522      18.59061      17.50000      -8.99905       8.50095       8.55110       8.57475       8.52746    2643.91675      58.94712       0.16422       0.11538       1.92238       2.47353       0.10695       0.11975       0.32335      67.78889     104.83877       0.28966       1.54655       0.96734       0.98357    1146.25415    -999.25000
    6523.50000       0.19754       9.87231       8.73115       8.25298       7.82826       7.06875      16.49106      17.50000      -8.97684       8.52316       8.54848       8.57455       8.52242    2699.33325      56.71982       0.16812       0.12568       1.94837       2.45821       0.11624       0.12488       0.30964      68.49636     106.33374       0.29126       1.55240       0.97091       0.99220    1144.41357    -999.25000
