~VERSION
 VERS.        2.00                                                                   :CWLS LOG ASCII STANDARD
 WRAP.        NO                                                                     :NO WRAP PERFORMED
 PROD.        Schlumberger                                                           :LAS Producer
 CREA.        11/7/2012                                     :LAS Creation Date and time
~Well
#MNEM.UNIT    VALUE                                                                   :DESCRIPTION
#----.----    ---------------                                                        :-------------------
 STRT.F       5061.000                                                               :START DEPTH
 STOP.F       7239.000                                                               :STOP  DEPTH
 STEP.F       0.500                                                                  :DEPTH STEP
 NULL.        -999.250                                                               :NULL VALUE
 COMP.        ADM COMPANY                                   :COMPANY NAME
 WELL.        Verification Well #2                          :WELL NAME
 FLD.         Wildcat                                       :FIELD NAME
 API.         121152355200                                                           :API NUMBER
 CNTY.        Macon                                                                  :COUNTY
 STAT.        Illinois                                                               :STATE
 CTRY.        US                                                                     :COUNTRY
 LOC.         Lat: 39.8922313 Long: -88.8924449                                      :WELL SURFACE LOCATION LINE 1
 LOC2.        248' South and 233' East From NW corner of the                         :WELL SURFACE LOCATION LINE 2
 LOC3.        NW/4, of the NE/4, of the NW/4, of Section 32                          :WELL SURFACE LOCATION LINE 3
 SECT.        32                                                                     :SECTION
 TOWN.        17 North                                                               :TOWNSHIP
 RANG.        3 East                                                                 :RANGE
 LATI.        39.892231 degrees                                                      :Latitude
 LONG.        -88.892444 degrees                                                     :Longitude
 DATE.        2012/10/31                                                             :LOGGING DATE
 SRVC.        Schlumberger                                                           :SERVICE COMPANY
~Parameter
#MNEM.UNIT    VALUE                                                                  :DESCRIPTION
#----.----    ---------------                                                        :-------------------
 APD.F        17.000                                                                 :Elevation of depth reference above permanent datum
 EDF.F        -999.250                                                               :Elevation of Derrick Floor
 EGL.F        686.500                                                                :Elevation of Ground Level
 EKB.F        703.500                                                                :Elevation of Kelly Bushing
 EPD.F        686.500                                                                :Elevation of Permnaent Datum
 LMF.         Kelly Bushing                                                          :Logging Measured From
 PDAT.        Ground Level                                                           :Permanent Datum
 TDD.F        7225.000                                                               :Total Depth Driller
 TDL.F        7223.000                                                               :Total Depth Logger
 BS.IN        8.500                                                                  :Bit Size
 R1.          TOOLSTRING RAN AS PER TOOL SKETCH                                      :REMARK 1
 R2.          PRESENTATIONS AS PER CLIENT REQUEST                                    :REMARK 2
 R3.          WELL LOCATION UPDATED FROM SURFACE LOGS                                :REMARK 3
 R4.          THANK YOU FOR CHOOSING SCHLUMBERGER!                                   :REMARK 4
 R5.          CREW: B. DOUGLAS & R. VAUGHAN                                          :REMARK 5
 R6.                                                                                 :REMARK 6
 R7.                                                                                 :REMARK 7
 R8.                                                                                 :REMARK 8
 R9.                                                                                 :REMARK 9
 R10.                                                                                :REMARK 10
 DCS_CENTER.  Denver                                                                 :Schlumberger DCS Center
 LOG_ANALYST. Schroer                                                                :Log Analyst Name
 ENG.         Beth DiBella                                                           :Field Engineer Name
 GF_BASELINE. 45                                                                     :GeoFrame Baseline
~Curve
#MNEM.UNIT                                                                           :DESCRIPTION
#----.----                                                                           :--------------------------------
 DEPT.F                                                                              :Depth Index
 RLA0.OHMM                                                                           : 1 Apparent Resistivity from Computed Focusing Mode 0                                        
 RLA1.OHMM                                                                           : 2 Apparent Resistivity from Computed Focusing Mode 1                                        
 RLA2.OHMM                                                                           : 3 Apparent Resistivity from Computed Focusing Mode 2                                        
 RLA3.OHMM                                                                           : 4 Apparent Resistivity from Computed Focusing Mode 3                                        
 RLA4.OHMM                                                                           : 5 Apparent Resistivity from Computed Focusing Mode 4                                        
 RLA5.OHMM                                                                           : 6 Apparent Resistivity from Computed Focusing Mode 5                                        
 RXOZ.OHMM                                                                           : 7 Invaded Formation Resistivity filtered at 18 inches                                       
 BS.IN                                                                               : 8 Bit Size                                                                                  
 DCAL.IN                                                                             : 9 Differential Caliper                                                                      
 HCAL.IN                                                                             :10 HRCC Caliper Calibrated                                                                   
 HDAR.IN                                                                             :11 Hole Diameter from Area                                                                   
 HD1_PPC1.IN                                                                         :12 PPC1 Hole Diameter 1                                                                      
 HD2_PPC1.IN                                                                         :13 PPC1 Hole Diameter 2                                                                      
 TENS.LBS                                                                            :14 Cable Tension                                                                             
 GR_EDTC.GAPI                                                                        :15 Gamma Ray                                                                                 
 NPHI.CFCF                                                                           :16 Thermal Neutron Porosity (original Ratio Method) in Selected Lithology                    
 NPOR.CFCF                                                                           :17 Enhanced Thermal Neutron Porosity in Selected Lithology                                   
 PEFZ.                                                                               :18 HRDD Standard Resolution Formation Photoelectric Factor                                   
 RHOZ.G/C3                                                                           :19 HRDD Standard Resolution Formation Density                                                
 DPHZ.CFCF                                                                           :20 Standard Resolution Density Porosity                                                      
 SPHI.CFCF                                                                           :21 Sonic Porosity                                                                            
 VCL_HILT.CFCF                                                                       :22 Volume of Clay type Material relative to Total Volume                                     
 DTCO.US/FT                                                                          :23 Delta-T Compressional                                                                     
 DTSM.US/FT                                                                          :24 Delta-T Shear                                                                             
 PR.                                                                                 :25 Poisson Ratio                                                                             
 VPVS.                                                                               :26 Compressional to Shear Velocity Ratio                                                     
 CHR_FAST.                                                                           :27 Peak Coherence, Receiver Array - FAST                                                     
 CHRP.                                                                               :28 Label Peak Coherence, Receiver Array, Compressional - Monopole P&S                        
 TICO.US                                                                             :29 Compressional Integrated Transit Time Channel                                             
 FLAG.                                                                               :30 General Indicator Flag                                                                    
~Ascii   DEPT          RLA0          RLA1          RLA2          RLA3          RLA4          RLA5          RXOZ            BS          DCAL          HCAL          HDAR      HD1_PPC1      HD2_PPC1          TENS       GR_EDTC          NPHI          NPOR          PEFZ          RHOZ          DPHZ          SPHI      VCL_HILT          DTCO          DTSM            PR          VPVS      CHR_FAST          CHRP          TICO          FLAG
# ...
    5944.50000       0.19727      20.18123      18.10595      17.27784      16.66619      16.39062      29.73316      17.50000      -8.57701       8.92299       8.82711       8.97227       8.68196    2709.50024      21.07127       0.12148       0.08235       1.74892       2.52657       0.07481       0.08725       0.06829      63.31453     101.05009       0.30248       1.59600       0.97730       0.99193    1118.11877    -999.25000
    5945.00000       0.19759      20.05926      17.79782      16.99841      16.59145      16.22145      28.70316      17.50000      -8.57701       8.92299       8.81137       8.95216       8.67057    2707.66675      19.90008       0.11950       0.08117       1.71766       2.53679       0.06861       0.08526       0.06649      63.03964     100.17210       0.30073       1.58903       0.97007       0.99196    1119.60120    -999.25000
    5945.50000       0.19714      19.01483      16.89514      16.08743      15.84945      15.42516      27.46058      17.50000      -8.59923       8.90077       8.81438       8.94964       8.67911    2626.13330      19.16358       0.11021       0.07484       1.70790       2.54964       0.06082       0.08568       0.07862      63.09801      99.69211       0.29842       1.57996       0.98655       0.99138    1121.44922    -999.25000
    5946.00000       0.19750      19.11082      16.98302      16.22732      16.04095      15.56879      26.26311      17.50000      -8.58812       8.91188       8.80825       8.93455       8.68196    2616.50000      19.96901       0.10701       0.08396       1.70408       2.54389       0.06431       0.08712       0.05817      63.29671      99.48816       0.29631       1.57177       0.98805       0.99231    1122.95764    -999.25000
    5946.50000       0.19801      19.86007      17.60232      16.93254      16.74488      16.20210      26.29161      17.50000      -8.62144       8.87856       8.80436       8.92676       8.68196    2563.41675      21.24989       0.10216       0.06738       1.72090       2.54785       0.06191       0.08674       0.04736      63.24400      99.42831       0.29640       1.57214    -999.25000       0.98922    1123.69385    -999.25000
    5947.00000       0.19786      21.89515      19.46169      18.89444      18.51554      17.84388      28.63977      17.50000      -8.61033       8.88967       8.79798       8.92137       8.67458    2492.41675      22.78291       0.09671       0.06145       1.72312       2.56441       0.05187       0.08295       0.05130      62.72229      99.51712       0.30012       1.58663       0.96747       0.98516    1123.65076    -999.25000
    5947.50000       0.19804      24.09056      21.71395      21.22155      20.62544      19.73479      33.58518      17.50000      -8.62144       8.87856       8.79085       8.91508       8.66663    2571.00000      23.94727       0.09381       0.05930       1.72621       2.59222       0.03502       0.07655       0.02426      61.84092      99.73176       0.30655       1.61271       0.97603       0.98443    1122.85657    -999.25000
    5948.00000       0.19798      21.80301      19.95777      19.50787      18.80960      17.89160      36.56538      17.50000      -8.62144       8.87856       8.79373       8.91546       8.67200    2610.16675      24.20423       0.08991       0.06359       1.72423       2.60948       0.02456       0.07025       0.05300      60.97329     100.06200       0.31321       1.64108       0.96921       0.98572    1121.16626    -999.25000
    5948.50000       0.19767      19.06116      17.64978      17.07873      16.36793      15.47356      36.85265      17.50000      -8.64365       8.85635       8.79683       8.91171       8.68196    2696.61108      24.98598       0.09096       0.05900       1.71458       2.59727       0.03196       0.06733       0.05922      60.57170     100.58267       0.31758       1.66056       0.96781       0.98465    1118.76123    -999.25000
    5949.00000       0.19472      14.22063      13.07626      12.53190      11.89008      11.18789      31.28593      17.50000      -8.64365       8.85635       8.78183       8.88170       8.68196    2596.25000      26.39330       0.08706       0.05232       1.72470       2.57433       0.04586       0.07075       0.08614      61.04192     101.29594       0.31734       1.65945       0.96367       0.98008    1115.85693    -999.25000
    5949.50000       0.19070       9.75315       8.82217       8.38025       7.93461       7.41716      23.30754      17.50000      -8.64365       8.85635       8.78161       8.88126       8.68196    2629.50000      27.77633       0.09596       0.05910       1.74051       2.54791       0.06187       0.08121       0.09025      62.48277     102.13906       0.31176       1.63468       0.96695       0.98256    1111.90955    -999.25000
    5950.00000       0.18921       8.13391       7.26931       6.85835       6.49629       6.06055      16.93737      17.50000      -8.64365       8.85635       8.76755       8.86953       8.66557    2657.25000      28.00720       0.10831       0.06434       1.78423       2.52300       0.07697       0.09282       0.09820      64.08128     103.15385       0.30587       1.60973       0.96901       0.98577    1107.44678    -999.25000
    5950.50000       0.18769       7.84732       6.98010       6.56145       6.20305       5.77076      14.31793      17.50000      -8.64365       8.85635       8.78026       8.86953       8.69100    2609.50000      28.07820       0.12925       0.09433       1.81851       2.50423       0.08835       0.10396       0.14742      65.61535     104.24226       0.30069       1.58869       0.97330       0.98639    1103.36316    -999.25000
    5951.00000       0.18773       8.17431       7.31681       6.87034       6.49471       6.01444      13.62292      17.50000      -8.64365       8.85635       8.78245       8.87015       8.69476    2608.50000      28.49149       0.14023       0.10504       1.84001       2.49376       0.09469       0.11041       0.15025      66.50337     105.01402       0.29826       1.57908       0.98269       0.98759    1100.29224    -999.25000
    5951.50000       0.18925       9.24824       8.37469       7.89008       7.45366       6.89612      14.90613      17.50000      -8.64365       8.85635       8.77605       8.87015       8.68196    2598.25000      31.22874       0.13568       0.10496       1.84904       2.51429       0.08225       0.10554       0.16640      65.83221     105.12617       0.30275       1.59688       0.98191       0.98621    1098.10547    -999.25000
    5952.00000       0.19071      11.94120      10.98490      10.42559       9.83694       9.08104      18.24832      17.50000      -8.66586       8.83414       8.77102       8.84748       8.69456    2615.66675      31.85480       0.12058       0.08658       1.84760       2.53494       0.06973       0.09539       0.14971      64.43526     104.60347       0.30915       1.62339       0.98453       0.97928    1096.18127    -999.25000
    5952.50000       0.19236      16.75710      15.59935      15.06483      14.27784      13.17909      24.22612      17.50000      -8.67697       8.82303       8.76546       8.83636       8.69456    2639.75000      31.01919       0.10113       0.06347       1.83994       2.54987       0.06069       0.08988       0.16032      63.67690     103.68043       0.31028       1.62823       0.98345       0.98132    1094.04956    -999.25000
    5953.00000       0.19225      16.62480      15.36020      15.06253      14.31772      13.19530      30.56498      17.50000      -8.68808       8.81192       8.74782       8.81367       8.68196    2666.00000      29.38927       0.09882       0.05897       1.81516       2.54573       0.06320       0.08624       0.15455      63.17470     102.50137       0.30892       1.62251       0.98477       0.98579    1091.54639    -999.25000
    5953.50000       0.19283      19.46449      17.77630      17.66013      16.87102      15.55568      35.77930      17.50000      -8.69918       8.80082       8.73563       8.80211       8.66915    2648.75000      29.92010       0.09786       0.07090       1.79874       2.54311       0.06478       0.08205       0.11987      62.59876     101.09644       0.30712       1.61499       0.97295       0.98681    1089.38757    -999.25000
