~VERSION
 VERS.        2.00                                                                   :CWLS LOG ASCII STANDARD
 WRAP.        NO                                                                     :NO WRAP PERFORMED
 PROD.        Schlumberger                                                           :LAS Producer
 CREA.        11/7/2012                                     :LAS Creation Date and time
~Well
#MNEM.UNIT    VALUE                                                                   :DESCRIPTION
#----.----    ---------------                                                        :-------------------
 STRT.F       5061.000                                                               :START DEPTH
 STOP.F       7239.000                                                               :STOP  DEPTH
 STEP.F       0.500                                                                  :DEPTH STEP
 NULL.        -999.250                                                               :NULL VALUE
 COMP.        ADM COMPANY                                   :COMPANY NAME
 WELL.        Verification Well #2                          :WELL NAME
 FLD.         Wildcat                                       :FIELD NAME
 API.         121152355200                                                           :API NUMBER
 CNTY.        Macon                                                                  :COUNTY
 STAT.        Illinois                                                               :STATE
 CTRY.        US                                                                     :COUNTRY
 LOC.         Lat: 39.8922313 Long: -88.8924449                                      :WELL SURFACE LOCATION LINE 1
 LOC2.        248' South and 233' East From NW corner of the                         :WELL SURFACE LOCATION LINE 2
 LOC3.        NW/4, of the NE/4, of the NW/4, of Section 32                          :WELL SURFACE LOCATION LINE 3
 SECT.        32                                                                     :SECTION
 TOWN.        17 North                                                               :TOWNSHIP
 RANG.        3 East                                                                 :RANGE
 LATI.        39.892231 degrees                                                      :Latitude
 LONG.        -88.892444 degrees                                                     :Longitude
 DATE.        2012/10/31                                                             :LOGGING DATE
 SRVC.        Schlumberger                                                           :SERVICE COMPANY
~Parameter
#MNEM.UNIT    VALUE                                                                  :DESCRIPTION
#----.----    ---------------                                                        :-------------------
 APD.F        17.000                                                                 :Elevation of depth reference above permanent datum
 EDF.F        -999.250                                                               :Elevation of Derrick Floor
 EGL.F        686.500                                                                :Elevation of Ground Level
 EKB.F        703.500                                                                :Elevation of Kelly Bushing
 EPD.F        686.500                                                                :Elevation of Permnaent Datum
 LMF.         Kelly Bushing                                                          :Logging Measured From
 PDAT.        Ground Level                                                           :Permanent Datum
 TDD.F        7225.000                                                               :Total Depth Driller
 TDL.F        7223.000                                                               :Total Depth Logger
 BS.IN        8.500                                                                  :Bit Size
 R1.          TOOLSTRING RAN AS PER TOOL SKETCH                                      :REMARK 1
 R2.          PRESENTATIONS AS PER CLIENT REQUEST                                    :REMARK 2
 R3.          WELL LOCATION UPDATED FROM SURFACE LOGS                                :REMARK 3
 R4.          THANK YOU FOR CHOOSING SCHLUMBERGER!                                   :REMARK 4
 R5.          CREW: B. DOUGLAS & R. VAUGHAN                                          :REMARK 5
 R6.                                                                                 :REMARK 6
 R7.                                                                                 :REMARK 7
 R8.                                                                                 :REMARK 8
 R9.                                                                                 :REMARK 9
 R10.                                                                                :REMARK 10
 DCS_CENTER.  Denver                                                                 :Schlumberger DCS Center
 LOG_ANALYST. Schroer                                                                :Log Analyst Name
 ENG.         Beth DiBella                                                           :Field Engineer Name
 GF_BASELINE. 45                                                                     :GeoFrame Baseline
~Curve
#MNEM.UNIT                                                                           :DESCRIPTION
#----.----                                                                           :--------------------------------
 DEPT.F                                                                              :Depth Index
 RLA0.OHMM                                                                           : 1 Apparent Resistivity from Computed Focusing Mode 0                                        
 RLA1.OHMM                                                                           : 2 Apparent Resistivity from Computed Focusing Mode 1                                        
 RLA2.OHMM                                                                           : 3 Apparent Resistivity from Computed Focusing Mode 2                                        
 RLA3.OHMM                                                                           : 4 Apparent Resistivity from Computed Focusing Mode 3                                        
 RLA4.OHMM                                                                           : 5 Apparent Resistivity from Computed Focusing Mode 4                                        
 RLA5.OHMM                                                                           : 6 Apparent Resistivity from Computed Focusing Mode 5                                        
 RXOZ.OHMM                                                                           : 7 Invaded Formation Resistivity filtered at 18 inches                                       
 BS.IN                                                                               : 8 Bit Size                                                                                  
 DCAL.IN                                                                             : 9 Differential Caliper                                                                      
 HCAL.IN                                                                             :10 HRCC Caliper Calibrated                                                                   
 HDAR.IN                                                                             :11 Hole Diameter from Area                                                                   
 HD1_PPC1.IN                                                                         :12 PPC1 Hole Diameter 1                                                                      
 HD2_PPC1.IN                                                                         :13 PPC1 Hole Diameter 2                                                                      
 TENS.LBS                                                                            :14 Cable Tension                                                                             
 GR_EDTC.GAPI                                                                        :15 Gamma Ray                                                                                 
 NPHI.CFCF                                                                           :16 Thermal Neutron Porosity (original Ratio Method) in Selected Lithology                    
 NPOR.CFCF                                                                           :17 Enhanced Thermal Neutron Porosity in Selected Lithology                                   
 PEFZ.                                                                               :18 HRDD Standard Resolution Formation Photoelectric Factor                                   
 RHOZ.G/C3                                                                           :19 HRDD Standard Resolution Formation Density                                                
 DPHZ.CFCF                                                                           :20 Standard Resolution Density Porosity                                                      
 SPHI.CFCF                                                                           :21 Sonic Porosity                                                                            
 VCL_HILT.CFCF                                                                       :22 Volume of Clay type Material relative to Total Volume                                     
 DTCO.US/FT                                                                          :23 Delta-T Compressional                                                                     
 DTSM.US/FT                                                                          :24 Delta-T Shear                                                                             
 PR.                                                                                 :25 Poisson Ratio                                                                             
 VPVS.                                                                               :26 Compressional to Shear Velocity Ratio                                                     
 CHR_FAST.                                                                           :27 Peak Coherence, Receiver Array - FAST                                                     
 CHRP.                                                                               :28 Label Peak Coherence, Receiver Array, Compressional - Monopole P&S                        
 TICO.US                                                                             :29 Compressional Integrated Transit Time Channel                                             
 FLAG.                                                                               :30 General Indicator Flag                                                                    
~Ascii   DEPT          RLA0          RLA1          RLA2          RLA3          RLA4          RLA5          RXOZ            BS          DCAL          HCAL          HDAR      HD1_PPC1      HD2_PPC1          TENS       GR_EDTC          NPHI          NPOR          PEFZ          RHOZ          DPHZ          SPHI      VCL_HILT          DTCO          DTSM            PR          VPVS      CHR_FAST          CHRP          TICO          FLAG
# ...
    5802.00000       0.17526       2.90202       2.63857       2.52714       2.45802       2.37823       4.87359      17.50000      -8.99905       8.50095       8.47410       8.49557       8.45263    2650.50000      20.07302       0.15673       0.11143       1.72108       2.46103       0.11453       0.10853       0.06644      66.24493     102.19737       0.28857       1.54272       0.97532       0.99692    1108.65442    -999.25000
    5802.50000       0.17333       2.59571       2.36001       2.26223       2.21111       2.12067       4.72133      17.50000      -9.02126       8.47874       8.49109       8.52956       8.45263    2691.75000      19.32157       0.16294       0.11499       1.73653       2.45505       0.11815       0.10891       0.06673      66.29723     103.82654       0.29487       1.56608       0.97750       0.99746    1109.77747    -999.25000
    5803.00000       0.17331       2.45323       2.24283       2.16986       2.13829       2.01596       4.66938      17.50000      -8.99905       8.50095       8.49430       8.51934       8.46926    2618.00000      21.04844       0.15892       0.11772       1.75851       2.44072       0.12684       0.10807       0.03233      66.18085     105.14547       0.30072       1.58876       0.97846       0.99775    1111.03906    -999.25000
    5803.50000       0.17468       2.39985       2.20353       2.13854       2.13546       1.98423       4.58126      17.50000      -9.02126       8.47874       8.48799       8.51934       8.45663    2588.00000      20.44408       0.16733       0.11915       1.75980       2.43649       0.12940       0.10802       0.05790      66.17381     105.81231       0.30328       1.59901       0.98434       0.99791    1112.51575    -999.25000
    5804.00000       0.17582       2.37952       2.18469       2.13555       2.14241       1.97604       4.61097      17.50000      -8.99905       8.50095       8.48086       8.50716       8.45457    2544.75000      21.16164       0.17982       0.11559       1.73485       2.44808       0.12237       0.10873       0.05406      66.27235     105.91728       0.30309       1.59821       0.98188       0.99641    1114.34961    -999.25000
    5804.50000       0.17539       2.33251       2.13795       2.10256       2.12221       1.94911       4.53274      17.50000      -8.99905       8.50095       8.48550       8.51838       8.45263    2556.25000      21.70233       0.18682       0.12993       1.70245       2.46056       0.11481       0.10867       0.07250      66.26427     105.99134       0.30341       1.59952       0.98072       0.99629    1116.56067    -999.25000
    5805.00000       0.17502       2.31278       2.12722       2.10346       2.12494       1.94905       4.53405      17.50000      -8.99905       8.50095       8.47410       8.49557       8.45263    2635.00000      22.47016       0.18301       0.14087       1.70031       2.45794       0.11640       0.10648       0.04496      65.96195     106.12179       0.30569       1.60883       0.98066       0.99543    1118.55933    -999.25000
    5805.50000       0.17652       2.46651       2.27942       2.27752       2.27806       2.09105       4.60655      17.50000      -8.99905       8.50095       8.46715       8.50719       8.42711    2555.50000      22.96527       0.17352       0.13969       1.70364       2.45677       0.11711       0.10350       0.04496      65.55148     106.20547       0.30841       1.62018       0.98192       0.99563    1120.90283    -999.25000
    5806.00000       0.17520       2.40537       2.22985       2.24108       2.21412       2.04283       4.79795      17.50000      -9.01016       8.48984       8.49183       8.51838       8.46527    2559.25000      23.99852       0.16811       0.12203       1.70573       2.45878       0.11589       0.10147       0.05093      65.27257     106.21267       0.31007       1.62722       0.98052       0.99742    1122.10339    -999.25000
    5806.50000       0.17454       2.28611       2.13315       2.12640       2.09239       1.94032       4.75048      17.50000      -8.99905       8.50095       8.48240       8.50817       8.45663    2543.00024      25.48347       0.17604       0.12579       1.70261       2.46003       0.11513       0.10144       0.06871      65.26776     106.13515       0.30982       1.62615       0.98217       0.99808    1122.04529    -999.25000
    5807.00000       0.17569       2.33772       2.20437       2.15357       2.11894       1.97685       4.74412      17.50000      -9.02126       8.47874       8.47337       8.50676       8.43997    2517.50000      26.23605       0.17499       0.12539       1.70952       2.46084       0.11465       0.10318       0.08263      65.50800     105.95390       0.30775       1.61742       0.98161       0.99711    1121.40784    -999.25000
    5807.50000       0.17475       2.29082       2.16184       2.07627       2.04478       1.91827       4.63993      17.50000      -8.99905       8.50095       8.47720       8.50578       8.44862    2543.80005      28.36239       0.18146       0.13337       1.73970       2.45318       0.11929       0.10597       0.06871      65.89152     105.83549       0.30505       1.60621       0.98131       0.99664    1120.60303    -999.25000
    5808.00000       0.17418       2.19837       2.02090       1.93378       1.89828       1.79609       4.59601      17.50000      -9.02126       8.47874       8.47482       8.48437       8.46527    2589.00000      28.25421       0.17136       0.13242       1.78028       2.44081       0.12678       0.10866       0.07380      66.26213     105.80338       0.30272       1.59674       0.98082       0.99719    1120.88379    -999.25000
    5808.50000       0.17399       2.15043       1.93678       1.84963       1.81601       1.72936       4.46304      17.50000      -9.02126       8.47874       8.48063       8.49599       8.46527    2547.00000      30.17509       0.17232       0.13606       1.80653       2.43048       0.13304       0.10851       0.10005      66.24248     105.61385       0.30213       1.59435       0.98180       0.99688    1121.90735    -999.25000
    5809.00000       0.17512       2.06389       1.85456       1.77231       1.73628       1.67666       4.37981      17.50000      -9.02126       8.47874       8.48871       8.50817       8.46926    2559.49976      28.04813       0.16658       0.11171       1.80279       2.43563       0.12992       0.10691       0.12857      66.02160     105.28188       0.30220       1.59466       0.98501       0.98136    1122.70764    -999.25000
    5809.50000       0.17453       1.93667       1.75037       1.67415       1.63807       1.59631       4.32294      17.50000      -8.99905       8.50095       8.48799       8.51934       8.45663    2550.66675      30.24854       0.17528       0.12851       1.79013       2.45228       0.11983       0.10625       0.17986      65.93047     104.97739       0.30159       1.59224       0.98491       0.97672    1123.34888    -999.25000
    5810.00000       0.18863       3.29756       3.02901       2.89490       2.81110       2.74868       5.28378      17.50000      -9.01016       8.48984       8.47969       8.50676       8.45263    2594.25000      33.12619       0.18209       0.13410       1.79468       2.47140       0.10824       0.10498       0.22768      65.75526     104.59835       0.30121       1.59072       0.98561       0.97512    1123.42322    -999.25000
    5810.50000       0.19954       6.02586       5.50924       5.27470       5.04588       4.88009       6.96346      17.50000      -8.99905       8.50095       8.47410       8.49557       8.45263    2664.75000      37.64894       0.17489       0.13456       1.80847       2.48591       0.09945       0.10310       0.23771      65.49685     103.84119       0.29987       1.58544       0.98548       0.97541    1122.59387    -999.25000
    5811.00000       0.19821       7.28519       6.57084       6.22654       5.91625       5.71746       9.52422      17.50000      -9.02126       8.47874       8.46766       8.49557       8.43976    2604.75000      37.11479       0.15300       0.11445       1.81114       2.49512       0.09386       0.09815       0.20226      64.81567     102.97023       0.30067       1.58866       0.98504       0.98071    1121.76245    -999.25000
