~VERSION
 VERS.        2.00                                                                   :CWLS LOG ASCII STANDARD
 WRAP.        NO                                                                     :NO WRAP PERFORMED
 PROD.        Schlumberger                                                           :LAS Producer
 CREA.        11/7/2012                                     :LAS Creation Date and time
~Well
#MNEM.UNIT    VALUE                                                                   :DESCRIPTION
#----.----    ---------------                                                        :-------------------
 STRT.F       5061.000                                                               :START DEPTH
 STOP.F       7239.000                                                               :STOP  DEPTH
 STEP.F       0.500                                                                  :DEPTH STEP
 NULL.        -999.250                                                               :NULL VALUE
 COMP.        ADM COMPANY                                   :COMPANY NAME
 WELL.        Verification Well #2                          :WELL NAME
 FLD.         Wildcat                                       :FIELD NAME
 API.         121152355200                                                           :API NUMBER
 CNTY.        Macon                                                                  :COUNTY
 STAT.        Illinois                                                               :STATE
 CTRY.        US                                                                     :COUNTRY
 LOC.         Lat: 39.8922313 Long: -88.8924449                                      :WELL SURFACE LOCATION LINE 1
 LOC2.        248' South and 233' East From NW corner of the                         :WELL SURFACE LOCATION LINE 2
 LOC3.        NW/4, of the NE/4, of the NW/4, of Section 32                          :WELL SURFACE LOCATION LINE 3
 SECT.        32                                                                     :SECTION
 TOWN.        17 North                                                               :TOWNSHIP
 RANG.        3 East                                                                 :RANGE
 LATI.        39.892231 degrees                                                      :Latitude
 LONG.        -88.892444 degrees                                                     :Longitude
 DATE.        2012/10/31                                                             :LOGGING DATE
 SRVC.        Schlumberger                                                           :SERVICE COMPANY
~Parameter
#MNEM.UNIT    VALUE                                                                  :DESCRIPTION
#----.----    ---------------                                                        :-------------------
 APD.F        17.000                                                                 :Elevation of depth reference above permanent datum
 EDF.F        -999.250                                                               :Elevation of Derrick Floor
 EGL.F        686.500                                                                :Elevation of Ground Level
 EKB.F        703.500                                                                :Elevation of Kelly Bushing
 EPD.F        686.500                                                                :Elevation of Permnaent Datum
 LMF.         Kelly Bushing                                                          :Logging Measured From
 PDAT.        Ground Level                                                           :Permanent Datum
 TDD.F        7225.000                                                               :Total Depth Driller
 TDL.F        7223.000                                                               :Total Depth Logger
 BS.IN        8.500                                                                  :Bit Size
 R1.          TOOLSTRING RAN AS PER TOOL SKETCH                                      :REMARK 1
 R2.          PRESENTATIONS AS PER CLIENT REQUEST                                    :REMARK 2
 R3.          WELL LOCATION UPDATED FROM SURFACE LOGS                                :REMARK 3
 R4.          THANK YOU FOR CHOOSING SCHLUMBERGER!                                   :REMARK 4
 R5.          CREW: B. DOUGLAS & R. VAUGHAN                                          :REMARK 5
 R6.                                                                                 :REMARK 6
 R7.                                                                                 :REMARK 7
 R8.                                                                                 :REMARK 8
 R9.                                                                                 :REMARK 9
 R10.                                                                                :REMARK 10
 DCS_CENTER.  Denver                                                                 :Schlumberger DCS Center
 LOG_ANALYST. Schroer                                                                :Log Analyst Name
 ENG.         Beth DiBella                                                           :Field Engineer Name
 GF_BASELINE. 45                                                                     :GeoFrame Baseline
~Curve
#MNEM.UNIT                                                                           :DESCRIPTION
#----.----                                                                           :--------------------------------
 DEPT.F                                                                              :Depth Index
 RLA0.OHMM                                                                           : 1 Apparent Resistivity from Computed Focusing Mode 0                                        
 RLA1.OHMM                                                                           : 2 Apparent Resistivity from Computed Focusing Mode 1                                        
 RLA2.OHMM                                                                           : 3 Apparent Resistivity from Computed Focusing Mode 2                                        
 RLA3.OHMM                                                                           : 4 Apparent Resistivity from Computed Focusing Mode 3                                        
 RLA4.OHMM                                                                           : 5 Apparent Resistivity from Computed Focusing Mode 4                                        
 RLA5.OHMM                                                                           : 6 Apparent Resistivity from Computed Focusing Mode 5                                        
 RXOZ.OHMM                                                                           : 7 Invaded Formation Resistivity filtered at 18 inches                                       
 BS.IN                                                                               : 8 Bit Size                                                                                  
 DCAL.IN                                                                             : 9 Differential Caliper                                                                      
 HCAL.IN                                                                             :10 HRCC Caliper Calibrated                                                                   
 HDAR.IN                                                                             :11 Hole Diameter from Area                                                                   
 HD1_PPC1.IN                                                                         :12 PPC1 Hole Diameter 1                                                                      
 HD2_PPC1.IN                                                                         :13 PPC1 Hole Diameter 2                                                                      
 TENS.LBS                                                                            :14 Cable Tension                                                                             
 GR_EDTC.GAPI                                                                        :15 Gamma Ray                                                                                 
 NPHI.CFCF                                                                           :16 Thermal Neutron Porosity (original Ratio Method) in Selected Lithology                    
 NPOR.CFCF                                                                           :17 Enhanced Thermal Neutron Porosity in Selected Lithology                                   
 PEFZ.                                                                               :18 HRDD Standard Resolution Formation Photoelectric Factor                                   
 RHOZ.G/C3                                                                           :19 HRDD Standard Resolution Formation Density                                                
 DPHZ.CFCF                                                                           :20 Standard Resolution Density Porosity                                                      
 SPHI.CFCF                                                                           :21 Sonic Porosity                                                                            
 VCL_HILT.CFCF                                                                       :22 Volume of Clay type Material relative to Total Volume                                     
 DTCO.US/FT                                                                          :23 Delta-T Compressional                                                                     
 DTSM.US/FT                                                                          :24 Delta-T Shear                                                                             
 PR.                                                                                 :25 Poisson Ratio                                                                             
 VPVS.                                                                               :26 Compressional to Shear Velocity Ratio                                                     
 CHR_FAST.                                                                           :27 Peak Coherence, Receiver Array - FAST                                                     
 CHRP.                                                                               :28 Label Peak Coherence, Receiver Array, Compressional - Monopole P&S                        
 TICO.US                                                                             :29 Compressional Integrated Transit Time Channel                                             
 FLAG.                                                                               :30 General Indicator Flag                                                                    
~Ascii   DEPT          RLA0          RLA1          RLA2          RLA3          RLA4          RLA5          RXOZ            BS          DCAL          HCAL          HDAR      HD1_PPC1      HD2_PPC1          TENS       GR_EDTC          NPHI          NPOR          PEFZ          RHOZ          DPHZ          SPHI      VCL_HILT          DTCO          DTSM            PR          VPVS      CHR_FAST          CHRP          TICO          FLAG
# ...
    6087.00000       0.19509      11.33749       9.86027       9.30076       8.65585       7.79606      18.38854      17.50000      -8.82135       8.67865       8.69016       8.67100       8.70932    2637.50024      33.06153       0.10869       0.06986       1.82084       2.58502       0.03938       0.07845       0.12841      62.10198      99.02936       0.30212       1.59462       0.99065       0.96330    1051.47742    -999.25000
    6087.50000       0.19751      17.85548      15.85493      14.85735      13.89413      12.52624      17.35954      17.50000      -8.82135       8.67865       8.66632       8.65076       8.68188    2621.50024      32.28121       0.11125       0.06700       1.80897       2.57981       0.04254       0.08067       0.10117      62.40841      99.01516       0.30009       1.58657       0.98002       0.94269    1052.28528    -999.25000
    6088.00000       0.19668      15.87736      14.14117      13.22637      12.36243      11.18381      18.61581      17.50000      -8.84356       8.65644       8.66415       8.64994       8.67835    2672.83325      30.44710       0.10647       0.06406       1.78416       2.56741       0.05005       0.08430       0.05924      62.90791      99.11937       0.29730       1.57563       0.98169       0.93801    1053.25415    -999.25000
    6088.50000       0.19873      22.97788      20.95542      19.64063      18.41192      16.74732      24.61851      17.50000      -8.84356       8.65644       8.64900       8.64956       8.64844    2679.58350      28.32626       0.09729       0.05798       1.75579       2.56734       0.05010       0.08804       0.09127      63.42308      99.25781       0.29453       1.56501       0.98331       0.94592    1054.80957    -999.25000
    6089.00000       0.19864      20.80293      18.52939      17.53684      16.47298      15.03831      25.03866      17.50000      -8.84356       8.65644       8.62490       8.64247       8.60733    2586.50000      26.46098       0.09546       0.06382       1.74492       2.55358       0.05843       0.09065       0.07907      63.78312      99.30280       0.29238       1.55688       0.98459       0.95864    1056.83813    -999.25000
    6089.50000       0.19796      16.72859      14.77466      14.06738      13.25674      12.15920      26.20349      17.50000      -8.86578       8.63422       8.62875       8.64284       8.61465    2616.00000      25.35874       0.09855       0.06714       1.77125       2.54887       0.06129       0.09145       0.10730      63.89209      99.20405       0.29125       1.55268       0.98548       0.97187    1058.87158    -999.25000
    6090.00000       0.19760      17.73313      15.58470      14.89166      14.08793      12.92607      28.05927      17.50000      -8.86578       8.63422       8.62299       8.64228       8.60369    2644.00000      26.92691       0.10313       0.06242       1.79050       2.54945       0.06094       0.09057       0.12559      63.77083      98.94083       0.29093       1.55151       0.99276       0.97980    1060.70996    -999.25000
    6090.50000       0.19771      18.82647      16.38018      15.53086      14.80142      13.60068      25.64700      17.50000      -8.86578       8.63422       8.63077       8.64303       8.61851    2633.25024      26.43379       0.10732       0.06694       1.80366       2.56890       0.04915       0.08945       0.16497      63.61667      98.48737       0.29001       1.54814       0.99311       0.98599    1062.26514    -999.25000
    6091.00000       0.19838      23.14372      19.80815      18.70227      17.98461      16.55115      30.42444      17.50000      -8.86578       8.63422       8.61852       8.62843       8.60860    2697.07617      27.96750       0.10748       0.07126       1.80044       2.59315       0.03446       0.08601       0.18021      63.14392      97.87141       0.29050       1.54997       0.99131       0.98924    1064.32788    -999.25000
    6091.50000       0.20075      29.97431      26.11762      24.52963      23.56230      21.90014      38.94150      17.50000      -8.88799       8.61201       8.63037       8.65418       8.60657    2644.06665      29.35514       0.09419       0.06472       1.80156       2.60729       0.02588       0.08010       0.18472      62.32958      97.30408       0.29348       1.56112       0.99163       0.98522    1066.11096    -999.25000
    6092.00000       0.19768      15.71184      13.54933      12.65475      12.03665      11.25509      48.94403      17.50000      -8.86578       8.63422       8.62754       8.66221       8.59287    2534.25000      31.19154       0.09731       0.05297       1.84050       2.61350       0.02212       0.07400       0.19444      61.49029      96.94293       0.29751       1.57656       0.99303       0.97206    1067.96130    -999.25000
    6092.50000       0.19843      17.23473      14.94683      14.02382      13.29939      12.48873      40.86714      17.50000      -8.91020       8.58980       8.62397       8.65508       8.59287    2585.24048      31.97466       0.09943       0.06149       1.89208       2.59671       0.03230       0.07000       0.23360      60.93897      96.80713       0.30058       1.58859       0.99116       0.96170    1070.02051    -999.25000
    6093.00000       0.19887      18.56838      16.05755      15.03506      14.23701      13.36976      30.80268      17.50000      -8.91020       8.58980       8.61068       8.64131       8.58004    2670.66553      37.26841       0.10800       0.08231       1.92199       2.56655       0.05058       0.07258       0.20444      61.29414      96.79008       0.29816       1.57911       0.98953       0.96121    1072.41626    -999.25000
    6093.50000       0.19736      15.68000      13.56998      12.70403      12.02747      11.26569      26.50391      17.50000      -8.95463       8.54537       8.61057       8.63616       8.58497    2642.55396      42.79725       0.10211       0.06555       1.88194       2.53269       0.07110       0.07919       0.13948      62.20397      97.05094       0.29323       1.56020       0.98763       0.97772    1075.42175    -999.25000
    6094.00000       0.19623      16.04613      14.13735      13.20751      12.55301      11.71333      23.26736      17.50000      -8.93241       8.56759       8.61005       8.64303       8.57707    2617.67798      37.06186       0.10388       0.06023       1.80255       2.52688       0.07462       0.07984       0.06756      62.29416      97.20606       0.29330       1.56044       0.98677       0.98808    1078.90735    -999.25000
    6094.50000       0.19780      18.12898      16.10797      15.07492      14.33366      13.35723      21.00856      17.50000      -8.93241       8.56759       8.60382       8.63286       8.57478    2636.65112      27.20796       0.10335       0.06907       1.74704       2.53668       0.06868       0.07767       0.03286      61.99576      97.21747       0.29533       1.56813       0.98860       0.98638    1082.52319    -999.25000
    6095.00000       0.19895      17.75051      15.70537      14.84083      14.08577      13.09403      24.14591      17.50000      -8.94352       8.55648       8.57831       8.61694       8.53969    2578.46216      25.67731       0.10710       0.06302       1.72302       2.54795       0.06185       0.08168       0.08290      62.54681      97.08082       0.29107       1.55213       0.98758       0.98321    1086.08435    -999.25000
    6095.50000       0.20263      19.76592      17.47731      16.65298      15.72357      14.60230      28.67159      17.50000      -8.95463       8.54537       8.61328       8.72857       8.49799    2680.19043      27.81505       0.10055       0.06276       1.73117       2.55210       0.05933       0.08600       0.09823      63.14179      96.97750       0.28660       1.53587       0.99135       0.98162    1088.53564    -999.25000
    6096.00000       0.20326      19.14160      16.99459      16.27754      15.34826      14.21515      36.12351      17.50000      -8.97684       8.52316       8.58522       8.70039       8.47005    2631.74292      27.34641       0.10023       0.05956       1.74498       2.55113       0.05992       0.08721       0.12050      63.30894      96.92725       0.28524       1.53102       0.99271       0.97843    1089.24805    -999.25000
