~VERSION
 VERS.        2.00                                                                   :CWLS LOG ASCII STANDARD
 WRAP.        NO                                                                     :NO WRAP PERFORMED
 PROD.        Schlumberger                                                           :LAS Producer
 CREA.        11/7/2012                                     :LAS Creation Date and time
~Well
#MNEM.UNIT    VALUE                                                                   :DESCRIPTION
#----.----    ---------------                                                        :-------------------
 STRT.F       5061.000                                                               :START DEPTH
 STOP.F       7239.000                                                               :STOP  DEPTH
 STEP.F       0.500                                                                  :DEPTH STEP
 NULL.        -999.250                                                               :NULL VALUE
 COMP.        ADM COMPANY                                   :COMPANY NAME
 WELL.        Verification Well #2                          :WELL NAME
 FLD.         Wildcat                                       :FIELD NAME
 API.         121152355200                                                           :API NUMBER
 CNTY.        Macon                                                                  :COUNTY
 STAT.        Illinois                                                               :STATE
 CTRY.        US                                                                     :COUNTRY
 LOC.         Lat: 39.8922313 Long: -88.8924449                                      :WELL SURFACE LOCATION LINE 1
 LOC2.        248' South and 233' East From NW corner of the                         :WELL SURFACE LOCATION LINE 2
 LOC3.        NW/4, of the NE/4, of the NW/4, of Section 32                          :WELL SURFACE LOCATION LINE 3
 SECT.        32                                                                     :SECTION
 TOWN.        17 North                                                               :TOWNSHIP
 RANG.        3 East                                                                 :RANGE
 LATI.        39.892231 degrees                                                      :Latitude
 LONG.        -88.892444 degrees                                                     :Longitude
 DATE.        2012/10/31                                                             :LOGGING DATE
 SRVC.        Schlumberger                                                           :SERVICE COMPANY
~Parameter
#MNEM.UNIT    VALUE                                                                  :DESCRIPTION
#----.----    ---------------                                                        :-------------------
 APD.F        17.000                                                                 :Elevation of depth reference above permanent datum
 EDF.F        -999.250                                                               :Elevation of Derrick Floor
 EGL.F        686.500                                                                :Elevation of Ground Level
 EKB.F        703.500                                                                :Elevation of Kelly Bushing
 EPD.F        686.500                                                                :Elevation of Permnaent Datum
 LMF.         Kelly Bushing                                                          :Logging Measured From
 PDAT.        Ground Level                                                           :Permanent Datum
 TDD.F        7225.000                                                               :Total Depth Driller
 TDL.F        7223.000                                                               :Total Depth Logger
 BS.IN        8.500                                                                  :Bit Size
 R1.          TOOLSTRING RAN AS PER TOOL SKETCH                                      :REMARK 1
 R2.          PRESENTATIONS AS PER CLIENT REQUEST                                    :REMARK 2
 R3.          WELL LOCATION UPDATED FROM SURFACE LOGS                                :REMARK 3
 R4.          THANK YOU FOR CHOOSING SCHLUMBERGER!                                   :REMARK 4
 R5.          CREW: B. DOUGLAS & R. VAUGHAN                                          :REMARK 5
 R6.                                                                                 :REMARK 6
 R7.                                                                                 :REMARK 7
 R8.                                                                                 :REMARK 8
 R9.                                                                                 :REMARK 9
 R10.                                                                                :REMARK 10
 DCS_CENTER.  Denver                                                                 :Schlumberger DCS Center
 LOG_ANALYST. Schroer                                                                :Log Analyst Name
 ENG.         Beth DiBella                                                           :Field Engineer Name
 GF_BASELINE. 45                                                                     :GeoFrame Baseline
~Curve
#MNEM.UNIT                                                                           :DESCRIPTION
#----.----                                                                           :--------------------------------
 DEPT.F                                                                              :Depth Index
 RLA0.OHMM                                                                           : 1 Apparent Resistivity from Computed Focusing Mode 0                                        
 RLA1.OHMM                                                                           : 2 Apparent Resistivity from Computed Focusing Mode 1                                        
 RLA2.OHMM                                                                           : 3 Apparent Resistivity from Computed Focusing Mode 2                                        
 RLA3.OHMM                                                                           : 4 Apparent Resistivity from Computed Focusing Mode 3                                        
 RLA4.OHMM                                                                           : 5 Apparent Resistivity from Computed Focusing Mode 4                                        
 RLA5.OHMM                                                                           : 6 Apparent Resistivity from Computed Focusing Mode 5                                        
 RXOZ.OHMM                                                                           : 7 Invaded Formation Resistivity filtered at 18 inches                                       
 BS.IN                                                                               : 8 Bit Size                                                                                  
 DCAL.IN                                                                             : 9 Differential Caliper                                                                      
 HCAL.IN                                                                             :10 HRCC Caliper Calibrated                                                                   
 HDAR.IN                                                                             :11 Hole Diameter from Area                                                                   
 HD1_PPC1.IN                                                                         :12 PPC1 Hole Diameter 1                                                                      
 HD2_PPC1.IN                                                                         :13 PPC1 Hole Diameter 2                                                                      
 TENS.LBS                                                                            :14 Cable Tension                                                                             
 GR_EDTC.GAPI                                                                        :15 Gamma Ray                                                                                 
 NPHI.CFCF                                                                           :16 Thermal Neutron Porosity (original Ratio Method) in Selected Lithology                    
 NPOR.CFCF                                                                           :17 Enhanced Thermal Neutron Porosity in Selected Lithology                                   
 PEFZ.                                                                               :18 HRDD Standard Resolution Formation Photoelectric Factor                                   
 RHOZ.G/C3                                                                           :19 HRDD Standard Resolution Formation Density                                                
 DPHZ.CFCF                                                                           :20 Standard Resolution Density Porosity                                                      
 SPHI.CFCF                                                                           :21 Sonic Porosity                                                                            
 VCL_HILT.CFCF                                                                       :22 Volume of Clay type Material relative to Total Volume                                     
 DTCO.US/FT                                                                          :23 Delta-T Compressional                                                                     
 DTSM.US/FT                                                                          :24 Delta-T Shear                                                                             
 PR.                                                                                 :25 Poisson Ratio                                                                             
 VPVS.                                                                               :26 Compressional to Shear Velocity Ratio                                                     
 CHR_FAST.                                                                           :27 Peak Coherence, Receiver Array - FAST                                                     
 CHRP.                                                                               :28 Label Peak Coherence, Receiver Array, Compressional - Monopole P&S                        
 TICO.US                                                                             :29 Compressional Integrated Transit Time Channel                                             
 FLAG.                                                                               :30 General Indicator Flag                                                                    
~Ascii   DEPT          RLA0          RLA1          RLA2          RLA3          RLA4          RLA5          RXOZ            BS          DCAL          HCAL          HDAR      HD1_PPC1      HD2_PPC1          TENS       GR_EDTC          NPHI          NPOR          PEFZ          RHOZ          DPHZ          SPHI      VCL_HILT          DTCO          DTSM            PR          VPVS      CHR_FAST          CHRP          TICO          FLAG
# ...
    6799.50000       0.19185       4.89314       4.34249       4.12056       3.93834       3.53181       9.03250      17.50000      -8.95463       8.54537       8.58651       8.59768       8.57535    2716.42236      82.84940       0.17820       0.13703       2.06822       2.45695       0.11700       0.15320       0.52216      72.39532     125.82008       0.33370       1.73796       0.94110       0.97826    1237.76672    -999.25000
    6800.00000       0.18548       3.77799       3.36087       3.18000       3.02471       2.70635       9.09955      17.50000      -8.91020       8.58980       8.61650       8.64089       8.59210    2865.01660      90.62876       0.20985       0.15592       2.11884       2.45471       0.11836       0.16365       0.58555      73.83522     128.24377       0.33351       1.73689       0.94207       0.97867    1238.00464    -999.25000
    6800.50000       0.18389       3.73158       3.32889       3.15883       2.99362       2.67867       7.72287      17.50000      -8.92131       8.57869       8.62407       8.65549       8.59265    2792.00000      94.24300       0.20856       0.17462       2.14596       2.44810       0.12236       0.17175       0.65008      74.95047     130.13701       0.33341       1.73631       0.94111       0.98868    1237.30542    -999.25000
    6801.00000       0.18188       3.55503       3.17919       3.00696       2.83750       2.53488       6.70820      17.50000      -8.86578       8.63422       8.65396       8.68982       8.61809    2821.00000      94.66322       0.20651       0.15261       2.18619       2.44059       0.12692       0.17367       0.66263      75.21429     131.58110       0.33591       1.74942       0.94856       0.99124    1236.18921    -999.25000
    6801.50000       0.17911       3.06562       2.74066       2.57824       2.41952       2.16797       6.58268      17.50000      -8.82135       8.67865       8.68904       8.73456       8.64352    2746.00000      90.21590       0.19878       0.14270       2.21846       2.43932       0.12769       0.17319       0.68756      75.14798     132.88554       0.33942       1.76832       0.96786       0.98784    1235.39307    -999.25000
    6802.00000       0.18002       3.11069       2.79201       2.60584       2.44343       2.19127       6.51141      17.50000      -8.79914       8.70086       8.66624       8.68897       8.64352    2785.66675      88.31362       0.19923       0.15908       2.20171       2.43667       0.12929       0.17519       0.65599      75.42329     134.13799       0.34125       1.77847       0.96316       0.98686    1234.86816    -999.25000
    6802.50000       0.17417       2.46250       2.19594       2.04292       1.91070       1.71529       4.95099      17.50000      -8.95463       8.54537       8.55731       8.59837       8.51626    2717.00000      80.75520       0.20812       0.15670       2.16127       2.42019       0.13928       0.18237       0.58340      76.41287     135.11108       0.33940       1.76817       0.96879       0.98380    1234.98193    -999.25000
    6803.00000       0.17084       2.27661       2.02241       1.87903       1.75683       1.58527       4.34433      17.50000      -8.95463       8.54537       8.59344       8.63231       8.55458    2761.00000      81.45871       0.22564       0.15402       2.13299       2.39282       0.15587       0.19227       0.52646      77.77606     135.58896       0.33478       1.74333       0.97578       0.98674    1235.82605    -999.25000
    6803.50000       0.17144       2.36451       2.09183       1.94468       1.81700       1.63836       3.80888      17.50000      -8.91020       8.58980       8.60318       8.64306       8.56331    2898.25000      78.35002       0.23821       0.18398       2.15464       2.36595       0.17215       0.19834       0.52773      78.61118     135.76053       0.33164       1.72699       0.97684       0.99168    1237.45605    -999.25000
    6804.00000       0.17722       2.87147       2.55399       2.37401       2.22714       2.01466       4.24422      17.50000      -8.91020       8.58980       8.61755       8.65507       8.58004    2783.50000      77.02664       0.23820       0.20350       2.18455       2.35732       0.17738       0.19463       0.52773      78.10011     135.94943       0.33429       1.74071       0.97836       0.99103    1238.70276    -999.25000
    6804.50000       0.18139       3.28956       2.93072       2.73949       2.58024       2.33473       4.40931      17.50000      -8.91020       8.58980       8.49266       8.50719       8.47813    2822.00000      75.63677       0.20177       0.17223       2.19481       2.36033       0.17556       0.18156       0.49223      76.30108     135.85326       0.34162       1.78049       0.97733       0.98468    1239.37378    -999.25000
    6805.00000       0.18681       4.08299       3.65615       3.42154       3.23139       2.92891       5.51425      17.50000      -9.04348       8.45652       8.50280       8.52746       8.47813    2761.11108      74.97219       0.18317       0.12511       2.18146       2.37921       0.16411       0.16631       0.46819      74.20035     134.98764       0.34831       1.81923       0.97762       0.98075    1239.37231    -999.25000
    6805.50000       0.19431       6.22904       5.59094       5.28175       4.99715       4.54221       7.17753      17.50000      -9.04348       8.45652       8.49714       8.52926       8.46502    2770.08350      80.68408       0.16200       0.10940       2.15708       2.40979       0.14558       0.15097       0.46113      72.08867     132.99910       0.35250       1.84494       0.96823       0.98160    1238.53064    -999.25000
    6806.00000       0.19598       6.56219       5.81104       5.51418       5.22082       4.75894       9.83094      17.50000      -9.02126       8.47874       8.49328       8.51419       8.47236    2733.33350      94.70566       0.15296       0.10201       2.15358       2.45701       0.11696       0.13721       0.51142      70.19384     130.01636       0.35365       1.85225       0.95814       0.97955    1237.47778    -999.25000
    6806.50000       0.19699       8.06758       7.17956       6.84286       6.51822       5.99004      12.52019      17.50000      -9.02126       8.47874       8.50547       8.52588       8.48506    2763.33325     109.25108       0.14406       0.09363       2.18958       2.49812       0.09205       0.12755       0.60253      68.86371     126.58982       0.35140       1.83827       0.95318       0.98324    1236.93848    -999.25000
    6807.00000       0.19448       7.37010       6.51288       6.15394       5.83004       5.42712      12.98031      17.50000      -8.97684       8.52316       8.53743       8.56144       8.51342    2773.88892     120.86218       0.15018       0.09249       2.23340       2.51867       0.07959       0.12368       0.71723      68.33077     123.70317       0.34676       1.81036       0.96040       0.98826    1237.61792    -999.25000
    6807.50000       0.19461       7.75400       6.82787       6.35685       6.03509       5.62145      14.68364      17.50000      -8.95463       8.54537       8.56373       8.58273       8.54472    2696.33350     123.10228       0.15647       0.13336       2.24787       2.51493       0.08186       0.12593       0.76259      68.64008     121.92964       0.34081       1.77636       0.95670       0.98551    1239.89526    -999.25000
    6808.00000       0.19401       6.83668       6.00193       5.53731       5.26478       4.90745      13.62717      17.50000      -8.95463       8.54537       8.56127       8.57468       8.54787    2815.44458     113.59504       0.16717       0.12488       2.22893       2.49953       0.09120       0.13369       0.72539      69.70852     120.97048       0.33318       1.73538       0.96043       0.97629    1243.31079    -999.25000
    6808.50000       0.19041       5.12797       4.45931       4.11353       3.91516       3.64565      11.92547      17.50000      -8.95463       8.54537       8.55169       8.56961       8.53377    2881.63916     106.42685       0.17432       0.11009       2.19431       2.47898       0.10365       0.14553       0.70818      71.33912     120.45493       0.32375       1.68848       0.95577       0.97334    1246.67969    -999.25000
