~VERSION
 VERS.        2.00                                                                   :CWLS LOG ASCII STANDARD
 WRAP.        NO                                                                     :NO WRAP PERFORMED
 PROD.        Schlumberger                                                           :LAS Producer
 CREA.        11/7/2012                                     :LAS Creation Date and time
~Well
#MNEM.UNIT    VALUE                                                                   :DESCRIPTION
#----.----    ---------------                                                        :-------------------
 STRT.F       5061.000                                                               :START DEPTH
 STOP.F       7239.000                                                               :STOP  DEPTH
 STEP.F       0.500                                                                  :DEPTH STEP
 NULL.        -999.250                                                               :NULL VALUE
 COMP.        ADM COMPANY                                   :COMPANY NAME
 WELL.        Verification Well #2                          :WELL NAME
 FLD.         Wildcat                                       :FIELD NAME
 API.         121152355200                                                           :API NUMBER
 CNTY.        Macon                                                                  :COUNTY
 STAT.        Illinois                                                               :STATE
 CTRY.        US                                                                     :COUNTRY
 LOC.         Lat: 39.8922313 Long: -88.8924449                                      :WELL SURFACE LOCATION LINE 1
 LOC2.        248' South and 233' East From NW corner of the                         :WELL SURFACE LOCATION LINE 2
 LOC3.        NW/4, of the NE/4, of the NW/4, of Section 32                          :WELL SURFACE LOCATION LINE 3
 SECT.        32                                                                     :SECTION
 TOWN.        17 North                                                               :TOWNSHIP
 RANG.        3 East                                                                 :RANGE
 LATI.        39.892231 degrees                                                      :Latitude
 LONG.        -88.892444 degrees                                                     :Longitude
 DATE.        2012/10/31                                                             :LOGGING DATE
 SRVC.        Schlumberger                                                           :SERVICE COMPANY
~Parameter
#MNEM.UNIT    VALUE                                                                  :DESCRIPTION
#----.----    ---------------                                                        :-------------------
 APD.F        17.000                                                                 :Elevation of depth reference above permanent datum
 EDF.F        -999.250                                                               :Elevation of Derrick Floor
 EGL.F        686.500                                                                :Elevation of Ground Level
 EKB.F        703.500                                                                :Elevation of Kelly Bushing
 EPD.F        686.500                                                                :Elevation of Permnaent Datum
 LMF.         Kelly Bushing                                                          :Logging Measured From
 PDAT.        Ground Level                                                           :Permanent Datum
 TDD.F        7225.000                                                               :Total Depth Driller
 TDL.F        7223.000                                                               :Total Depth Logger
 BS.IN        8.500                                                                  :Bit Size
 R1.          TOOLSTRING RAN AS PER TOOL SKETCH                                      :REMARK 1
 R2.          PRESENTATIONS AS PER CLIENT REQUEST                                    :REMARK 2
 R3.          WELL LOCATION UPDATED FROM SURFACE LOGS                                :REMARK 3
 R4.          THANK YOU FOR CHOOSING SCHLUMBERGER!                                   :REMARK 4
 R5.          CREW: B. DOUGLAS & R. VAUGHAN                                          :REMARK 5
 R6.                                                                                 :REMARK 6
 R7.                                                                                 :REMARK 7
 R8.                                                                                 :REMARK 8
 R9.                                                                                 :REMARK 9
 R10.                                                                                :REMARK 10
 DCS_CENTER.  Denver                                                                 :Schlumberger DCS Center
 LOG_ANALYST. Schroer                                                                :Log Analyst Name
 ENG.         Beth DiBella                                                           :Field Engineer Name
 GF_BASELINE. 45                                                                     :GeoFrame Baseline
~Curve
#MNEM.UNIT                                                                           :DESCRIPTION
#----.----                                                                           :--------------------------------
 DEPT.F                                                                              :Depth Index
 RLA0.OHMM                                                                           : 1 Apparent Resistivity from Computed Focusing Mode 0                                        
 RLA1.OHMM                                                                           : 2 Apparent Resistivity from Computed Focusing Mode 1                                        
 RLA2.OHMM                                                                           : 3 Apparent Resistivity from Computed Focusing Mode 2                                        
 RLA3.OHMM                                                                           : 4 Apparent Resistivity from Computed Focusing Mode 3                                        
 RLA4.OHMM                                                                           : 5 Apparent Resistivity from Computed Focusing Mode 4                                        
 RLA5.OHMM                                                                           : 6 Apparent Resistivity from Computed Focusing Mode 5                                        
 RXOZ.OHMM                                                                           : 7 Invaded Formation Resistivity filtered at 18 inches                                       
 BS.IN                                                                               : 8 Bit Size                                                                                  
 DCAL.IN                                                                             : 9 Differential Caliper                                                                      
 HCAL.IN                                                                             :10 HRCC Caliper Calibrated                                                                   
 HDAR.IN                                                                             :11 Hole Diameter from Area                                                                   
 HD1_PPC1.IN                                                                         :12 PPC1 Hole Diameter 1                                                                      
 HD2_PPC1.IN                                                                         :13 PPC1 Hole Diameter 2                                                                      
 TENS.LBS                                                                            :14 Cable Tension                                                                             
 GR_EDTC.GAPI                                                                        :15 Gamma Ray                                                                                 
 NPHI.CFCF                                                                           :16 Thermal Neutron Porosity (original Ratio Method) in Selected Lithology                    
 NPOR.CFCF                                                                           :17 Enhanced Thermal Neutron Porosity in Selected Lithology                                   
 PEFZ.                                                                               :18 HRDD Standard Resolution Formation Photoelectric Factor                                   
 RHOZ.G/C3                                                                           :19 HRDD Standard Resolution Formation Density                                                
 DPHZ.CFCF                                                                           :20 Standard Resolution Density Porosity                                                      
 SPHI.CFCF                                                                           :21 Sonic Porosity                                                                            
 VCL_HILT.CFCF                                                                       :22 Volume of Clay type Material relative to Total Volume                                     
 DTCO.US/FT                                                                          :23 Delta-T Compressional                                                                     
 DTSM.US/FT                                                                          :24 Delta-T Shear                                                                             
 PR.                                                                                 :25 Poisson Ratio                                                                             
 VPVS.                                                                               :26 Compressional to Shear Velocity Ratio                                                     
 CHR_FAST.                                                                           :27 Peak Coherence, Receiver Array - FAST                                                     
 CHRP.                                                                               :28 Label Peak Coherence, Receiver Array, Compressional - Monopole P&S                        
 TICO.US                                                                             :29 Compressional Integrated Transit Time Channel                                             
 FLAG.                                                                               :30 General Indicator Flag                                                                    
~Ascii   DEPT          RLA0          RLA1          RLA2          RLA3          RLA4          RLA5          RXOZ            BS          DCAL          HCAL          HDAR      HD1_PPC1      HD2_PPC1          TENS       GR_EDTC          NPHI          NPOR          PEFZ          RHOZ          DPHZ          SPHI      VCL_HILT          DTCO          DTSM            PR          VPVS      CHR_FAST          CHRP          TICO          FLAG
# ...
    6372.00000       0.19413       9.22836       8.05471       7.63949       7.28567       6.66784      15.60861      17.50000      -8.98794       8.51206       8.51632       8.56354       8.46910    2802.67236      54.44041       0.12619       0.09060       1.97400       2.52616       0.07506       0.10477       0.32585      65.72724     109.34707       0.31835       1.66365       0.98751       0.98512    1134.72852    -999.25000
    6372.50000       0.19439       8.84343       7.80391       7.42479       7.08936       6.49878      16.75805      17.50000      -8.99905       8.50095       8.52500       8.57349       8.47650    2792.93237      55.72587       0.13127       0.07771       1.95853       2.53499       0.06970       0.10411       0.33774      65.63584     109.40128       0.31903       1.66679       0.98064       0.97756    1134.81177    -999.25000
    6373.00000       0.19462       7.96386       7.07921       6.69581       6.40247       5.86665      13.44570      17.50000      -8.97684       8.52316       8.53307       8.57515       8.49099    2860.50000      56.56770       0.13088       0.09255       1.92107       2.54474       0.06380       0.10474       0.35060      65.72211     109.29934       0.31822       1.66305       0.98446       0.96764    1135.51440    -999.25000
    6373.50000       0.19599       9.49357       8.41245       7.97247       7.59919       6.96369      14.74614      17.50000      -8.97684       8.52316       8.53866       8.58633       8.49099    2792.00000      56.69757       0.13024       0.08709       1.89292       2.53909       0.06722       0.10465       0.33694      65.70983     109.18803       0.31791       1.66167       0.98184       0.96439    1135.62817    -999.25000
    6374.00000       0.20259      19.48974      17.55445      16.82046      16.05697      14.67001      17.89395      17.50000      -8.99905       8.50095       8.52145       8.55192       8.49099    2866.25024      60.95165       0.12621       0.07646       1.90371       2.53862       0.06750       0.10370       0.35240      65.57882     108.66126       0.31687       1.65696       0.97966       0.94954    1134.76099    -999.25000
    6374.50000       0.19763       9.59632       8.52999       8.08152       7.66781       6.98325      26.67800      17.50000      -9.01016       8.48984       8.53369       8.56354       8.50384    2853.00000      66.09386       0.13028       0.09243       1.89813       2.53435       0.07009       0.10849       0.36706      66.23962     108.84843       0.31379       1.64325       0.97552       0.92188    1133.96887    -999.25000
    6375.00000       0.19667       7.64727       6.80453       6.41081       6.09400       5.55924      20.67381      17.50000      -8.97684       8.52316       8.51984       8.53980       8.49988    2763.00000      73.63607       0.14475       0.09696       1.90322       2.51202       0.08363       0.11804       0.38321      67.55453     109.40857       0.30829       1.61956       0.97871       0.93547    1133.78906    -999.25000
    6375.50000       0.19694       7.51202       6.70547       6.30256       5.99387       5.47293      14.06498      17.50000      -8.97684       8.52316       8.51424       8.52861       8.49988    2822.75000      69.85822       0.15392       0.11305       1.87707       2.50704       0.08664       0.12705       0.37335      68.79536     109.34402       0.30093       1.58941       0.97492       0.94582    1133.92163    -999.25000
    6376.00000       0.19792       7.62036       6.76745       6.32757       6.00935       5.48561      13.59367      17.50000      -9.02126       8.47874       8.51854       8.54212       8.49495    2795.33325      64.44913       0.15118       0.11700       1.87960       2.50118       0.09019       0.12775       0.33804      68.89148     109.16265       0.29970       1.58456       0.98425       0.96054    1133.89807    -999.25000
    6376.50000       0.20102      10.49553       9.22642       8.69442       8.20712       7.53296      15.06960      17.50000      -9.04348       8.45652       8.49804       8.51794       8.47813    2773.50000      55.11533       0.13329       0.09481       1.89163       2.50686       0.08675       0.11478       0.29396      67.10492     108.90414       0.30908       1.62289       0.98517       0.97450    1133.62646    -999.25000
    6377.00000       0.19983      11.26505      10.11752       9.47208       8.95845       8.24018      19.84804      17.50000      -8.99905       8.50095       8.49804       8.51794       8.47813    2836.66675      52.98217       0.12188       0.06796       1.92131       2.51485       0.08191       0.10310       0.29758      65.49651     108.54507       0.31693       1.65726       0.98697       0.98892    1132.58728    -999.25000
    6377.50000       0.19908       9.95640       8.98644       8.43485       7.98343       7.36420      19.21201      17.50000      -8.99905       8.50095       8.51659       8.52956       8.50362    2815.25000      57.60923       0.12372       0.07790       1.92585       2.52820       0.07382       0.10307       0.32789      65.49213     107.99316       0.31507       1.64895       0.98834       0.98398    1130.90063    -999.25000
    6378.00000       0.20033      12.08741      10.82192      10.30870       9.71843       8.98781      23.94440      17.50000      -9.02126       8.47874       8.52219       8.54075       8.50362    2820.00000      58.64811       0.13302       0.08996       1.90895       2.54074       0.06622       0.10388       0.35167      65.60366     107.15839       0.31152       1.63342       0.99077       0.98158    1129.03052    -999.25000
    6378.50000       0.20389      19.40190      17.26952      16.58619      15.65482      14.46231      32.10297      17.50000      -9.02126       8.47874       8.50385       8.52956       8.47813    2723.50000      59.71578       0.12529       0.09263       1.89806       2.54464       0.06386       0.09671       0.32870      64.61726     106.06561       0.31335       1.64144       0.99171       0.96528    1127.28711    -999.25000
    6379.00000       0.20470      19.39208      17.15677      16.31212      15.37491      14.22645      39.71258      17.50000      -9.02126       8.47874       8.52960       8.56446       8.49473    2763.25000      55.97382       0.11257       0.07561       1.90303       2.54691       0.06248       0.08827       0.32063      63.45467     104.91531       0.31604       1.65339       0.98456       0.95653    1125.61816    -999.25000
    6379.50000       0.20141      12.53535      10.99250      10.34248       9.78931       9.10380      25.84110      17.50000      -8.99905       8.50095       8.51821       8.54169       8.49473    2716.00000      58.54913       0.11175       0.04842       1.90627       2.54863       0.06144       0.08764       0.34760      63.36801     103.94138       0.31307       1.64028       0.97962       0.95087    1123.14722    -999.25000
    6380.00000       0.20200      13.02982      11.30616      10.65892      10.08747       9.39420      23.62605      17.50000      -9.02126       8.47874       8.51503       8.55192       8.47813    2773.25024      57.45125       0.11368       0.07808       1.88822       2.55212       0.05932       0.09196       0.35520      63.96223     103.28178       0.30708       1.61473       0.98064       0.95913    1120.41895    -999.25000
    6380.50000       0.20631      20.80193      18.12831      17.00919      16.19012      15.03684      25.47940      17.50000      -8.99905       8.50095       8.50944       8.54075       8.47813    2759.00000      56.82227       0.10998       0.09537       1.87951       2.54830       0.06163       0.09315       0.31577      64.12617     102.89125       0.30460       1.60451       0.97939       0.97194    1117.40186    -999.25000
    6381.00000       0.20595      18.68368      16.36859      15.27948      14.47675      13.45439      28.74055      17.50000      -9.02126       8.47874       8.49742       8.52956       8.46527    2913.75000      50.96682       0.09243       0.05066       1.88524       2.53946       0.06699       0.08953       0.23633      63.62852     102.65272       0.30673       1.61331       0.98188       0.97529    1114.44153    -999.25000
