~VERSION
 VERS.        2.00                                                                   :CWLS LOG ASCII STANDARD
 WRAP.        NO                                                                     :NO WRAP PERFORMED
 PROD.        Schlumberger                                                           :LAS Producer
 CREA.        11/7/2012                                     :LAS Creation Date and time
~Well
#MNEM.UNIT    VALUE                                                                   :DESCRIPTION
#----.----    ---------------                                                        :-------------------
 STRT.F       5061.000                                                               :START DEPTH
 STOP.F       7239.000                                                               :STOP  DEPTH
 STEP.F       0.500                                                                  :DEPTH STEP
 NULL.        -999.250                                                               :NULL VALUE
 COMP.        ADM COMPANY                                   :COMPANY NAME
 WELL.        Verification Well #2                          :WELL NAME
 FLD.         Wildcat                                       :FIELD NAME
 API.         121152355200                                                           :API NUMBER
 CNTY.        Macon                                                                  :COUNTY
 STAT.        Illinois                                                               :STATE
 CTRY.        US                                                                     :COUNTRY
 LOC.         Lat: 39.8922313 Long: -88.8924449                                      :WELL SURFACE LOCATION LINE 1
 LOC2.        248' South and 233' East From NW corner of the                         :WELL SURFACE LOCATION LINE 2
 LOC3.        NW/4, of the NE/4, of the NW/4, of Section 32                          :WELL SURFACE LOCATION LINE 3
 SECT.        32                                                                     :SECTION
 TOWN.        17 North                                                               :TOWNSHIP
 RANG.        3 East                                                                 :RANGE
 LATI.        39.892231 degrees                                                      :Latitude
 LONG.        -88.892444 degrees                                                     :Longitude
 DATE.        2012/10/31                                                             :LOGGING DATE
 SRVC.        Schlumberger                                                           :SERVICE COMPANY
~Parameter
#MNEM.UNIT    VALUE                                                                  :DESCRIPTION
#----.----    ---------------                                                        :-------------------
 APD.F        17.000                                                                 :Elevation of depth reference above permanent datum
 EDF.F        -999.250                                                               :Elevation of Derrick Floor
 EGL.F        686.500                                                                :Elevation of Ground Level
 EKB.F        703.500                                                                :Elevation of Kelly Bushing
 EPD.F        686.500                                                                :Elevation of Permnaent Datum
 LMF.         Kelly Bushing                                                          :Logging Measured From
 PDAT.        Ground Level                                                           :Permanent Datum
 TDD.F        7225.000                                                               :Total Depth Driller
 TDL.F        7223.000                                                               :Total Depth Logger
 BS.IN        8.500                                                                  :Bit Size
 R1.          TOOLSTRING RAN AS PER TOOL SKETCH                                      :REMARK 1
 R2.          PRESENTATIONS AS PER CLIENT REQUEST                                    :REMARK 2
 R3.          WELL LOCATION UPDATED FROM SURFACE LOGS                                :REMARK 3
 R4.          THANK YOU FOR CHOOSING SCHLUMBERGER!                                   :REMARK 4
 R5.          CREW: B. DOUGLAS & R. VAUGHAN                                          :REMARK 5
 R6.                                                                                 :REMARK 6
 R7.                                                                                 :REMARK 7
 R8.                                                                                 :REMARK 8
 R9.                                                                                 :REMARK 9
 R10.                                                                                :REMARK 10
 DCS_CENTER.  Denver                                                                 :Schlumberger DCS Center
 LOG_ANALYST. Schroer                                                                :Log Analyst Name
 ENG.         Beth DiBella                                                           :Field Engineer Name
 GF_BASELINE. 45                                                                     :GeoFrame Baseline
~Curve
#MNEM.UNIT                                                                           :DESCRIPTION
#----.----                                                                           :--------------------------------
 DEPT.F                                                                              :Depth Index
 RLA0.OHMM                                                                           : 1 Apparent Resistivity from Computed Focusing Mode 0                                        
 RLA1.OHMM                                                                           : 2 Apparent Resistivity from Computed Focusing Mode 1                                        
 RLA2.OHMM                                                                           : 3 Apparent Resistivity from Computed Focusing Mode 2                                        
 RLA3.OHMM                                                                           : 4 Apparent Resistivity from Computed Focusing Mode 3                                        
 RLA4.OHMM                                                                           : 5 Apparent Resistivity from Computed Focusing Mode 4                                        
 RLA5.OHMM                                                                           : 6 Apparent Resistivity from Computed Focusing Mode 5                                        
 RXOZ.OHMM                                                                           : 7 Invaded Formation Resistivity filtered at 18 inches                                       
 BS.IN                                                                               : 8 Bit Size                                                                                  
 DCAL.IN                                                                             : 9 Differential Caliper                                                                      
 HCAL.IN                                                                             :10 HRCC Caliper Calibrated                                                                   
 HDAR.IN                                                                             :11 Hole Diameter from Area                                                                   
 HD1_PPC1.IN                                                                         :12 PPC1 Hole Diameter 1                                                                      
 HD2_PPC1.IN                                                                         :13 PPC1 Hole Diameter 2                                                                      
 TENS.LBS                                                                            :14 Cable Tension                                                                             
 GR_EDTC.GAPI                                                                        :15 Gamma Ray                                                                                 
 NPHI.CFCF                                                                           :16 Thermal Neutron Porosity (original Ratio Method) in Selected Lithology                    
 NPOR.CFCF                                                                           :17 Enhanced Thermal Neutron Porosity in Selected Lithology                                   
 PEFZ.                                                                               :18 HRDD Standard Resolution Formation Photoelectric Factor                                   
 RHOZ.G/C3                                                                           :19 HRDD Standard Resolution Formation Density                                                
 DPHZ.CFCF                                                                           :20 Standard Resolution Density Porosity                                                      
 SPHI.CFCF                                                                           :21 Sonic Porosity                                                                            
 VCL_HILT.CFCF                                                                       :22 Volume of Clay type Material relative to Total Volume                                     
 DTCO.US/FT                                                                          :23 Delta-T Compressional                                                                     
 DTSM.US/FT                                                                          :24 Delta-T Shear                                                                             
 PR.                                                                                 :25 Poisson Ratio                                                                             
 VPVS.                                                                               :26 Compressional to Shear Velocity Ratio                                                     
 CHR_FAST.                                                                           :27 Peak Coherence, Receiver Array - FAST                                                     
 CHRP.                                                                               :28 Label Peak Coherence, Receiver Array, Compressional - Monopole P&S                        
 TICO.US                                                                             :29 Compressional Integrated Transit Time Channel                                             
 FLAG.                                                                               :30 General Indicator Flag                                                                    
~Ascii   DEPT          RLA0          RLA1          RLA2          RLA3          RLA4          RLA5          RXOZ            BS          DCAL          HCAL          HDAR      HD1_PPC1      HD2_PPC1          TENS       GR_EDTC          NPHI          NPOR          PEFZ          RHOZ          DPHZ          SPHI      VCL_HILT          DTCO          DTSM            PR          VPVS      CHR_FAST          CHRP          TICO          FLAG
# ...
    5517.00000       0.18342      39.47045      29.56654      28.11299      27.21096      26.54556      35.65939      17.50000      -7.64409       9.85591       9.35153       9.97054       8.73253    2792.00024     177.12280       0.15930       0.10939       3.60899       2.74832      -0.05959       0.11898       1.00000      67.68321     125.98562       0.35507       1.86140       0.93103       0.94940    1187.16858    -999.25000
    5517.50000       0.18389      41.41204      31.40868      29.82575      28.75600      28.07280      35.56919      17.50000      -7.68851       9.81149       9.34717       9.96182       8.73253    2732.62500     176.05664       0.16373       0.12414       3.51212       2.73642      -0.05237       0.11247       1.00000      66.78650     124.30239       0.35503       1.86119       0.94782       0.92460    1184.14990    -999.25000
    5518.00000       0.18516      46.85160      35.65287      33.97774      32.55944      31.78701      36.62591      17.50000      -7.73294       9.76706       9.33035       9.91282       8.74788    2699.96558     177.10806       0.16613       0.13088       3.35012       2.69807      -0.02913       0.10684       1.00000      66.01184     123.30859       0.35608       1.86798       0.95274       0.90415    1180.74451    -999.25000
    5518.50000       0.18808      55.33455      44.43542      42.23269      40.30500      39.31871      41.02996      17.50000      -7.76626       9.73374       9.30613       9.85926       8.75300    2758.90454     175.39081       0.14846       0.12157       3.20301       2.67234      -0.01354       0.10370       1.00000      65.57949     122.10455       0.35514       1.86193       0.94211       0.89833    1177.28845    -999.25000
    5519.00000       0.18953      58.21439      48.13913      46.16373      44.03368      42.83715      39.94023      17.50000      -7.84400       9.65600       9.28361       9.81683       8.75040    2745.29541     172.94942       0.14350       0.10626       3.12507       2.66020      -0.00618       0.10332       1.00000      65.52766     120.49968       0.35147       1.83891       0.96050       0.90631    1173.97339    -999.25000
    5519.50000       0.18897      57.44632      46.77035      45.41295      43.60242      42.27404      44.39614      17.50000      -7.84400       9.65600       9.27594       9.78118       8.77069    2721.00000     178.75922       0.13701       0.10248       3.13926       2.66089      -0.00660       0.10467       1.00000      65.71252     118.36572       0.34517       1.80127       0.95900       0.91621    1170.71875    -999.25000
    5520.00000       0.18979      55.21287      45.41008      44.28654      42.68396      41.26730      41.79180      17.50000      -7.86621       9.63379       9.23521       9.70979       8.76063    2695.10620     189.12724       0.14470       0.12286       3.21042       2.66706      -0.01034       0.10683       1.00000      66.01050     115.98777       0.33725       1.75711       0.96482       0.93404    1167.14111    -999.25000
    5520.50000       0.19012      49.35111      41.31201      40.40644      39.20148      37.56034      37.04628      17.50000      -7.91064       9.58936       9.22159       9.67205       8.77113    2750.78735     203.47104       0.14414       0.11151       3.22270       2.64910       0.00054       0.10612       1.00000      65.91321     113.74953       0.33125       1.72575       0.96424       0.94873    1164.82043    -999.25000
    5521.00000       0.19063      35.11224      28.57100      27.90248      27.07200      25.73125      32.23581      17.50000      -7.95506       9.54494       9.19936       9.63626       8.76247    2619.33887     213.49658       0.13752       0.10521       3.11297       2.63084       0.01161       0.10150       1.00000      65.27705     112.00629       0.32928       1.71586       0.95753       0.94288    1162.34680    -999.25000
    5521.50000       0.19248      37.89090      32.60785      32.03390      31.32428      29.66215      31.68731      17.50000      -7.99949       9.50051       9.16474       9.59125       8.73823    2760.82788     214.76329       0.12401       0.09445       2.93980       2.60737       0.02584       0.09376       1.00000      64.21052     110.62924       0.33067       1.72291       0.96215       0.92338    1157.89868    -999.25000
    5522.00000       0.19319      34.43470      29.68025      28.97107      28.19487      26.58176      35.33524      17.50000      -8.04391       9.45609       9.14586       9.54640       8.74533    2909.75000     206.68408       0.10660       0.06734       2.78811       2.61580       0.02073       0.08551       1.00000      63.07427     109.35603       0.33278       1.73377       0.97081       0.92140    1151.97083    -999.25000
    5522.50000       0.19439      37.40036      33.18423      32.25594      31.41931      29.55789      43.35542      17.50000      -8.04391       9.45609       9.08765       9.48258       8.69273    2825.57666     183.95345       0.10222       0.06201       2.68937       2.63443       0.00944       0.07781       1.00000      62.01430     108.02678       0.33434       1.74197       0.97582       0.92377    1142.97522    -999.25000
    5523.00000       0.19615      48.20738      43.84763      42.47767      41.44275      38.88936      55.16619      17.50000      -8.11055       9.38945       9.06188       9.43476       8.68900    2732.44604     172.78709       0.09639       0.07564       2.59473       2.64971       0.00017       0.07363       0.99938      61.43933     106.70537       0.33334       1.73676       0.97368       0.93603    1138.08691    -999.25000
    5523.50000       0.19938      55.76872      51.62380      50.14199      48.72660      45.69489      66.95602      17.50000      -8.13276       9.36724       9.06585       9.43005       8.70166    2641.09326     161.86026       0.09187       0.06603       2.54797       2.64707       0.00177       0.07115       0.90409      61.09803     105.68853       0.33198       1.72982       0.96927       0.94344    1135.75183    -999.25000
    5524.00000       0.19646      47.97752      44.45419      43.61917      42.41038      39.74289      49.02050      17.50000      -8.17719       9.32281       9.03659       9.37873       8.69446    2708.52661     142.17844       0.08517       0.04737       2.57352       2.62776       0.01348       0.07127       0.96256      61.11413     105.40790       0.33099       1.72477       0.96727       0.93874    1133.22998    -999.25000
    5524.50000       0.19427      34.56235      30.63732      30.17157      29.31725      27.57853      47.36129      17.50000      -8.19940       9.30060       9.02973       9.35324       8.70622    2730.23657     128.93887       0.09663       0.05830       2.70544       2.61719       0.01988       0.07609       1.00000      61.77747     106.08101       0.32949       1.71715       0.96268       0.94124    1135.66260    -999.25000
    5525.00000       0.19375      37.20316      32.59346      32.20699      31.49975      29.66645      43.29513      17.50000      -8.19940       9.30060       9.02897       9.31753       8.74041    2742.99658     145.29552       0.10344       0.08081       2.87344       2.62926       0.01257       0.08319       1.00000      62.75565     107.43507       0.32847       1.71196       0.96958       0.95269    1138.73340    -999.25000
    5525.50000       0.19348      40.63694      35.48946      35.32340      34.69353      32.79572      34.39784      17.50000      -8.22161       9.27839       9.06610       9.31102       8.82118    2708.25000     171.10609       0.11809       0.09297       2.99738       2.65968      -0.00587       0.08890       1.00000      63.54152     108.51111       0.32762       1.70772       0.97682       0.96194    1136.25415    -999.25000
    5526.00000       0.19371      44.69780      39.16555      38.50031      37.80156      35.77781      38.09289      17.50000      -8.26604       9.23396       9.06736       9.29103       8.84370    2781.08887     186.68224       0.13728       0.09883       3.03486       2.71207      -0.03762       0.08700       1.00000      63.28017     109.04234       0.33071       1.72317       0.97377       0.95761    1121.71436    -999.25000
