~VERSION
 VERS.        2.00                                                                   :CWLS LOG ASCII STANDARD
 WRAP.        NO                                                                     :NO WRAP PERFORMED
 PROD.        Schlumberger                                                           :LAS Producer
 CREA.        11/7/2012                                     :LAS Creation Date and time
~Well
#MNEM.UNIT    VALUE                                                                   :DESCRIPTION
#----.----    ---------------                                                        :-------------------
 STRT.F       5061.000                                                               :START DEPTH
 STOP.F       7239.000                                                               :STOP  DEPTH
 STEP.F       0.500                                                                  :DEPTH STEP
 NULL.        -999.250                                                               :NULL VALUE
 COMP.        ADM COMPANY                                   :COMPANY NAME
 WELL.        Verification Well #2                          :WELL NAME
 FLD.         Wildcat                                       :FIELD NAME
 API.         121152355200                                                           :API NUMBER
 CNTY.        Macon                                                                  :COUNTY
 STAT.        Illinois                                                               :STATE
 CTRY.        US                                                                     :COUNTRY
 LOC.         Lat: 39.8922313 Long: -88.8924449                                      :WELL SURFACE LOCATION LINE 1
 LOC2.        248' South and 233' East From NW corner of the                         :WELL SURFACE LOCATION LINE 2
 LOC3.        NW/4, of the NE/4, of the NW/4, of Section 32                          :WELL SURFACE LOCATION LINE 3
 SECT.        32                                                                     :SECTION
 TOWN.        17 North                                                               :TOWNSHIP
 RANG.        3 East                                                                 :RANGE
 LATI.        39.892231 degrees                                                      :Latitude
 LONG.        -88.892444 degrees                                                     :Longitude
 DATE.        2012/10/31                                                             :LOGGING DATE
 SRVC.        Schlumberger                                                           :SERVICE COMPANY
~Parameter
#MNEM.UNIT    VALUE                                                                  :DESCRIPTION
#----.----    ---------------                                                        :-------------------
 APD.F        17.000                                                                 :Elevation of depth reference above permanent datum
 EDF.F        -999.250                                                               :Elevation of Derrick Floor
 EGL.F        686.500                                                                :Elevation of Ground Level
 EKB.F        703.500                                                                :Elevation of Kelly Bushing
 EPD.F        686.500                                                                :Elevation of Permnaent Datum
 LMF.         Kelly Bushing                                                          :Logging Measured From
 PDAT.        Ground Level                                                           :Permanent Datum
 TDD.F        7225.000                                                               :Total Depth Driller
 TDL.F        7223.000                                                               :Total Depth Logger
 BS.IN        8.500                                                                  :Bit Size
 R1.          TOOLSTRING RAN AS PER TOOL SKETCH                                      :REMARK 1
 R2.          PRESENTATIONS AS PER CLIENT REQUEST                                    :REMARK 2
 R3.          WELL LOCATION UPDATED FROM SURFACE LOGS                                :REMARK 3
 R4.          THANK YOU FOR CHOOSING SCHLUMBERGER!                                   :REMARK 4
 R5.          CREW: B. DOUGLAS & R. VAUGHAN                                          :REMARK 5
 R6.                                                                                 :REMARK 6
 R7.                                                                                 :REMARK 7
 R8.                                                                                 :REMARK 8
 R9.                                                                                 :REMARK 9
 R10.                                                                                :REMARK 10
 DCS_CENTER.  Denver                                                                 :Schlumberger DCS Center
 LOG_ANALYST. Schroer                                                                :Log Analyst Name
 ENG.         Beth DiBella                                                           :Field Engineer Name
 GF_BASELINE. 45                                                                     :GeoFrame Baseline
~Curve
#MNEM.UNIT                                                                           :DESCRIPTION
#----.----                                                                           :--------------------------------
 DEPT.F                                                                              :Depth Index
 RLA0.OHMM                                                                           : 1 Apparent Resistivity from Computed Focusing Mode 0                                        
 RLA1.OHMM                                                                           : 2 Apparent Resistivity from Computed Focusing Mode 1                                        
 RLA2.OHMM                                                                           : 3 Apparent Resistivity from Computed Focusing Mode 2                                        
 RLA3.OHMM                                                                           : 4 Apparent Resistivity from Computed Focusing Mode 3                                        
 RLA4.OHMM                                                                           : 5 Apparent Resistivity from Computed Focusing Mode 4                                        
 RLA5.OHMM                                                                           : 6 Apparent Resistivity from Computed Focusing Mode 5                                        
 RXOZ.OHMM                                                                           : 7 Invaded Formation Resistivity filtered at 18 inches                                       
 BS.IN                                                                               : 8 Bit Size                                                                                  
 DCAL.IN                                                                             : 9 Differential Caliper                                                                      
 HCAL.IN                                                                             :10 HRCC Caliper Calibrated                                                                   
 HDAR.IN                                                                             :11 Hole Diameter from Area                                                                   
 HD1_PPC1.IN                                                                         :12 PPC1 Hole Diameter 1                                                                      
 HD2_PPC1.IN                                                                         :13 PPC1 Hole Diameter 2                                                                      
 TENS.LBS                                                                            :14 Cable Tension                                                                             
 GR_EDTC.GAPI                                                                        :15 Gamma Ray                                                                                 
 NPHI.CFCF                                                                           :16 Thermal Neutron Porosity (original Ratio Method) in Selected Lithology                    
 NPOR.CFCF                                                                           :17 Enhanced Thermal Neutron Porosity in Selected Lithology                                   
 PEFZ.                                                                               :18 HRDD Standard Resolution Formation Photoelectric Factor                                   
 RHOZ.G/C3                                                                           :19 HRDD Standard Resolution Formation Density                                                
 DPHZ.CFCF                                                                           :20 Standard Resolution Density Porosity                                                      
 SPHI.CFCF                                                                           :21 Sonic Porosity                                                                            
 VCL_HILT.CFCF                                                                       :22 Volume of Clay type Material relative to Total Volume                                     
 DTCO.US/FT                                                                          :23 Delta-T Compressional                                                                     
 DTSM.US/FT                                                                          :24 Delta-T Shear                                                                             
 PR.                                                                                 :25 Poisson Ratio                                                                             
 VPVS.                                                                               :26 Compressional to Shear Velocity Ratio                                                     
 CHR_FAST.                                                                           :27 Peak Coherence, Receiver Array - FAST                                                     
 CHRP.                                                                               :28 Label Peak Coherence, Receiver Array, Compressional - Monopole P&S                        
 TICO.US                                                                             :29 Compressional Integrated Transit Time Channel                                             
 FLAG.                                                                               :30 General Indicator Flag                                                                    
~Ascii   DEPT          RLA0          RLA1          RLA2          RLA3          RLA4          RLA5          RXOZ            BS          DCAL          HCAL          HDAR      HD1_PPC1      HD2_PPC1          TENS       GR_EDTC          NPHI          NPOR          PEFZ          RHOZ          DPHZ          SPHI      VCL_HILT          DTCO          DTSM            PR          VPVS      CHR_FAST          CHRP          TICO          FLAG
# ...
    5374.50000       0.16581      16.56837      13.20725      12.62740      12.21942      11.37962      14.10173      17.50000      -7.51081       9.98919       9.76125       9.41190      10.11060    2783.25000     158.67775       0.20518       0.15417       3.61916       2.60798       0.02547       0.13741       1.00000      70.22069     127.60890       0.34794       1.81726       0.94976       0.97447    1176.02954    -999.25000
    5375.00000       0.16777      23.28126      18.19011      17.47968      16.96564      15.75157      16.44382      17.50000      -7.53303       9.96697       9.76868       9.41200      10.12537    2736.50000     154.42691       0.18971       0.18129       3.73897       2.65779      -0.00472       0.13392       1.00000      69.74115     126.89487       0.34831       1.81951       0.95801       0.97704    1175.11548    -999.25000
    5375.50000       0.16972      25.17572      19.52215      18.62671      18.04501      16.73402      21.15708      17.50000      -7.57745       9.92255       9.74940       9.40046      10.09833    2719.25000     146.53998       0.17736       0.13045       3.72484       2.64871       0.00078       0.12668       1.00000      68.74437     125.92913       0.35035       1.83185       0.96106       0.97403    1174.70605    -999.25000
    5376.00000       0.16949      19.45529      15.28936      14.59367      14.01081      13.06848      25.38747      17.50000      -7.63298       9.86702       9.74274       9.41190      10.07359    2656.00000     148.36861       0.16128       0.12130       3.58386       2.59929       0.03073       0.12137       1.00000      68.01241     125.21027       0.35183       1.84099       0.95845       0.98481    1174.93237    -999.25000
    5376.50000       0.17103      21.90469      17.43770      16.84639      16.18874      15.16012      23.84795      17.50000      -7.64409       9.85591       9.74375       9.41156      10.07594    2689.25000     159.95164       0.17518       0.13800       3.42797       2.56156       0.05360       0.12036       1.00000      67.87364     124.53732       0.35083       1.83484       0.96764       0.98253    1175.30554    -999.25000
    5377.00000       0.17205      23.32617      18.53122      17.90271      17.20049      16.21922      22.41409      17.50000      -7.66630       9.83370       9.64137       9.33307       9.94967    2651.75000     169.11905       0.17876       0.15210       3.29431       2.56397       0.05214       0.12136       1.00000      68.01076     123.51048       0.34771       1.81604       0.97482       0.98351    1176.71191    -999.25000
    5377.50000       0.17274      21.31096      17.51973      16.83142      16.19233      15.38000      24.94951      17.50000      -7.68851       9.81149       9.61865       9.32224       9.91506    2707.00000     181.39865       0.18877       0.14480       3.20973       2.55707       0.05632       0.12237       1.00000      68.14972     122.36533       0.34420       1.79554       0.97361       0.98521    1179.38892    -999.25000
    5378.00000       0.17134      15.13661      12.62703      12.04240      11.58142      11.06168      21.15309      17.50000      -7.68851       9.81149       9.59915       9.31059       9.88771    2702.75024     176.34224       0.18626       0.14219       3.18125       2.53661       0.06872       0.12394       1.00000      68.36653     121.84229       0.34185       1.78219       0.97737       0.98718    1183.56799    -999.25000
    5378.50000       0.17225      16.78403      13.87212      13.18376      12.72029      12.17912      19.76758      17.50000      -7.71073       9.78927       9.59299       9.31059       9.87538    2647.75000     175.34103       0.18378       0.15548       3.19770       2.53378       0.07043       0.12468       1.00000      68.46831     122.05978       0.34195       1.78272       0.97794       0.98598    1185.78369    -999.25000
    5379.00000       0.17391      22.45786      18.43200      17.56683      16.95727      16.34514      19.80511      17.50000      -7.75515       9.74485       9.57843       9.29756       9.85931    2680.83008     162.56772       0.17031       0.14507       3.25663       2.54636       0.06281       0.11921       1.00000      67.71577     122.79903       0.34727       1.81345       0.96775       0.98040    1186.16040    -999.25000
    5379.50000       0.17265      17.26040      14.28935      13.65991      13.12657      12.71959      21.69468      17.50000      -7.75515       9.74485       9.56522       9.28817       9.84227    2743.53394     156.36893       0.16180       0.12309       3.29428       2.56114       0.05386       0.11290       1.00000      66.84696     123.56525       0.35302       1.84848       0.96749       0.97783    1185.78870    -999.25000
    5380.00000       0.17375      19.65973      16.57136      15.89663      15.25378      14.89472      22.26778      17.50000      -7.75515       9.74485       9.55251       9.27869       9.82633    2739.46777     153.02342       0.16248       0.11900       3.31853       2.56514       0.05143       0.10900       1.00000      66.30894     124.56146       0.35770       1.87850       0.95647       0.97852    1186.08130    -999.25000
    5380.50000       0.17631      29.69447      24.44676      23.50232      22.71122      22.31158      23.90272      17.50000      -7.79958       9.70042       9.52755       9.26571       9.78939    2699.22998     158.62923       0.14811       0.12677       3.31420       2.57250       0.04697       0.10777       1.00000      66.14058     126.16837       0.36202       1.90758       0.94611       0.97686    1187.44202    -999.25000
    5381.00000       0.17686      33.35216      26.86543      26.05730      25.19616      24.79487      32.19423      17.50000      -7.77736       9.72264       9.53497       9.28167       9.78826    2760.96289     166.94922       0.13587       0.10231       3.28935       2.59546       0.03305       0.10726       1.00000      66.06926     127.99294       0.36623       1.93725       0.95333       0.97493    1189.78296    -999.25000
    5381.50000       0.17281      30.18044      24.54237      23.88641      23.04562      22.84392      29.81343      17.50000      -7.79958       9.70042       9.51911       9.26902       9.76920    2772.86938     174.88135       0.15045       0.09745       3.30183       2.63440       0.00945       0.10939       1.00000      66.36290     129.13507       0.36742       1.94589       0.94706       0.94042    1191.97192    -999.25000
    5382.00000       0.17542      24.62590      19.89820      19.18990      18.57983      18.32583      22.01459      17.50000      -7.82179       9.67821       9.52066       9.26560       9.77571    2689.00024     184.81065       0.18315       0.12925       3.33239       2.66712      -0.01038       0.12277       1.00000      68.20592     129.44810       0.36062       1.89790       0.95389       0.93710    1193.62158    -999.25000
    5382.50000       0.17382      23.93382      19.65174      18.78746      18.34139      18.04791      20.48258      17.50000      -7.68851       9.81149       9.51449       9.26560       9.76337    2719.25000     193.27554       0.20393       0.17837       3.36866       2.66465      -0.00888       0.13689       1.00000      70.14911     129.22299       0.35203       1.84212       0.96389       0.95360    1193.82593    -999.25000
    5383.00000       0.17576      21.02150      17.22717      16.31521      15.98534      15.61881      22.14386      17.50000      -7.86621       9.63379       9.65003       9.28810      10.01196    2634.75000     192.50002       0.19405       0.16519       3.37882       2.64171       0.00502       0.14144       1.00000      70.77641     128.65355       0.34803       1.81775       0.95398       0.97564    1194.05188       1.00000
    5383.50000       0.17670      22.92404      18.40745      17.33180      17.03776      16.41558      23.97203      17.50000      -7.88843       9.61157       9.48285       9.27707       9.68862    2627.00000     183.47192       0.17586       0.14072       3.33356       2.61224       0.02289       0.13223       1.00000      69.50854     128.00583       0.35194       1.84158       0.96657       0.96970    1197.69849    -999.25000
