~VERSION
 VERS.        2.00                                                                   :CWLS LOG ASCII STANDARD
 WRAP.        NO                                                                     :NO WRAP PERFORMED
 PROD.        Schlumberger                                                           :LAS Producer
 CREA.        11/7/2012                                     :LAS Creation Date and time
~Well
#MNEM.UNIT    VALUE                                                                   :DESCRIPTION
#----.----    ---------------                                                        :-------------------
 STRT.F       5061.000                                                               :START DEPTH
 STOP.F       7239.000                                                               :STOP  DEPTH
 STEP.F       0.500                                                                  :DEPTH STEP
 NULL.        -999.250                                                               :NULL VALUE
 COMP.        ADM COMPANY                                   :COMPANY NAME
 WELL.        Verification Well #2                          :WELL NAME
 FLD.         Wildcat                                       :FIELD NAME
 API.         121152355200                                                           :API NUMBER
 CNTY.        Macon                                                                  :COUNTY
 STAT.        Illinois                                                               :STATE
 CTRY.        US                                                                     :COUNTRY
 LOC.         Lat: 39.8922313 Long: -88.8924449                                      :WELL SURFACE LOCATION LINE 1
 LOC2.        248' South and 233' East From NW corner of the                         :WELL SURFACE LOCATION LINE 2
 LOC3.        NW/4, of the NE/4, of the NW/4, of Section 32                          :WELL SURFACE LOCATION LINE 3
 SECT.        32                                                                     :SECTION
 TOWN.        17 North                                                               :TOWNSHIP
 RANG.        3 East                                                                 :RANGE
 LATI.        39.892231 degrees                                                      :Latitude
 LONG.        -88.892444 degrees                                                     :Longitude
 DATE.        2012/10/31                                                             :LOGGING DATE
 SRVC.        Schlumberger                                                           :SERVICE COMPANY
~Parameter
#MNEM.UNIT    VALUE                                                                  :DESCRIPTION
#----.----    ---------------                                                        :-------------------
 APD.F        17.000                                                                 :Elevation of depth reference above permanent datum
 EDF.F        -999.250                                                               :Elevation of Derrick Floor
 EGL.F        686.500                                                                :Elevation of Ground Level
 EKB.F        703.500                                                                :Elevation of Kelly Bushing
 EPD.F        686.500                                                                :Elevation of Permnaent Datum
 LMF.         Kelly Bushing                                                          :Logging Measured From
 PDAT.        Ground Level                                                           :Permanent Datum
 TDD.F        7225.000                                                               :Total Depth Driller
 TDL.F        7223.000                                                               :Total Depth Logger
 BS.IN        8.500                                                                  :Bit Size
 R1.          TOOLSTRING RAN AS PER TOOL SKETCH                                      :REMARK 1
 R2.          PRESENTATIONS AS PER CLIENT REQUEST                                    :REMARK 2
 R3.          WELL LOCATION UPDATED FROM SURFACE LOGS                                :REMARK 3
 R4.          THANK YOU FOR CHOOSING SCHLUMBERGER!                                   :REMARK 4
 R5.          CREW: B. DOUGLAS & R. VAUGHAN                                          :REMARK 5
 R6.                                                                                 :REMARK 6
 R7.                                                                                 :REMARK 7
 R8.                                                                                 :REMARK 8
 R9.                                                                                 :REMARK 9
 R10.                                                                                :REMARK 10
 DCS_CENTER.  Denver                                                                 :Schlumberger DCS Center
 LOG_ANALYST. Schroer                                                                :Log Analyst Name
 ENG.         Beth DiBella                                                           :Field Engineer Name
 GF_BASELINE. 45                                                                     :GeoFrame Baseline
~Curve
#MNEM.UNIT                                                                           :DESCRIPTION
#----.----                                                                           :--------------------------------
 DEPT.F                                                                              :Depth Index
 RLA0.OHMM                                                                           : 1 Apparent Resistivity from Computed Focusing Mode 0                                        
 RLA1.OHMM                                                                           : 2 Apparent Resistivity from Computed Focusing Mode 1                                        
 RLA2.OHMM                                                                           : 3 Apparent Resistivity from Computed Focusing Mode 2                                        
 RLA3.OHMM                                                                           : 4 Apparent Resistivity from Computed Focusing Mode 3                                        
 RLA4.OHMM                                                                           : 5 Apparent Resistivity from Computed Focusing Mode 4                                        
 RLA5.OHMM                                                                           : 6 Apparent Resistivity from Computed Focusing Mode 5                                        
 RXOZ.OHMM                                                                           : 7 Invaded Formation Resistivity filtered at 18 inches                                       
 BS.IN                                                                               : 8 Bit Size                                                                                  
 DCAL.IN                                                                             : 9 Differential Caliper                                                                      
 HCAL.IN                                                                             :10 HRCC Caliper Calibrated                                                                   
 HDAR.IN                                                                             :11 Hole Diameter from Area                                                                   
 HD1_PPC1.IN                                                                         :12 PPC1 Hole Diameter 1                                                                      
 HD2_PPC1.IN                                                                         :13 PPC1 Hole Diameter 2                                                                      
 TENS.LBS                                                                            :14 Cable Tension                                                                             
 GR_EDTC.GAPI                                                                        :15 Gamma Ray                                                                                 
 NPHI.CFCF                                                                           :16 Thermal Neutron Porosity (original Ratio Method) in Selected Lithology                    
 NPOR.CFCF                                                                           :17 Enhanced Thermal Neutron Porosity in Selected Lithology                                   
 PEFZ.                                                                               :18 HRDD Standard Resolution Formation Photoelectric Factor                                   
 RHOZ.G/C3                                                                           :19 HRDD Standard Resolution Formation Density                                                
 DPHZ.CFCF                                                                           :20 Standard Resolution Density Porosity                                                      
 SPHI.CFCF                                                                           :21 Sonic Porosity                                                                            
 VCL_HILT.CFCF                                                                       :22 Volume of Clay type Material relative to Total Volume                                     
 DTCO.US/FT                                                                          :23 Delta-T Compressional                                                                     
 DTSM.US/FT                                                                          :24 Delta-T Shear                                                                             
 PR.                                                                                 :25 Poisson Ratio                                                                             
 VPVS.                                                                               :26 Compressional to Shear Velocity Ratio                                                     
 CHR_FAST.                                                                           :27 Peak Coherence, Receiver Array - FAST                                                     
 CHRP.                                                                               :28 Label Peak Coherence, Receiver Array, Compressional - Monopole P&S                        
 TICO.US                                                                             :29 Compressional Integrated Transit Time Channel                                             
 FLAG.                                                                               :30 General Indicator Flag                                                                    
~Ascii   DEPT          RLA0          RLA1          RLA2          RLA3          RLA4          RLA5          RXOZ            BS          DCAL          HCAL          HDAR      HD1_PPC1      HD2_PPC1          TENS       GR_EDTC          NPHI          NPOR          PEFZ          RHOZ          DPHZ          SPHI      VCL_HILT          DTCO          DTSM            PR          VPVS      CHR_FAST          CHRP          TICO          FLAG
# ...
    5659.50000       0.19282       4.19925       3.95239       3.76348       3.60849       3.41095       6.15364      17.50000      -9.04348       8.45652       8.49245       8.50676       8.47813    2502.50000      35.40261       0.15253       0.09990       1.79396       2.45394       0.11882       0.10091       0.14444      65.19536     103.04689       0.29862       1.58059       0.97608       0.98416    1088.15918    -999.25000
    5660.00000       0.19185       3.95354       3.74771       3.53388       3.39246       3.21134       5.96123      17.50000      -9.02126       8.47874       8.47410       8.49557       8.45263    2483.25024      34.46337       0.15317       0.11233       1.81035       2.45799       0.11637       0.10553       0.16592      65.83106     102.93512       0.29422       1.56363       0.97837       0.98501    1091.31335    -999.25000
    5660.50000       0.19133       3.83382       3.59339       3.38336       3.25660       3.08538       5.80113      17.50000      -8.97684       8.52316       8.49430       8.51934       8.46926    2501.75000      33.40090       0.15090       0.11262       1.79733       2.46900       0.10970       0.10670       0.14629      65.99324     103.01562       0.29352       1.56100       0.98370       0.98698    1094.52124    -999.25000
    5661.00000       0.19106       3.82258       3.48181       3.29943       3.16986       3.00356       5.63302      17.50000      -9.06569       8.43431       8.49284       8.54169       8.44398    2480.00000      36.38557       0.15175       0.10721       1.77625       2.48332       0.10102       0.10476       0.15726      65.72483     103.23788       0.29609       1.57076       0.98330       0.98985    1097.63879    -999.25000
    5661.50000       0.19207       3.69196       3.33954       3.20020       3.08476       2.92446       5.98578      17.50000      -9.04348       8.45652       8.49617       8.55236       8.43997    2552.50000      34.37663       0.14342       0.10085       1.76281       2.49908       0.09146       0.09994       0.13460      65.06113     103.40967       0.30087       1.58942       0.98526       0.99078    1100.64587    -999.25000
    5662.00000       0.19051       3.74515       3.42354       3.29536       3.23757       3.04662       6.31025      17.50000      -9.06569       8.43431       8.46980       8.48092       8.45867    2514.91675      31.57201       0.13054       0.08905       1.76935       2.50622       0.08714       0.09365       0.19479      64.19533     103.55623       0.30670       1.61314       0.98681       0.98176    1103.02856    -999.25000
    5662.50000       0.19741       5.70104       5.32985       5.16614       5.18497       4.85017       7.54749      17.50000      -9.04348       8.45652       8.47374       8.46741       8.48006    2513.61743      37.22889       0.13716       0.07948       1.83180       2.50191       0.08975       0.09543       0.30404      64.44061     103.82703       0.30624       1.61120       0.98404       0.95877    1105.36829    -999.25000
    5663.00000       0.19772       5.91193       5.43829       5.26130       5.35141       4.93349       8.46442      17.50000      -9.08790       8.41210       8.48099       8.47640       8.48557    2432.57617      55.37463       0.15106       0.11347       1.88702       2.48813       0.09810       0.09944       0.41592      64.99310     104.15424       0.30413       1.60254       0.98274       0.95468    1108.56299    -999.25000
    5663.50000       0.19544       5.35011       4.83611       4.71588       4.78789       4.39095       9.16724      17.50000      -9.04348       8.45652       8.48604       8.50493       8.46714    2470.26074      65.41982       0.15557       0.12366       1.90303       2.47708       0.10480       0.09793       0.40691      64.78540     104.25946       0.30578       1.60930       0.98231       0.95826    1112.76147    -999.25000
    5664.00000       0.19250       4.78026       4.30539       4.25177       4.23083       3.89669       7.89695      17.50000      -9.02126       8.47874       8.48425       8.50313       8.46537    2489.99463      54.73646       0.14509       0.09286       1.86793       2.45892       0.11581       0.09618       0.28226      64.54466     104.09796       0.30662       1.61281       0.98509       0.97207    1116.39819    -999.25000
    5664.50000       0.18815       4.12040       3.76562       3.75908       3.63219       3.36100       6.85887      17.50000      -8.97684       8.52316       8.49412       8.54580       8.44244    2492.26050      38.43364       0.14042       0.08611       1.83293       2.44027       0.12711       0.09891       0.15034      64.92010     103.66867       0.30273       1.59687       0.98581       0.98592    1118.46704    -999.25000
    5665.00000       0.18848       4.30080       4.07607       4.05995       3.85545       3.59016       6.23350      17.50000      -8.99905       8.50095       8.48915       8.53833       8.43997    2528.30396      30.55705       0.15711       0.09384       1.81614       2.43461       0.13054       0.10229       0.10357      65.38488     103.31049       0.29849       1.58004       0.98669       0.99247    1119.16797    -999.25000
    5665.50000       0.18891       4.35920       4.21524       4.09785       3.86488       3.61104       5.96263      17.50000      -9.02126       8.47874       8.48047       8.51027       8.45068    2406.70508      28.28970       0.15971       0.12318       1.79400       2.44221       0.12593       0.10098       0.12175      65.20468     102.99237       0.29835       1.57952       0.98205       0.99425    1119.00403    -999.25000
    5666.00000       0.18811       4.25975       4.15075       3.94253       3.70881       3.47217       6.00765      17.50000      -9.04348       8.45652       8.47429       8.50762       8.44096    2466.09351      27.80576       0.15985       0.10894       1.78781       2.44925       0.12167       0.09636       0.11065      64.56861     102.62166       0.30084       1.58934       0.98196       0.99306    1118.45581    -999.25000
    5666.50000       0.18706       4.11524       3.95747       3.69783       3.47866       3.26785       5.98152      17.50000      -9.02126       8.47874       8.48759       8.51450       8.46068    2514.57617      26.16155       0.15630       0.10586       1.80348       2.44998       0.12123       0.09630       0.08465      64.56013     102.51979       0.30049       1.58797       0.98449       0.98988    1117.88684    -999.25000
    5667.00000       0.18548       3.65807       3.37197       3.15582       2.96719       2.79897       5.76155      17.50000      -9.06569       8.43431       8.48914       8.50676       8.47153    2461.08472      25.37279       0.16309       0.11480       1.84536       2.44224       0.12591       0.10060       0.05070      65.15282     102.67086       0.29740       1.57585       0.97672       0.97151    1117.63684    -999.25000
    5667.50000       0.18064       3.02192       2.68953       2.52325       2.38501       2.26446       5.56905      17.50000      -9.02126       8.47874       8.52087       8.53396       8.50778    2426.22827      38.03850       0.17187       0.12049       1.89121       2.43521       0.13018       0.10463       0.06926      65.70750     103.26880       0.29632       1.57164       0.97860       0.92603    1117.58716    -999.25000
    5668.00000       0.17890       2.54658       2.26846       2.15592       2.04998       1.96728       5.30884      17.50000      -9.02126       8.47874       8.54327       8.55330       8.53324    2449.00024      87.88673       0.16396       0.12805       1.94281       2.44958       0.12146       0.10429       0.09752      65.66006     104.14839       0.30006       1.58618       0.97884       0.91867    1116.79395    -999.25000
    5668.50000       0.18086       3.04299       2.72567       2.58965       2.47926       2.39143       6.02999      17.50000      -9.02126       8.47874       8.57626       8.59794       8.55458    2477.33325     149.26311       0.15576       0.12028       2.08164       2.48681       0.09890       0.09976       0.23886      65.03735     105.30221       0.30814       1.61910       0.97882       0.93674    1115.40796    -999.25000
