~VERSION
 VERS.        2.00                                                                   :CWLS LOG ASCII STANDARD
 WRAP.        NO                                                                     :NO WRAP PERFORMED
 PROD.        Schlumberger                                                           :LAS Producer
 CREA.        11/7/2012                                     :LAS Creation Date and time
~Well
#MNEM.UNIT    VALUE                                                                   :DESCRIPTION
#----.----    ---------------                                                        :-------------------
 STRT.F       5061.000                                                               :START DEPTH
 STOP.F       7239.000                                                               :STOP  DEPTH
 STEP.F       0.500                                                                  :DEPTH STEP
 NULL.        -999.250                                                               :NULL VALUE
 COMP.        ADM COMPANY                                   :COMPANY NAME
 WELL.        Verification Well #2                          :WELL NAME
 FLD.         Wildcat                                       :FIELD NAME
 API.         121152355200                                                           :API NUMBER
 CNTY.        Macon                                                                  :COUNTY
 STAT.        Illinois                                                               :STATE
 CTRY.        US                                                                     :COUNTRY
 LOC.         Lat: 39.8922313 Long: -88.8924449                                      :WELL SURFACE LOCATION LINE 1
 LOC2.        248' South and 233' East From NW corner of the                         :WELL SURFACE LOCATION LINE 2
 LOC3.        NW/4, of the NE/4, of the NW/4, of Section 32                          :WELL SURFACE LOCATION LINE 3
 SECT.        32                                                                     :SECTION
 TOWN.        17 North                                                               :TOWNSHIP
 RANG.        3 East                                                                 :RANGE
 LATI.        39.892231 degrees                                                      :Latitude
 LONG.        -88.892444 degrees                                                     :Longitude
 DATE.        2012/10/31                                                             :LOGGING DATE
 SRVC.        Schlumberger                                                           :SERVICE COMPANY
~Parameter
#MNEM.UNIT    VALUE                                                                  :DESCRIPTION
#----.----    ---------------                                                        :-------------------
 APD.F        17.000                                                                 :Elevation of depth reference above permanent datum
 EDF.F        -999.250                                                               :Elevation of Derrick Floor
 EGL.F        686.500                                                                :Elevation of Ground Level
 EKB.F        703.500                                                                :Elevation of Kelly Bushing
 EPD.F        686.500                                                                :Elevation of Permnaent Datum
 LMF.         Kelly Bushing                                                          :Logging Measured From
 PDAT.        Ground Level                                                           :Permanent Datum
 TDD.F        7225.000                                                               :Total Depth Driller
 TDL.F        7223.000                                                               :Total Depth Logger
 BS.IN        8.500                                                                  :Bit Size
 R1.          TOOLSTRING RAN AS PER TOOL SKETCH                                      :REMARK 1
 R2.          PRESENTATIONS AS PER CLIENT REQUEST                                    :REMARK 2
 R3.          WELL LOCATION UPDATED FROM SURFACE LOGS                                :REMARK 3
 R4.          THANK YOU FOR CHOOSING SCHLUMBERGER!                                   :REMARK 4
 R5.          CREW: B. DOUGLAS & R. VAUGHAN                                          :REMARK 5
 R6.                                                                                 :REMARK 6
 R7.                                                                                 :REMARK 7
 R8.                                                                                 :REMARK 8
 R9.                                                                                 :REMARK 9
 R10.                                                                                :REMARK 10
 DCS_CENTER.  Denver                                                                 :Schlumberger DCS Center
 LOG_ANALYST. Schroer                                                                :Log Analyst Name
 ENG.         Beth DiBella                                                           :Field Engineer Name
 GF_BASELINE. 45                                                                     :GeoFrame Baseline
~Curve
#MNEM.UNIT                                                                           :DESCRIPTION
#----.----                                                                           :--------------------------------
 DEPT.F                                                                              :Depth Index
 RLA0.OHMM                                                                           : 1 Apparent Resistivity from Computed Focusing Mode 0                                        
 RLA1.OHMM                                                                           : 2 Apparent Resistivity from Computed Focusing Mode 1                                        
 RLA2.OHMM                                                                           : 3 Apparent Resistivity from Computed Focusing Mode 2                                        
 RLA3.OHMM                                                                           : 4 Apparent Resistivity from Computed Focusing Mode 3                                        
 RLA4.OHMM                                                                           : 5 Apparent Resistivity from Computed Focusing Mode 4                                        
 RLA5.OHMM                                                                           : 6 Apparent Resistivity from Computed Focusing Mode 5                                        
 RXOZ.OHMM                                                                           : 7 Invaded Formation Resistivity filtered at 18 inches                                       
 BS.IN                                                                               : 8 Bit Size                                                                                  
 DCAL.IN                                                                             : 9 Differential Caliper                                                                      
 HCAL.IN                                                                             :10 HRCC Caliper Calibrated                                                                   
 HDAR.IN                                                                             :11 Hole Diameter from Area                                                                   
 HD1_PPC1.IN                                                                         :12 PPC1 Hole Diameter 1                                                                      
 HD2_PPC1.IN                                                                         :13 PPC1 Hole Diameter 2                                                                      
 TENS.LBS                                                                            :14 Cable Tension                                                                             
 GR_EDTC.GAPI                                                                        :15 Gamma Ray                                                                                 
 NPHI.CFCF                                                                           :16 Thermal Neutron Porosity (original Ratio Method) in Selected Lithology                    
 NPOR.CFCF                                                                           :17 Enhanced Thermal Neutron Porosity in Selected Lithology                                   
 PEFZ.                                                                               :18 HRDD Standard Resolution Formation Photoelectric Factor                                   
 RHOZ.G/C3                                                                           :19 HRDD Standard Resolution Formation Density                                                
 DPHZ.CFCF                                                                           :20 Standard Resolution Density Porosity                                                      
 SPHI.CFCF                                                                           :21 Sonic Porosity                                                                            
 VCL_HILT.CFCF                                                                       :22 Volume of Clay type Material relative to Total Volume                                     
 DTCO.US/FT                                                                          :23 Delta-T Compressional                                                                     
 DTSM.US/FT                                                                          :24 Delta-T Shear                                                                             
 PR.                                                                                 :25 Poisson Ratio                                                                             
 VPVS.                                                                               :26 Compressional to Shear Velocity Ratio                                                     
 CHR_FAST.                                                                           :27 Peak Coherence, Receiver Array - FAST                                                     
 CHRP.                                                                               :28 Label Peak Coherence, Receiver Array, Compressional - Monopole P&S                        
 TICO.US                                                                             :29 Compressional Integrated Transit Time Channel                                             
 FLAG.                                                                               :30 General Indicator Flag                                                                    
~Ascii   DEPT          RLA0          RLA1          RLA2          RLA3          RLA4          RLA5          RXOZ            BS          DCAL          HCAL          HDAR      HD1_PPC1      HD2_PPC1          TENS       GR_EDTC          NPHI          NPOR          PEFZ          RHOZ          DPHZ          SPHI      VCL_HILT          DTCO          DTSM            PR          VPVS      CHR_FAST          CHRP          TICO          FLAG
# ...
    6942.00000       0.18374       6.07921       5.42727       5.02371       4.77346       4.32549      10.36409      17.50000      -8.91020       8.58980       8.60990       8.62794       8.59186    2912.29053     159.12337       0.19088       0.12504       2.61248       2.56049       0.05425       0.15328       1.00000      72.40675     129.38832       0.34274       1.78697       0.83287       0.93057    1334.24695    -999.25000
    6942.50000       0.18809       7.77619       7.15758       6.73752       6.45291       5.87696       7.75624      17.50000      -8.89909       8.60091       8.59282       8.61990       8.56575    2885.12451     152.56012       0.23013       0.14590       2.63527       2.53921       0.06715       0.17432       1.00000      75.30394     129.96077       0.33138       1.72582       0.83603       0.92662    1335.23901    -999.25000
    6943.00000       0.16754       2.36843       2.10239       2.00608       1.92118       1.75177       5.05677      17.50000      -8.93241       8.56759       8.58644       8.60714       8.56575    2905.20898     133.14561       0.26446       0.21971       2.56155       2.47197       0.10789       0.19910       1.00000      78.71611     131.64664       0.32042       1.67242       0.81520       0.95323    1336.92773    -999.25000
    6943.50000       0.15746       1.63909       1.46142       1.38740       1.32725       1.20759       3.26365      17.50000      -8.91020       8.58980       8.58037       8.60529       8.55546    2934.81763     111.69490       0.26765       0.21897       2.41035       2.40324       0.14955       0.21231       0.82694      80.53526     135.62151       0.32291       1.68400       0.84767       0.97839    1339.69092    -999.25000
    6944.00000       0.16329       2.03277       1.82654       1.72681       1.64501       1.49746       3.24394      17.50000      -8.91020       8.58980       8.58700       8.60898       8.56502    2908.40576     103.05053       0.25997       0.20071       2.29724       2.35986       0.17584       0.21533       0.67683      80.95095     141.24324       0.33509       1.74480       0.82993       0.95701    1342.68140    -999.25000
    6944.50000       0.16035       1.80999       1.62963       1.54223       1.46017       1.32871       3.24105      17.50000      -8.91020       8.58980       8.58029       8.59705       8.56353    2854.00000      98.19765       0.25836       0.22135       2.22916       2.34984       0.18192       0.22389       0.63778      82.12935     146.62267       0.34252       1.78527       0.87166       0.91725    1344.67053    -999.25000
    6945.00000       0.15638       1.59637       1.45508       1.37923       1.30785       1.19068       3.18906      17.50000      -8.91020       8.58980       8.53105       8.49468       8.56742    2803.50024      94.27889       0.26641       0.20904       2.19333       2.32953       0.19422       0.24059       0.68672      84.42953     149.96880       0.34093       1.77626       0.89174       0.91870    1345.10010    -999.25000
    6945.50000       0.15135       1.40947       1.30644       1.23016       1.16704       1.06187       2.74544      17.50000      -8.91020       8.58980       8.62291       8.66578       8.58004    2926.00000      83.08636       0.25980       0.20585       2.15265       2.30878       0.20680       0.25667       0.67252      86.64404     152.27199       0.33751       1.75744       0.91915       0.94525    1344.53381    -999.25000
    6946.00000       0.14604       1.23685       1.13910       1.08659       1.02791       0.93932       2.42669      17.50000      -8.93241       8.56759       8.63719       8.64347       8.63091    2942.00000      82.20358       0.27394       0.22512       2.09893       2.28900       0.21879       0.26379       0.64667      87.62400     154.21230       0.33798       1.75993       0.93497       0.97248    1343.66382    -999.25000
    6946.50000       0.15387       1.39008       1.26581       1.22478       1.16265       1.07024       2.35954      17.50000      -8.88799       8.61201       8.60939       8.64263       8.57616    2938.50000      78.80462       0.27569       0.23630       2.04073       2.29891       0.21278       0.26151       0.56365      87.30959     155.91856       0.34265       1.78581       0.94673       0.97758    1342.40149    -999.25000
    6947.00000       0.15954       1.69092       1.54105       1.48274       1.41853       1.31060       2.86128      17.50000      -8.92131       8.57869       8.60596       8.63187       8.58004    2923.75000      81.03706       0.26827       0.21219       2.03320       2.30452       0.20938       0.25677       0.52210      86.65665     157.07315       0.34728       1.81259       0.94547       0.97564    1341.04626    -999.25000
    6947.50000       0.15799       1.61849       1.47515       1.41027       1.36492       1.26584       3.14100      17.50000      -8.93241       8.56759       8.61159       8.64314       8.58004    2890.49976      77.22786       0.26212       0.20206       2.06043       2.30767       0.20747       0.25294       0.50430      86.13026     157.20955       0.34939       1.82525       0.96440       0.97915    1340.70337    -999.25000
    6948.00000       0.15469       1.38438       1.25717       1.20049       1.17077       1.09111       3.21366      17.50000      -8.91020       8.58980       8.60037       8.62071       8.58004    2874.00000      79.04120       0.26945       0.20374       2.11327       2.30100       0.21152       0.24653       0.51632      85.24658     156.42191       0.35098       1.83493       0.95909       0.97709    1342.22351    -999.25000
    6948.50000       0.15899       1.61202       1.45871       1.39156       1.36123       1.27137       3.20947      17.50000      -8.93241       8.56759       8.59457       8.60911       8.58004    2921.00000      79.57897       0.26342       0.21806       2.12473       2.31199       0.20486       0.23568       0.49594      83.75337     154.86987       0.35326       1.84912       0.95362       0.97250    1345.89600    -999.25000
    6949.00000       0.17484       2.67148       2.40168       2.30489       2.26349       2.13397       3.98702      17.50000      -8.91020       8.58980       8.60015       8.62027       8.58004    2976.75000      81.56004       0.25197       0.19175       2.14794       2.33548       0.19062       0.22234       0.48361      81.91686     153.10037       0.35636       1.86897       0.94136       0.97779    1351.95654    -999.25000
    6949.50000       0.17057       2.28043       2.02813       1.92918       1.89627       1.80950       5.22051      17.50000      -8.93241       8.56759       8.59457       8.60911       8.58004    2924.00024      80.43217       0.23413       0.16941       2.18673       2.36121       0.17502       0.20971       0.54078      80.17763     151.49144       0.35945       1.88945       0.94155       0.98370    1359.91821    -999.25000
    6950.00000       0.17251       2.41782       2.15252       2.04736       2.01691       1.95118       5.00813      17.50000      -8.88799       8.61201       8.58899       8.59794       8.58004    2907.75000      84.44435       0.22686       0.19092       2.20538       2.38902       0.15817       0.20091       0.59639      78.96512     149.91150       0.36078       1.89845       0.94013       0.98674    1367.09497    -999.25000
    6950.50000       0.17758       2.88789       2.56260       2.44441       2.40169       2.33633       5.21546      17.50000      -8.91020       8.58980       8.59540       8.59794       8.59287    2865.00000      87.19726       0.21882       0.16448       2.19720       2.40737       0.14705       0.19489       0.59087      78.13656     148.10286       0.36033       1.89544       0.94498       0.99124    1373.15784    -999.25000
    6951.00000       0.17720       2.85928       2.52193       2.40241       2.34416       2.28747       5.28323      17.50000      -8.91020       8.58980       8.60171       8.59794       8.60548    2887.50000      94.33398       0.21565       0.15315       2.17620       2.42206       0.13815       0.18899       0.59797      77.32452     146.15952       0.35955       1.89021       0.93971       0.99210    1378.52710    -999.25000
