~VERSION
 VERS.        2.00                                                                   :CWLS LOG ASCII STANDARD
 WRAP.        NO                                                                     :NO WRAP PERFORMED
 PROD.        Schlumberger                                                           :LAS Producer
 CREA.        11/7/2012                                     :LAS Creation Date and time
~Well
#MNEM.UNIT    VALUE                                                                   :DESCRIPTION
#----.----    ---------------                                                        :-------------------
 STRT.F       5061.000                                                               :START DEPTH
 STOP.F       7239.000                                                               :STOP  DEPTH
 STEP.F       0.500                                                                  :DEPTH STEP
 NULL.        -999.250                                                               :NULL VALUE
 COMP.        ADM COMPANY                                   :COMPANY NAME
 WELL.        Verification Well #2                          :WELL NAME
 FLD.         Wildcat                                       :FIELD NAME
 API.         121152355200                                                           :API NUMBER
 CNTY.        Macon                                                                  :COUNTY
 STAT.        Illinois                                                               :STATE
 CTRY.        US                                                                     :COUNTRY
 LOC.         Lat: 39.8922313 Long: -88.8924449                                      :WELL SURFACE LOCATION LINE 1
 LOC2.        248' South and 233' East From NW corner of the                         :WELL SURFACE LOCATION LINE 2
 LOC3.        NW/4, of the NE/4, of the NW/4, of Section 32                          :WELL SURFACE LOCATION LINE 3
 SECT.        32                                                                     :SECTION
 TOWN.        17 North                                                               :TOWNSHIP
 RANG.        3 East                                                                 :RANGE
 LATI.        39.892231 degrees                                                      :Latitude
 LONG.        -88.892444 degrees                                                     :Longitude
 DATE.        2012/10/31                                                             :LOGGING DATE
 SRVC.        Schlumberger                                                           :SERVICE COMPANY
~Parameter
#MNEM.UNIT    VALUE                                                                  :DESCRIPTION
#----.----    ---------------                                                        :-------------------
 APD.F        17.000                                                                 :Elevation of depth reference above permanent datum
 EDF.F        -999.250                                                               :Elevation of Derrick Floor
 EGL.F        686.500                                                                :Elevation of Ground Level
 EKB.F        703.500                                                                :Elevation of Kelly Bushing
 EPD.F        686.500                                                                :Elevation of Permnaent Datum
 LMF.         Kelly Bushing                                                          :Logging Measured From
 PDAT.        Ground Level                                                           :Permanent Datum
 TDD.F        7225.000                                                               :Total Depth Driller
 TDL.F        7223.000                                                               :Total Depth Logger
 BS.IN        8.500                                                                  :Bit Size
 R1.          TOOLSTRING RAN AS PER TOOL SKETCH                                      :REMARK 1
 R2.          PRESENTATIONS AS PER CLIENT REQUEST                                    :REMARK 2
 R3.          WELL LOCATION UPDATED FROM SURFACE LOGS                                :REMARK 3
 R4.          THANK YOU FOR CHOOSING SCHLUMBERGER!                                   :REMARK 4
 R5.          CREW: B. DOUGLAS & R. VAUGHAN                                          :REMARK 5
 R6.                                                                                 :REMARK 6
 R7.                                                                                 :REMARK 7
 R8.                                                                                 :REMARK 8
 R9.                                                                                 :REMARK 9
 R10.                                                                                :REMARK 10
 DCS_CENTER.  Denver                                                                 :Schlumberger DCS Center
 LOG_ANALYST. Schroer                                                                :Log Analyst Name
 ENG.         Beth DiBella                                                           :Field Engineer Name
 GF_BASELINE. 45                                                                     :GeoFrame Baseline
~Curve
#MNEM.UNIT                                                                           :DESCRIPTION
#----.----                                                                           :--------------------------------
 DEPT.F                                                                              :Depth Index
 RLA0.OHMM                                                                           : 1 Apparent Resistivity from Computed Focusing Mode 0                                        
 RLA1.OHMM                                                                           : 2 Apparent Resistivity from Computed Focusing Mode 1                                        
 RLA2.OHMM                                                                           : 3 Apparent Resistivity from Computed Focusing Mode 2                                        
 RLA3.OHMM                                                                           : 4 Apparent Resistivity from Computed Focusing Mode 3                                        
 RLA4.OHMM                                                                           : 5 Apparent Resistivity from Computed Focusing Mode 4                                        
 RLA5.OHMM                                                                           : 6 Apparent Resistivity from Computed Focusing Mode 5                                        
 RXOZ.OHMM                                                                           : 7 Invaded Formation Resistivity filtered at 18 inches                                       
 BS.IN                                                                               : 8 Bit Size                                                                                  
 DCAL.IN                                                                             : 9 Differential Caliper                                                                      
 HCAL.IN                                                                             :10 HRCC Caliper Calibrated                                                                   
 HDAR.IN                                                                             :11 Hole Diameter from Area                                                                   
 HD1_PPC1.IN                                                                         :12 PPC1 Hole Diameter 1                                                                      
 HD2_PPC1.IN                                                                         :13 PPC1 Hole Diameter 2                                                                      
 TENS.LBS                                                                            :14 Cable Tension                                                                             
 GR_EDTC.GAPI                                                                        :15 Gamma Ray                                                                                 
 NPHI.CFCF                                                                           :16 Thermal Neutron Porosity (original Ratio Method) in Selected Lithology                    
 NPOR.CFCF                                                                           :17 Enhanced Thermal Neutron Porosity in Selected Lithology                                   
 PEFZ.                                                                               :18 HRDD Standard Resolution Formation Photoelectric Factor                                   
 RHOZ.G/C3                                                                           :19 HRDD Standard Resolution Formation Density                                                
 DPHZ.CFCF                                                                           :20 Standard Resolution Density Porosity                                                      
 SPHI.CFCF                                                                           :21 Sonic Porosity                                                                            
 VCL_HILT.CFCF                                                                       :22 Volume of Clay type Material relative to Total Volume                                     
 DTCO.US/FT                                                                          :23 Delta-T Compressional                                                                     
 DTSM.US/FT                                                                          :24 Delta-T Shear                                                                             
 PR.                                                                                 :25 Poisson Ratio                                                                             
 VPVS.                                                                               :26 Compressional to Shear Velocity Ratio                                                     
 CHR_FAST.                                                                           :27 Peak Coherence, Receiver Array - FAST                                                     
 CHRP.                                                                               :28 Label Peak Coherence, Receiver Array, Compressional - Monopole P&S                        
 TICO.US                                                                             :29 Compressional Integrated Transit Time Channel                                             
 FLAG.                                                                               :30 General Indicator Flag                                                                    
~Ascii   DEPT          RLA0          RLA1          RLA2          RLA3          RLA4          RLA5          RXOZ            BS          DCAL          HCAL          HDAR      HD1_PPC1      HD2_PPC1          TENS       GR_EDTC          NPHI          NPOR          PEFZ          RHOZ          DPHZ          SPHI      VCL_HILT          DTCO          DTSM            PR          VPVS      CHR_FAST          CHRP          TICO          FLAG
# ...
    6229.50000       0.20064       7.79637       6.92657       6.47944       6.18247       5.68291      14.22422      17.50000      -9.04348       8.45652       8.49989       8.53052       8.46926    2764.25000      70.38272       0.11167       0.07270       1.94939       2.51463       0.08204       0.09119       0.37590      63.85711     104.16318       0.31097       1.63119       0.98429       0.97751    1114.63208    -999.25000
    6230.00000       0.20334      11.06620       9.94609       9.39343       8.94392       8.29104      18.07439      17.50000      -8.99905       8.50095       8.53928       8.57515       8.50341    2797.19995      75.52493       0.12057       0.08610       1.98314       2.53860       0.06751       0.09296       0.49209      64.09999     104.00971       0.30896       1.62262       0.98398       0.97524    1116.36938    -999.25000
    6230.50000       0.20429      15.15180      13.46024      12.72703      12.12544      11.26600      22.08089      17.50000      -8.97684       8.52316       8.51593       8.56452       8.46733    2759.50000      72.47704       0.12869       0.09704       2.01537       2.53740       0.06824       0.09432       0.48562      64.28790     103.89877       0.30742       1.61615       0.98570       0.97245    1116.38416    -999.25000
    6231.00000       0.20304      13.00997      11.45675      10.77079      10.25297       9.51863      24.15224      17.50000      -8.97684       8.52316       8.49346       8.53052       8.45640    2752.00000      63.52641       0.11857       0.07846       2.01696       2.53300       0.07091       0.09677       0.45629      64.62457     103.72245       0.30473       1.60500       0.98549       0.96106    1116.12854    -999.25000
    6231.50000       0.20100      11.39819       9.94363       9.39267       8.91442       8.27330      20.36677      17.50000      -8.99905       8.50095       8.47885       8.51794       8.43976    2673.75000      62.58163       0.11753       0.07033       1.99853       2.52272       0.07714       0.09888       0.40747      64.91611     103.59585       0.30247       1.59584       0.98336       0.96633    1116.31470    -999.25000
    6232.00000       0.19991      11.06729       9.65014       9.09617       8.63974       7.99155      18.01450      17.50000      -8.99905       8.50095       8.50882       8.55236       8.46527    2660.25000      65.28040       0.11807       0.08308       2.01329       2.50700       0.08667       0.09672       0.43651      64.61897     103.45494       0.30375       1.60100       0.98112       0.97484    1117.32764    -999.25000
    6232.50000       0.20038      12.53212      11.07189      10.39685       9.86044       9.11703      19.32229      17.50000      -8.97684       8.52316       8.51503       8.55192       8.47813    2729.00000      67.86684       0.12019       0.08480       2.00896       2.51136       0.08403       0.09151       0.44693      63.90066     103.39436       0.30787       1.61805       0.98031       0.97732    1118.53662    -999.25000
    6233.00000       0.19898      12.56875      11.24474      10.52864       9.96533       9.21791      20.29696      17.50000      -8.97684       8.52316       8.52084       8.56354       8.47813    2752.39990      75.16627       0.11700       0.07375       1.99883       2.52521       0.07563       0.08614       0.40015      63.16208     103.28540       0.31190       1.63524       0.97724       0.98807    1119.56311    -999.25000
    6233.50000       0.19727      12.05565      10.77387      10.11481       9.57284       8.81828      20.64161      17.50000      -8.97684       8.52316       8.52032       8.57515       8.46549    2687.00000      83.19382       0.11415       0.07500       1.97385       2.54791       0.06187       0.08745       0.47728      63.34128     103.46669       0.31150       1.63348       0.97942       0.98039    1119.64417    -999.25000
    6234.00000       0.19870      13.93220      12.44920      11.74889      11.12254      10.25484      22.93314      17.50000      -8.99905       8.50095       8.56487       8.57515       8.55458    2708.00000      90.55308       0.12738       0.06466       2.00548       2.56069       0.05412       0.09969       0.52140      65.02744     104.01474       0.30340       1.59955       0.97673       0.96194    1118.87585    -999.25000
    6234.50000       0.19561      10.38829       9.22452       8.70641       8.22095       7.56856      20.31547      17.50000      -8.97684       8.52316       8.54074       8.55236       8.52911    2677.50000      90.18903       0.14461       0.09276       2.05012       2.53953       0.06695       0.11673       0.60952      67.37344     104.93675       0.29262       1.55754       0.97442       0.96138    1117.68860    -999.25000
    6235.00000       0.19138       7.37119       6.49149       6.12725       5.80112       5.33231      14.92857      17.50000      -8.98794       8.51206       8.56559       8.56398       8.56720    2715.75000      84.69998       0.15548       0.13324       2.05773       2.50848       0.08577       0.12391       0.52803      68.36296     105.83774       0.29011       1.54817       0.97448       0.97803    1116.83545    -999.25000
    6235.50000       0.19153       8.14723       7.17939       6.76331       6.42422       5.85848      13.90878      17.50000      -8.99905       8.50095       8.58523       8.55236       8.61809    2831.50000      78.84779       0.15130       0.10524       2.02333       2.47536       0.10584       0.11424       0.47946      67.03102     106.30386       0.30001       1.58589       0.97731       0.96041    1115.84778    -999.25000
    6236.00000       0.19815      11.35102      10.05225       9.46367       9.01415       8.18770      15.35390      17.50000      -9.03237       8.46763       8.52536       8.53052       8.52020    2744.25000      79.13179       0.13423       0.07449       1.98069       2.47757       0.10450       0.10017       0.43795      65.09275     106.38006       0.31171       1.63428       0.98459       0.96570    1114.19897    -999.25000
    6236.50000       0.20018      11.27860      10.06107       9.49372       9.03775       8.14864      22.12475      17.50000      -9.02126       8.47874       8.51462       8.56398       8.46527    2503.25000      80.74675       0.11833       0.08107       1.98807       2.49282       0.09526       0.09500       0.45237      64.38213     106.18605       0.31514       1.64931       0.99115       0.97558    1113.10901    -999.25000
    6237.00000       0.20162      10.92299       9.85302       9.32091       8.84144       7.96633      20.45195      17.50000      -8.99905       8.50095       8.49161       8.51794       8.46527    2707.75000      86.52641       0.11940       0.06906       2.00936       2.50702       0.08665       0.09756       0.50245      64.73365     105.70354       0.31139       1.63290       0.98931       0.97485    1111.19543    -999.25000
    6237.50000       0.20307       9.91527       8.93160       8.49798       7.98618       7.20423      21.41015      17.50000      -8.99905       8.50095       8.53358       8.56354       8.50362    2725.25000      75.55349       0.11984       0.08749       2.02439       2.51559       0.08146       0.09940       0.52443      64.98726     105.06929       0.30758       1.61677       0.98488       0.97585    1109.11926    -999.25000
    6238.00000       0.20534       9.75353       8.76066       8.34794       7.80304       7.05954      19.59669      17.50000      -8.97684       8.52316       8.50385       8.52956       8.47813    2665.75000      65.79495       0.11839       0.09134       1.97800       2.52421       0.07624       0.09475       0.44339      64.34746     104.58670       0.30961       1.62534       0.98493       0.97353    1108.67676    -999.25000
    6238.50000       0.20736      10.71909       9.61843       9.09537       8.50322       7.67720      19.68720      17.50000      -8.95463       8.54537       8.48506       8.51750       8.45263    2621.66675      56.00243       0.10397       0.06847       1.90858       2.52746       0.07426       0.08768       0.31918      63.37322     104.14418       0.31377       1.64335       0.98942       0.97803    1108.85278    -999.25000
