~VERSION
 VERS.        2.00                                                                   :CWLS LOG ASCII STANDARD
 WRAP.        NO                                                                     :NO WRAP PERFORMED
 PROD.        Schlumberger                                                           :LAS Producer
 CREA.        11/7/2012                                     :LAS Creation Date and time
~Well
#MNEM.UNIT    VALUE                                                                   :DESCRIPTION
#----.----    ---------------                                                        :-------------------
 STRT.F       5061.000                                                               :START DEPTH
 STOP.F       7239.000                                                               :STOP  DEPTH
 STEP.F       0.500                                                                  :DEPTH STEP
 NULL.        -999.250                                                               :NULL VALUE
 COMP.        ADM COMPANY                                   :COMPANY NAME
 WELL.        Verification Well #2                          :WELL NAME
 FLD.         Wildcat                                       :FIELD NAME
 API.         121152355200                                                           :API NUMBER
 CNTY.        Macon                                                                  :COUNTY
 STAT.        Illinois                                                               :STATE
 CTRY.        US                                                                     :COUNTRY
 LOC.         Lat: 39.8922313 Long: -88.8924449                                      :WELL SURFACE LOCATION LINE 1
 LOC2.        248' South and 233' East From NW corner of the                         :WELL SURFACE LOCATION LINE 2
 LOC3.        NW/4, of the NE/4, of the NW/4, of Section 32                          :WELL SURFACE LOCATION LINE 3
 SECT.        32                                                                     :SECTION
 TOWN.        17 North                                                               :TOWNSHIP
 RANG.        3 East                                                                 :RANGE
 LATI.        39.892231 degrees                                                      :Latitude
 LONG.        -88.892444 degrees                                                     :Longitude
 DATE.        2012/10/31                                                             :LOGGING DATE
 SRVC.        Schlumberger                                                           :SERVICE COMPANY
~Parameter
#MNEM.UNIT    VALUE                                                                  :DESCRIPTION
#----.----    ---------------                                                        :-------------------
 APD.F        17.000                                                                 :Elevation of depth reference above permanent datum
 EDF.F        -999.250                                                               :Elevation of Derrick Floor
 EGL.F        686.500                                                                :Elevation of Ground Level
 EKB.F        703.500                                                                :Elevation of Kelly Bushing
 EPD.F        686.500                                                                :Elevation of Permnaent Datum
 LMF.         Kelly Bushing                                                          :Logging Measured From
 PDAT.        Ground Level                                                           :Permanent Datum
 TDD.F        7225.000                                                               :Total Depth Driller
 TDL.F        7223.000                                                               :Total Depth Logger
 BS.IN        8.500                                                                  :Bit Size
 R1.          TOOLSTRING RAN AS PER TOOL SKETCH                                      :REMARK 1
 R2.          PRESENTATIONS AS PER CLIENT REQUEST                                    :REMARK 2
 R3.          WELL LOCATION UPDATED FROM SURFACE LOGS                                :REMARK 3
 R4.          THANK YOU FOR CHOOSING SCHLUMBERGER!                                   :REMARK 4
 R5.          CREW: B. DOUGLAS & R. VAUGHAN                                          :REMARK 5
 R6.                                                                                 :REMARK 6
 R7.                                                                                 :REMARK 7
 R8.                                                                                 :REMARK 8
 R9.                                                                                 :REMARK 9
 R10.                                                                                :REMARK 10
 DCS_CENTER.  Denver                                                                 :Schlumberger DCS Center
 LOG_ANALYST. Schroer                                                                :Log Analyst Name
 ENG.         Beth DiBella                                                           :Field Engineer Name
 GF_BASELINE. 45                                                                     :GeoFrame Baseline
~Curve
#MNEM.UNIT                                                                           :DESCRIPTION
#----.----                                                                           :--------------------------------
 DEPT.F                                                                              :Depth Index
 RLA0.OHMM                                                                           : 1 Apparent Resistivity from Computed Focusing Mode 0                                        
 RLA1.OHMM                                                                           : 2 Apparent Resistivity from Computed Focusing Mode 1                                        
 RLA2.OHMM                                                                           : 3 Apparent Resistivity from Computed Focusing Mode 2                                        
 RLA3.OHMM                                                                           : 4 Apparent Resistivity from Computed Focusing Mode 3                                        
 RLA4.OHMM                                                                           : 5 Apparent Resistivity from Computed Focusing Mode 4                                        
 RLA5.OHMM                                                                           : 6 Apparent Resistivity from Computed Focusing Mode 5                                        
 RXOZ.OHMM                                                                           : 7 Invaded Formation Resistivity filtered at 18 inches                                       
 BS.IN                                                                               : 8 Bit Size                                                                                  
 DCAL.IN                                                                             : 9 Differential Caliper                                                                      
 HCAL.IN                                                                             :10 HRCC Caliper Calibrated                                                                   
 HDAR.IN                                                                             :11 Hole Diameter from Area                                                                   
 HD1_PPC1.IN                                                                         :12 PPC1 Hole Diameter 1                                                                      
 HD2_PPC1.IN                                                                         :13 PPC1 Hole Diameter 2                                                                      
 TENS.LBS                                                                            :14 Cable Tension                                                                             
 GR_EDTC.GAPI                                                                        :15 Gamma Ray                                                                                 
 NPHI.CFCF                                                                           :16 Thermal Neutron Porosity (original Ratio Method) in Selected Lithology                    
 NPOR.CFCF                                                                           :17 Enhanced Thermal Neutron Porosity in Selected Lithology                                   
 PEFZ.                                                                               :18 HRDD Standard Resolution Formation Photoelectric Factor                                   
 RHOZ.G/C3                                                                           :19 HRDD Standard Resolution Formation Density                                                
 DPHZ.CFCF                                                                           :20 Standard Resolution Density Porosity                                                      
 SPHI.CFCF                                                                           :21 Sonic Porosity                                                                            
 VCL_HILT.CFCF                                                                       :22 Volume of Clay type Material relative to Total Volume                                     
 DTCO.US/FT                                                                          :23 Delta-T Compressional                                                                     
 DTSM.US/FT                                                                          :24 Delta-T Shear                                                                             
 PR.                                                                                 :25 Poisson Ratio                                                                             
 VPVS.                                                                               :26 Compressional to Shear Velocity Ratio                                                     
 CHR_FAST.                                                                           :27 Peak Coherence, Receiver Array - FAST                                                     
 CHRP.                                                                               :28 Label Peak Coherence, Receiver Array, Compressional - Monopole P&S                        
 TICO.US                                                                             :29 Compressional Integrated Transit Time Channel                                             
 FLAG.                                                                               :30 General Indicator Flag                                                                    
~Ascii   DEPT          RLA0          RLA1          RLA2          RLA3          RLA4          RLA5          RXOZ            BS          DCAL          HCAL          HDAR      HD1_PPC1      HD2_PPC1          TENS       GR_EDTC          NPHI          NPOR          PEFZ          RHOZ          DPHZ          SPHI      VCL_HILT          DTCO          DTSM            PR          VPVS      CHR_FAST          CHRP          TICO          FLAG
# ...
    5089.50000       0.03132       0.03460       0.03000       0.02820       0.02692       0.02835       0.08857      17.50000     -14.13013       3.32544    -999.25000    -999.25000    -999.25000    -999.25000    -999.25000       0.30742    -999.25000      10.00000       2.49228       0.09559    -999.25000       0.00000    -999.25000    -999.25000    -999.25000    -999.25000    -999.25000    -999.25000    -999.25000    -999.25000
    5090.00000       0.03132       0.03460       0.03000       0.02820       0.02692       0.02835       0.08857      17.50000     -14.13013       3.32544    -999.25000    -999.25000    -999.25000    -999.25000    -999.25000       0.31111    -999.25000      10.00000       2.49228       0.09559    -999.25000       0.00000    -999.25000    -999.25000    -999.25000    -999.25000    -999.25000    -999.25000    -999.25000    -999.25000
    5090.50000       0.03132       0.03460       0.03000       0.02820       0.02692       0.02835       0.08857      17.50000     -14.13013       3.32544    -999.25000    -999.25000    -999.25000    -999.25000    -999.25000       0.27563    -999.25000      10.00000       2.49228       0.09559    -999.25000       0.00000    -999.25000    -999.25000    -999.25000    -999.25000    -999.25000    -999.25000    -999.25000    -999.25000
    5091.00000       0.03132       0.03460       0.03000       0.02820       0.02692       0.02835       0.08857      17.50000     -14.13013       3.32544    -999.25000    -999.25000    -999.25000    -999.25000    -999.25000       0.23127    -999.25000      10.00000       2.49228       0.09559    -999.25000       0.00000    -999.25000    -999.25000    -999.25000    -999.25000    -999.25000    -999.25000    -999.25000    -999.25000
    5091.50000       0.03132       0.03460       0.03000       0.02820       0.02692       0.02835       0.08857      17.50000     -14.13013       3.32544    -999.25000    -999.25000    -999.25000    -999.25000    -999.25000       0.20789    -999.25000      10.00000       2.49228       0.09559    -999.25000       0.00000    -999.25000    -999.25000    -999.25000    -999.25000    -999.25000    -999.25000    -999.25000    -999.25000
    5092.00000       0.03132       0.03460       0.03000       0.02820       0.02692       0.02835       0.08857      17.50000     -14.13013       3.32544    -999.25000    -999.25000    -999.25000    -999.25000    -999.25000       0.20818    -999.25000      10.00000       2.49228       0.09559    -999.25000       0.00000    -999.25000    -999.25000    -999.25000    -999.25000    -999.25000    -999.25000    -999.25000    -999.25000
    5092.50000       0.03132       0.03460       0.03000       0.02820       0.02692       0.02835       0.08857      17.50000     -14.13013       3.32544    -999.25000    -999.25000    -999.25000    -999.25000    -999.25000       0.22206    -999.25000      10.00000       2.49228       0.09559    -999.25000       0.00000    -999.25000    -999.25000    -999.25000    -999.25000    -999.25000    -999.25000    -999.25000    -999.25000
    5093.00000       0.03132       0.03460       0.03000       0.02820       0.02692       0.02835       0.08857      17.50000     -14.13013       3.32544    -999.25000    -999.25000    -999.25000    -999.25000    -999.25000       0.22445    -999.25000      10.00000       2.49228       0.09559    -999.25000       0.00000    -999.25000    -999.25000    -999.25000    -999.25000    -999.25000    -999.25000    -999.25000    -999.25000
    5093.50000       0.03132       0.03460       0.03000       0.02820       0.02692       0.02835       0.08857      17.50000     -14.13013       3.32544    -999.25000    -999.25000    -999.25000    -999.25000    -999.25000       0.21303    -999.25000      10.00000       2.49228       0.09559    -999.25000       0.00000    -999.25000    -999.25000    -999.25000    -999.25000    -999.25000    -999.25000    -999.25000    -999.25000
    5094.00000       0.03132       0.03460       0.03000       0.02820       0.02692       0.02835       0.08857      17.50000     -14.13013       3.32544    -999.25000    -999.25000    -999.25000    -999.25000    -999.25000       0.19822    -999.25000      10.00000       2.49228       0.09559    -999.25000       0.00000    -999.25000    -999.25000    -999.25000    -999.25000    -999.25000    -999.25000    -999.25000    -999.25000
    5094.50000       0.03132       0.03460       0.03000       0.02820       0.02692       0.02835       0.08857      17.50000     -14.13013       3.32544    -999.25000    -999.25000    -999.25000    -999.25000    -999.25000       0.18704    -999.25000      10.00000       2.49228       0.09559    -999.25000       0.00000    -999.25000    -999.25000    -999.25000    -999.25000    -999.25000    -999.25000    -999.25000    -999.25000
    5095.00000       0.03132       0.03460       0.03000       0.02820       0.02692       0.02835       0.08857      17.50000     -14.13013       3.32544    -999.25000    -999.25000    -999.25000    -999.25000    -999.25000       0.18720       0.10619      10.00000       2.49228       0.09559    -999.25000       0.00000    -999.25000    -999.25000    -999.25000    -999.25000    -999.25000    -999.25000    -999.25000    -999.25000
    5095.50000       0.03107       0.03146       0.02755       0.02602       0.02495       0.02664       0.08857      17.50000     -14.13013       3.32544    -999.25000    -999.25000    -999.25000    -999.25000    -999.25000       0.18585       0.10247      10.00000       2.49228       0.09559    -999.25000       0.00000    -999.25000    -999.25000    -999.25000    -999.25000    -999.25000    -999.25000    -999.25000    -999.25000
    5096.00000       0.03102       0.03203       0.02821       0.02653       0.02539       0.02696       0.08857      17.50000     -14.13013       3.32544    -999.25000    -999.25000    -999.25000    -999.25000    -999.25000       0.18809       0.09477      10.00000       2.49228       0.09559    -999.25000       0.00000    -999.25000    -999.25000    -999.25000    -999.25000    -999.25000    -999.25000    -999.25000    -999.25000
    5096.50000       0.03120       0.03272       0.02868       0.02700       0.02583       0.02734       0.08857      17.50000     -14.13013       3.32544    -999.25000    -999.25000    -999.25000    -999.25000    -999.25000       0.19887       0.09992      10.00000       2.49228       0.09559    -999.25000       0.00000    -999.25000    -999.25000    -999.25000    -999.25000    -999.25000    -999.25000    -999.25000    -999.25000
    5097.00000       0.03169       0.03135       0.02747       0.02596       0.02489       0.02667       0.08857      17.50000     -14.13013       3.32544    -999.25000    -999.25000    -999.25000    -999.25000    -999.25000       0.20272       0.10214      10.00000       2.49228       0.09559    -999.25000       0.00000    -999.25000    -999.25000    -999.25000    -999.25000    -999.25000    -999.25000    -999.25000    -999.25000
    5097.50000       0.03160       0.03502       0.03028       0.02843       0.02713       0.02859       0.08857      17.50000     -14.13013       3.32544    -999.25000    -999.25000    -999.25000    -999.25000    -999.25000       0.20181       0.11461      10.00000       2.49228       0.09559    -999.25000       0.00000    -999.25000    -999.25000    -999.25000    -999.25000    -999.25000    -999.25000    -999.25000    -999.25000
    5098.00000       0.03183       0.03465       0.03022       0.02842       0.02714       0.02865       0.08857      17.50000     -14.13013       3.32544    -999.25000    -999.25000    -999.25000    -999.25000    -999.25000       0.19454       0.10775      10.00000       2.49228       0.09559    -999.25000       0.00000    -999.25000    -999.25000    -999.25000    -999.25000    -999.25000    -999.25000    -999.25000    -999.25000
    5098.50000       0.03155       0.03464       0.03039       0.02855       0.02721       0.02867       0.08857      17.50000     -14.13013       3.32544    -999.25000    -999.25000    -999.25000    -999.25000    -999.25000       0.20190       0.10923      10.00000       2.49228       0.09559    -999.25000       0.00000    -999.25000    -999.25000    -999.25000    -999.25000    -999.25000    -999.25000    -999.25000    -999.25000
