~VERSION
 VERS.        2.00                                                                   :CWLS LOG ASCII STANDARD
 WRAP.        NO                                                                     :NO WRAP PERFORMED
 PROD.        Schlumberger                                                           :LAS Producer
 CREA.        11/7/2012                                     :LAS Creation Date and time
~Well
#MNEM.UNIT    VALUE                                                                   :DESCRIPTION
#----.----    ---------------                                                        :-------------------
 STRT.F       5061.000                                                               :START DEPTH
 STOP.F       7239.000                                                               :STOP  DEPTH
 STEP.F       0.500                                                                  :DEPTH STEP
 NULL.        -999.250                                                               :NULL VALUE
 COMP.        ADM COMPANY                                   :COMPANY NAME
 WELL.        Verification Well #2                          :WELL NAME
 FLD.         Wildcat                                       :FIELD NAME
 API.         121152355200                                                           :API NUMBER
 CNTY.        Macon                                                                  :COUNTY
 STAT.        Illinois                                                               :STATE
 CTRY.        US                                                                     :COUNTRY
 LOC.         Lat: 39.8922313 Long: -88.8924449                                      :WELL SURFACE LOCATION LINE 1
 LOC2.        248' South and 233' East From NW corner of the                         :WELL SURFACE LOCATION LINE 2
 LOC3.        NW/4, of the NE/4, of the NW/4, of Section 32                          :WELL SURFACE LOCATION LINE 3
 SECT.        32                                                                     :SECTION
 TOWN.        17 North                                                               :TOWNSHIP
 RANG.        3 East                                                                 :RANGE
 LATI.        39.892231 degrees                                                      :Latitude
 LONG.        -88.892444 degrees                                                     :Longitude
 DATE.        2012/10/31                                                             :LOGGING DATE
 SRVC.        Schlumberger                                                           :SERVICE COMPANY
~Parameter
#MNEM.UNIT    VALUE                                                                  :DESCRIPTION
#----.----    ---------------                                                        :-------------------
 APD.F        17.000                                                                 :Elevation of depth reference above permanent datum
 EDF.F        -999.250                                                               :Elevation of Derrick Floor
 EGL.F        686.500                                                                :Elevation of Ground Level
 EKB.F        703.500                                                                :Elevation of Kelly Bushing
 EPD.F        686.500                                                                :Elevation of Permnaent Datum
 LMF.         Kelly Bushing                                                          :Logging Measured From
 PDAT.        Ground Level                                                           :Permanent Datum
 TDD.F        7225.000                                                               :Total Depth Driller
 TDL.F        7223.000                                                               :Total Depth Logger
 BS.IN        8.500                                                                  :Bit Size
 R1.          TOOLSTRING RAN AS PER TOOL SKETCH                                      :REMARK 1
 R2.          PRESENTATIONS AS PER CLIENT REQUEST                                    :REMARK 2
 R3.          WELL LOCATION UPDATED FROM SURFACE LOGS                                :REMARK 3
 R4.          THANK YOU FOR CHOOSING SCHLUMBERGER!                                   :REMARK 4
 R5.          CREW: B. DOUGLAS & R. VAUGHAN                                          :REMARK 5
 R6.                                                                                 :REMARK 6
 R7.                                                                                 :REMARK 7
 R8.                                                                                 :REMARK 8
 R9.                                                                                 :REMARK 9
 R10.                                                                                :REMARK 10
 DCS_CENTER.  Denver                                                                 :Schlumberger DCS Center
 LOG_ANALYST. Schroer                                                                :Log Analyst Name
 ENG.         Beth DiBella                                                           :Field Engineer Name
 GF_BASELINE. 45                                                                     :GeoFrame Baseline
~Curve
#MNEM.UNIT                                                                           :DESCRIPTION
#----.----                                                                           :--------------------------------
 DEPT.F                                                                              :Depth Index
 RLA0.OHMM                                                                           : 1 Apparent Resistivity from Computed Focusing Mode 0                                        
 RLA1.OHMM                                                                           : 2 Apparent Resistivity from Computed Focusing Mode 1                                        
 RLA2.OHMM                                                                           : 3 Apparent Resistivity from Computed Focusing Mode 2                                        
 RLA3.OHMM                                                                           : 4 Apparent Resistivity from Computed Focusing Mode 3                                        
 RLA4.OHMM                                                                           : 5 Apparent Resistivity from Computed Focusing Mode 4                                        
 RLA5.OHMM                                                                           : 6 Apparent Resistivity from Computed Focusing Mode 5                                        
 RXOZ.OHMM                                                                           : 7 Invaded Formation Resistivity filtered at 18 inches                                       
 BS.IN                                                                               : 8 Bit Size                                                                                  
 DCAL.IN                                                                             : 9 Differential Caliper                                                                      
 HCAL.IN                                                                             :10 HRCC Caliper Calibrated                                                                   
 HDAR.IN                                                                             :11 Hole Diameter from Area                                                                   
 HD1_PPC1.IN                                                                         :12 PPC1 Hole Diameter 1                                                                      
 HD2_PPC1.IN                                                                         :13 PPC1 Hole Diameter 2                                                                      
 TENS.LBS                                                                            :14 Cable Tension                                                                             
 GR_EDTC.GAPI                                                                        :15 Gamma Ray                                                                                 
 NPHI.CFCF                                                                           :16 Thermal Neutron Porosity (original Ratio Method) in Selected Lithology                    
 NPOR.CFCF                                                                           :17 Enhanced Thermal Neutron Porosity in Selected Lithology                                   
 PEFZ.                                                                               :18 HRDD Standard Resolution Formation Photoelectric Factor                                   
 RHOZ.G/C3                                                                           :19 HRDD Standard Resolution Formation Density                                                
 DPHZ.CFCF                                                                           :20 Standard Resolution Density Porosity                                                      
 SPHI.CFCF                                                                           :21 Sonic Porosity                                                                            
 VCL_HILT.CFCF                                                                       :22 Volume of Clay type Material relative to Total Volume                                     
 DTCO.US/FT                                                                          :23 Delta-T Compressional                                                                     
 DTSM.US/FT                                                                          :24 Delta-T Shear                                                                             
 PR.                                                                                 :25 Poisson Ratio                                                                             
 VPVS.                                                                               :26 Compressional to Shear Velocity Ratio                                                     
 CHR_FAST.                                                                           :27 Peak Coherence, Receiver Array - FAST                                                     
 CHRP.                                                                               :28 Label Peak Coherence, Receiver Array, Compressional - Monopole P&S                        
 TICO.US                                                                             :29 Compressional Integrated Transit Time Channel                                             
 FLAG.                                                                               :30 General Indicator Flag                                                                    
~Ascii   DEPT          RLA0          RLA1          RLA2          RLA3          RLA4          RLA5          RXOZ            BS          DCAL          HCAL          HDAR      HD1_PPC1      HD2_PPC1          TENS       GR_EDTC          NPHI          NPOR          PEFZ          RHOZ          DPHZ          SPHI      VCL_HILT          DTCO          DTSM            PR          VPVS      CHR_FAST          CHRP          TICO          FLAG
# ...
    6657.00000       0.17064       2.26761       1.99811       1.85233       1.72750       1.56779       3.74955      17.50000      -9.04348       8.45652       8.46806       8.48350       8.45263    2670.00000      45.50388       0.26907       0.24315       1.84299       2.32216       0.19869       0.23694       0.25210      83.92623     138.62227       0.31592       1.65172       0.94666       0.97531    1292.20569    -999.25000
    6657.50000       0.17344       2.49017       2.20809       2.03591       1.90497       1.72682       4.05939      17.50000      -9.04348       8.45652       8.45413       8.45965       8.44862    2782.20020      54.07526       0.24661       0.20546       1.88638       2.34673       0.18380       0.22446       0.31388      82.20790     138.88168       0.32406       1.68940       0.95921       0.95516    1289.85059    -999.25000
    6658.00000       0.18361       3.47768       3.09730       2.87072       2.68671       2.44434       5.10597      17.50000      -9.04348       8.45652       8.47925       8.50587       8.45263    2742.80005      59.39003       0.21176       0.16339       1.93911       2.38147       0.16274       0.20242       0.36229      79.17362     137.83156       0.33433       1.74088       0.96598       0.95138    1289.14587    -999.25000
    6658.50000       0.18940       4.35314       3.86140       3.61140       3.38571       3.08748       6.97268      17.50000      -9.06569       8.43431       8.46817       8.48350       8.45284    2672.00000      67.83084       0.19994       0.14129       2.00749       2.40681       0.14739       0.18125       0.42528      76.25778     135.82950       0.34175       1.78119       0.95876       0.96652    1289.45361    -999.25000
    6659.00000       0.18938       4.28766       3.78755       3.56108       3.34349       3.06099       7.74983      17.50000      -9.04348       8.45652       8.44696       8.47085       8.42307    2722.25024      67.81026       0.18528       0.15768       2.07596       2.40766       0.14687       0.16676       0.40843      74.26315     133.36526       0.34431       1.79585       0.96043       0.99637    1289.91406    -999.25000
    6659.50000       0.19036       4.39993       3.87104       3.65708       3.45297       3.16436       7.57812      17.50000      -9.04348       8.45652       8.46784       8.48305       8.45263    2835.50000      69.01093       0.18828       0.14275       2.11772       2.40197       0.15032       0.15765       0.41650      73.00872     130.42810       0.34266       1.78647       0.95194       0.99545    1290.20337    -999.25000
    6660.00000       0.19286       5.23365       4.56444       4.31512       4.09607       3.76092       8.15531      17.50000      -9.02126       8.47874       8.45510       8.48310       8.42711    2805.60010      66.62449       0.17372       0.12571       2.10409       2.41512       0.14235       0.14723       0.39760      71.57376     127.49066       0.34172       1.78125       0.96082       0.98976    1290.73438    -999.25000
    6660.50000       0.19637       6.42260       5.62446       5.28266       5.03766       4.63134       9.98473      17.50000      -9.02126       8.47874       8.46980       8.51653       8.42307    2718.50000      66.30379       0.16036       0.11294       2.06652       2.44798       0.12244       0.13560       0.40769      69.97266     125.18938       0.34310       1.78912       0.94611       0.99087    1292.32471    -999.25000
    6661.00000       0.19671       7.17243       6.31390       5.88634       5.62223       5.17659      12.65495      17.50000      -8.97684       8.52316       8.49646       8.54030       8.45263    2661.80005      70.09790       0.15636       0.09986       2.02601       2.48103       0.10241       0.12869       0.42114      69.02092     123.67412       0.34356       1.79184       0.95339       0.98463    1295.08557    -999.25000
    6661.50000       0.19443       6.23379       5.45947       5.06436       4.82949       4.46736      11.58349      17.50000      -8.97684       8.52316       8.50848       8.55148       8.46549    2712.50000      73.61729       0.16126       0.11453       2.00859       2.49124       0.09622       0.12888       0.45325      69.04690     122.92853       0.34153       1.78036       0.91419       0.98116    1298.37378    -999.25000
    6662.00000       0.19396       5.61493       4.90094       4.56936       4.34397       4.02738      10.69552      17.50000      -8.97684       8.52316       8.50764       8.56264       8.45263    2709.00000      73.90137       0.17782       0.12383       2.01020       2.47552       0.10574       0.13948       0.44820      70.50634     122.99217       0.33492       1.74441       0.92260       0.92907    1300.54248    -999.25000
    6662.50000       0.18221       3.26312       2.82933       2.64646       2.49710       2.32772       7.20481      17.50000      -8.99905       8.50095       8.48980       8.53985       8.43976    2824.75000      67.13214       0.20326       0.13331       1.98484       2.44582       0.12375       0.15940       0.40898      73.24943     123.98986       0.32466       1.69271       0.89083       0.89452    1301.37915    -999.25000
    6663.00000       0.17411       2.26445       1.95865       1.82899       1.72159       1.60094       5.03652      17.50000      -9.02126       8.47874       8.48348       8.53985       8.42711    2817.60010      60.93979       0.22017       0.17400       1.93564       2.41591       0.14187       0.17749       0.33930      75.74088     125.76546       0.31778       1.66047       0.88185       0.92972    1301.63416    -999.25000
    6663.50000       0.17970       3.01518       2.63214       2.44660       2.30054       2.13407       4.59637      17.50000      -9.01016       8.48984       8.48173       8.52772       8.43574    2778.50000      53.99248       0.21909       0.19187       1.88451       2.39843       0.15247       0.18634       0.30822      76.95950     127.72398       0.31761       1.65963       0.85700       0.95562    1302.26660    -999.25000
    6664.00000       0.18293       3.37358       2.97870       2.76170       2.59741       2.40364       4.90848      17.50000      -9.02126       8.47874       8.46649       8.50587       8.42711    2712.00000      52.21457       0.21094       0.14762       1.86325       2.39335       0.15554       0.18568       0.29892      76.86864     129.70901       0.32359       1.68741       0.88198       0.97707    1303.92249    -999.25000
    6664.50000       0.18125       3.01890       2.68577       2.48775       2.34434       2.16153       5.85760      17.50000      -9.03237       8.46763       8.46090       8.49468       8.42711    2738.00024      51.49248       0.20711       0.14805       1.86564       2.37970       0.16382       0.18157       0.30577      76.30219     132.15759       0.33260       1.73203       0.91296       0.97039    1306.50647    -999.25000
    6665.00000       0.17772       2.78729       2.48663       2.29879       2.17846       2.00219       5.07705      17.50000      -9.04348       8.45652       8.44696       8.47085       8.42307    2734.40015      48.72212       0.22122       0.16757       1.87183       2.35343       0.17974       0.18615       0.31766      76.93301     135.02393       0.33699       1.75508       0.93158       0.91529    1310.12659    -999.25000
    6665.50000       0.16967       2.08542       1.83896       1.71678       1.62861       1.49289       4.34896      17.50000      -9.04348       8.45652       8.45508       8.48305       8.42711    2724.96533      47.61816       0.23051       0.18438       1.89080       2.31319       0.20413       0.20561       0.29648      79.61266     137.68169       0.33212       1.72939       0.94015       0.92162    1313.49768    -999.25000
    6666.00000       0.16478       1.87210       1.63960       1.55192       1.47374       1.34727       3.53618      17.50000      -9.06569       8.43431       8.45762       8.48929       8.42595    2726.20947      47.06586       0.24174       0.21131       1.88785       2.30761       0.20751       0.22513       0.27137      82.29989     139.68292       0.32569       1.69724       0.92976       0.94883    1316.60400    -999.25000
