~VERSION
 VERS.        2.00                                                                   :CWLS LOG ASCII STANDARD
 WRAP.        NO                                                                     :NO WRAP PERFORMED
 PROD.        Schlumberger                                                           :LAS Producer
 CREA.        11/7/2012                                     :LAS Creation Date and time
~Well
#MNEM.UNIT    VALUE                                                                   :DESCRIPTION
#----.----    ---------------                                                        :-------------------
 STRT.F       5061.000                                                               :START DEPTH
 STOP.F       7239.000                                                               :STOP  DEPTH
 STEP.F       0.500                                                                  :DEPTH STEP
 NULL.        -999.250                                                               :NULL VALUE
 COMP.        ADM COMPANY                                   :COMPANY NAME
 WELL.        Verification Well #2                          :WELL NAME
 FLD.         Wildcat                                       :FIELD NAME
 API.         121152355200                                                           :API NUMBER
 CNTY.        Macon                                                                  :COUNTY
 STAT.        Illinois                                                               :STATE
 CTRY.        US                                                                     :COUNTRY
 LOC.         Lat: 39.8922313 Long: -88.8924449                                      :WELL SURFACE LOCATION LINE 1
 LOC2.        248' South and 233' East From NW corner of the                         :WELL SURFACE LOCATION LINE 2
 LOC3.        NW/4, of the NE/4, of the NW/4, of Section 32                          :WELL SURFACE LOCATION LINE 3
 SECT.        32                                                                     :SECTION
 TOWN.        17 North                                                               :TOWNSHIP
 RANG.        3 East                                                                 :RANGE
 LATI.        39.892231 degrees                                                      :Latitude
 LONG.        -88.892444 degrees                                                     :Longitude
 DATE.        2012/10/31                                                             :LOGGING DATE
 SRVC.        Schlumberger                                                           :SERVICE COMPANY
~Parameter
#MNEM.UNIT    VALUE                                                                  :DESCRIPTION
#----.----    ---------------                                                        :-------------------
 APD.F        17.000                                                                 :Elevation of depth reference above permanent datum
 EDF.F        -999.250                                                               :Elevation of Derrick Floor
 EGL.F        686.500                                                                :Elevation of Ground Level
 EKB.F        703.500                                                                :Elevation of Kelly Bushing
 EPD.F        686.500                                                                :Elevation of Permnaent Datum
 LMF.         Kelly Bushing                                                          :Logging Measured From
 PDAT.        Ground Level                                                           :Permanent Datum
 TDD.F        7225.000                                                               :Total Depth Driller
 TDL.F        7223.000                                                               :Total Depth Logger
 BS.IN        8.500                                                                  :Bit Size
 R1.          TOOLSTRING RAN AS PER TOOL SKETCH                                      :REMARK 1
 R2.          PRESENTATIONS AS PER CLIENT REQUEST                                    :REMARK 2
 R3.          WELL LOCATION UPDATED FROM SURFACE LOGS                                :REMARK 3
 R4.          THANK YOU FOR CHOOSING SCHLUMBERGER!                                   :REMARK 4
 R5.          CREW: B. DOUGLAS & R. VAUGHAN                                          :REMARK 5
 R6.                                                                                 :REMARK 6
 R7.                                                                                 :REMARK 7
 R8.                                                                                 :REMARK 8
 R9.                                                                                 :REMARK 9
 R10.                                                                                :REMARK 10
 DCS_CENTER.  Denver                                                                 :Schlumberger DCS Center
 LOG_ANALYST. Schroer                                                                :Log Analyst Name
 ENG.         Beth DiBella                                                           :Field Engineer Name
 GF_BASELINE. 45                                                                     :GeoFrame Baseline
~Curve
#MNEM.UNIT                                                                           :DESCRIPTION
#----.----                                                                           :--------------------------------
 DEPT.F                                                                              :Depth Index
 RLA0.OHMM                                                                           : 1 Apparent Resistivity from Computed Focusing Mode 0                                        
 RLA1.OHMM                                                                           : 2 Apparent Resistivity from Computed Focusing Mode 1                                        
 RLA2.OHMM                                                                           : 3 Apparent Resistivity from Computed Focusing Mode 2                                        
 RLA3.OHMM                                                                           : 4 Apparent Resistivity from Computed Focusing Mode 3                                        
 RLA4.OHMM                                                                           : 5 Apparent Resistivity from Computed Focusing Mode 4                                        
 RLA5.OHMM                                                                           : 6 Apparent Resistivity from Computed Focusing Mode 5                                        
 RXOZ.OHMM                                                                           : 7 Invaded Formation Resistivity filtered at 18 inches                                       
 BS.IN                                                                               : 8 Bit Size                                                                                  
 DCAL.IN                                                                             : 9 Differential Caliper                                                                      
 HCAL.IN                                                                             :10 HRCC Caliper Calibrated                                                                   
 HDAR.IN                                                                             :11 Hole Diameter from Area                                                                   
 HD1_PPC1.IN                                                                         :12 PPC1 Hole Diameter 1                                                                      
 HD2_PPC1.IN                                                                         :13 PPC1 Hole Diameter 2                                                                      
 TENS.LBS                                                                            :14 Cable Tension                                                                             
 GR_EDTC.GAPI                                                                        :15 Gamma Ray                                                                                 
 NPHI.CFCF                                                                           :16 Thermal Neutron Porosity (original Ratio Method) in Selected Lithology                    
 NPOR.CFCF                                                                           :17 Enhanced Thermal Neutron Porosity in Selected Lithology                                   
 PEFZ.                                                                               :18 HRDD Standard Resolution Formation Photoelectric Factor                                   
 RHOZ.G/C3                                                                           :19 HRDD Standard Resolution Formation Density                                                
 DPHZ.CFCF                                                                           :20 Standard Resolution Density Porosity                                                      
 SPHI.CFCF                                                                           :21 Sonic Porosity                                                                            
 VCL_HILT.CFCF                                                                       :22 Volume of Clay type Material relative to Total Volume                                     
 DTCO.US/FT                                                                          :23 Delta-T Compressional                                                                     
 DTSM.US/FT                                                                          :24 Delta-T Shear                                                                             
 PR.                                                                                 :25 Poisson Ratio                                                                             
 VPVS.                                                                               :26 Compressional to Shear Velocity Ratio                                                     
 CHR_FAST.                                                                           :27 Peak Coherence, Receiver Array - FAST                                                     
 CHRP.                                                                               :28 Label Peak Coherence, Receiver Array, Compressional - Monopole P&S                        
 TICO.US                                                                             :29 Compressional Integrated Transit Time Channel                                             
 FLAG.                                                                               :30 General Indicator Flag                                                                    
~Ascii   DEPT          RLA0          RLA1          RLA2          RLA3          RLA4          RLA5          RXOZ            BS          DCAL          HCAL          HDAR      HD1_PPC1      HD2_PPC1          TENS       GR_EDTC          NPHI          NPOR          PEFZ          RHOZ          DPHZ          SPHI      VCL_HILT          DTCO          DTSM            PR          VPVS      CHR_FAST          CHRP          TICO          FLAG
# ...
    7084.50000       0.17793       9.44348       8.26011       7.82723       7.45959       6.98036      12.22958      17.50000      -8.62144       8.87856       8.82752       8.92644       8.72859    2961.25024      74.26839       0.18661       0.14171       1.97303       2.55718       0.05625       0.09759       0.51264      64.73868     102.12865       0.29783       1.57755       0.97880       0.97089    1118.75781    -999.25000
    7085.00000       0.18144      12.56194      11.20800      10.56819      10.19756       9.56682      11.34203      17.50000      -8.63254       8.86746       8.83051       8.91590       8.74511    3068.50000      71.98647       0.19844       0.15163       1.93993       2.54732       0.06223       0.10161       0.44461      65.29150     101.72287       0.29270       1.55798       0.97814       0.98674    1114.97473    -999.25000
    7085.50000       0.18264      11.87838      10.82692      10.20424       9.96286       9.38721      15.00545      17.50000      -8.66586       8.83414       8.79379       8.89325       8.69434    3008.25024      64.93064       0.18861       0.14152       1.94904       2.54441       0.06399       0.09651       0.39178      64.58876     101.34377       0.29562       1.56906       0.98886       0.98410    1111.48743    -999.25000
    7086.00000       0.18202      10.08389       9.16185       8.71941       8.44013       7.96043      17.59199      17.50000      -8.69918       8.80082       8.77836       8.87121       8.68551    2936.00000      55.13119       0.16755       0.13396       1.94728       2.53923       0.06714       0.08857       0.33245      63.49643     100.33349       0.29848       1.58014       0.97989       0.98341    1108.05298    -999.25000
    7086.50000       0.18424      12.29957      11.30847      10.98465      10.51994       9.91189      16.23453      17.50000      -8.71029       8.78971       8.74498       8.85904       8.63091    3020.75000      44.59242       0.14244       0.10352       1.92896       2.53762       0.06811       0.08077       0.29054      62.42137      98.61829       0.29839       1.57988       0.98957       0.98383    1104.22266    -999.25000
    7087.00000       0.18739      16.08870      15.06603      14.92128      14.17025      13.35070      15.65906      17.50000      -8.74361       8.75639       8.72509       8.83570       8.61447    3045.50000      39.91435       0.12559       0.08130       1.88969       2.54851       0.06151       0.07330       0.24167      61.39339      97.20635       0.29925       1.58334       0.98858       0.99191    1099.61938    -999.25000
    7087.50000       0.19010      19.05684      18.58634      18.58832      17.69239      16.57256      18.79605      17.50000      -8.75471       8.74529       8.72229       8.81367       8.63091    3024.75000      40.46309       0.11802       0.07865       1.84821       2.56841       0.04945       0.06561       0.21061      60.33393      96.67529       0.30399       1.60234       0.99065       0.98509    1094.14880    -999.25000
    7088.00000       0.19179      23.46332      23.56707      23.35167      22.53721      20.98444      27.37601      17.50000      -8.77693       8.72307       8.68625       8.77985       8.59265    3019.25024      39.42246       0.10704       0.06713       1.84765       2.57386       0.04615       0.05930       0.16565      59.46516      96.22316       0.30781       1.61814       0.98807       0.98402    1089.00598    -999.25000
    7088.50000       0.19326      29.47760      29.61139      29.74947      29.16108      27.17736      38.94079      17.50000      -8.79914       8.70086       8.67994       8.77985       8.58004    3143.00000      34.19320       0.09313       0.05552       1.85119       2.57762       0.04387       0.05603       0.16739      59.01537      95.58062       0.30814       1.61959       0.98826       0.98729    1084.86621    -999.25000
    7089.00000       0.19209      19.76354      18.88566      19.17015      18.83237      17.68130      39.56590      17.50000      -8.84356       8.65644       8.66722       8.77985       8.55458    3027.25000      31.57266       0.08765       0.04664       1.86037       2.59238       0.03492       0.05552       0.15281      58.94514      95.03456       0.30638       1.61225       0.98403       0.98841    1081.48145    -999.25000
    7089.50000       0.19131      15.52289      14.35017      14.44585      14.41833      13.64481      31.64392      17.50000      -8.82135       8.67865       8.63177       8.73443       8.52911    3116.74976      30.45254       0.09029       0.05537       1.85420       2.59398       0.03395       0.05613       0.19763      59.02961      94.72909       0.30456       1.60477       0.98599       0.99025    1078.34888    -999.25000
    7090.00000       0.19209      15.07483      13.74672      13.59299      13.74922      13.11710      24.62338      17.50000      -8.86578       8.63422       8.63738       8.73443       8.54033    2959.33325      31.40141       0.09521       0.06443       1.84671       2.59122       0.03562       0.05610       0.17005      59.02440      94.67562       0.30437       1.60401       0.98820       0.99489    1074.86951    -999.25000
    7090.50000       0.19285      15.65846      14.21091      13.89108      14.09104      13.60329      23.06198      17.50000      -8.87688       8.62312       8.62376       8.72542       8.52209    2996.33350      30.33106       0.09409       0.05854       1.83041       2.57830       0.04345       0.05590       0.16178      58.99801      94.72696       0.30476       1.60560       0.98855       0.99566    1070.94128    -999.25000
    7091.00000       0.19347      17.12235      15.69392      15.24712      15.37803      14.98352      23.87705      17.50000      -8.86578       8.63422       8.61258       8.70026       8.52490    3036.00000      29.69963       0.09171       0.04824       1.82597       2.57928       0.04286       0.05600       0.11213      59.01093      94.53069       0.30386       1.60192       0.98814       0.99574    1066.67285    -999.25000
    7091.50000       0.19555      21.87664      20.35006      19.63688      19.63412      19.31600      27.30434      17.50000      -8.91020       8.58980       8.60553       8.68897       8.52209    3043.33325      28.63569       0.08736       0.05668       1.81388       2.58569       0.03898       0.05607       0.11823      59.02089      94.23837       0.30257       1.59670       0.99061       0.99568    1062.17578    -999.25000
    7092.00000       0.19697      24.46823      22.98057      22.14364      21.74413      21.71993      33.33802      17.50000      -8.88799       8.61201       8.59481       8.67886       8.51076    3020.66675      28.13665       0.08506       0.04964       1.81168       2.58043       0.04216       0.05589       0.09260      58.99652      93.90201       0.30130       1.59165       0.98865       0.99532    1057.33154    -999.25000
    7092.50000       0.19768      24.37773      22.85757      22.29431      21.59382      21.85041      39.13360      17.50000      -8.93241       8.56759       8.58379       8.66264       8.50494    2954.25000      27.21584       0.08781       0.04567       1.81262       2.57010       0.04842       0.05546       0.09188      58.93697      93.74100       0.30102       1.59053       0.99312       0.99477    1052.27722    -999.25000
    7093.00000       0.19854      25.61190      23.94094      23.55256      22.70264      23.15299      39.27378      17.50000      -8.91020       8.58980       8.57832       8.65280       8.50384    3104.16675      24.36447       0.08838       0.05084       1.81469       2.56065       0.05415       0.05491       0.07132      58.86134      93.56602       0.30078       1.58960       0.98975       0.99449    1047.67212    -999.25000
    7093.50000       0.19929      25.71063      23.85667      23.41167      22.67352      23.24727      38.69814      17.50000      -8.94352       8.55648       8.56642       8.64347       8.48937    3219.58325      22.64606       0.08447       0.05449       1.80528       2.57257       0.04692       0.05448       0.07860      58.80208      93.41433       0.30054       1.58862       0.99079       0.99468    1043.93860    -999.25000
