~VERSION
 VERS.        2.00                                                                   :CWLS LOG ASCII STANDARD
 WRAP.        NO                                                                     :NO WRAP PERFORMED
 PROD.        Schlumberger                                                           :LAS Producer
 CREA.        Thu Dec  9 10:53:02 2010                                               :LAS Creation Date and time
~Well
#MNEM.UNIT    VALUE                                                                   :DESCRIPTION
#----.----    ---------------                                                        :-------------------
 STRT.F       7228.000                                                               :START DEPTH
 STOP.F       5250.000                                                               :STOP  DEPTH
 STEP.F       -0.500                                                                 :DEPTH STEP
 NULL.        -999.250                                                               :NULL VALUE
 COMP.        ADM COMPANY                                                            :COMPANY NAME
 WELL.        VERIFICATION WELL 1                                                    :WELL NAME
 FLD.         WILDCAT                                                                :FIELD NAME
 API.         121152346000                                                           :API NUMBER
 CNTY.        MACON                                                                  :COUNTY
 STAT.        ILLINOIS                                                               :STATE
 CTRY.        US                                                                     :COUNTRY
 LOC.         LAT 39* 52' 47.3" N                                                    :WELL SURFACE LOCATION LINE 1
 LOC2.        LONG 88* 53' 36.1"                                                     :WELL SURFACE LOCATION LINE 2
 LOC3.        605' N & 1175' E OF SW CORNER                                          :WELL SURFACE LOCATION LINE 3
 SECT.        32                                                                     :SECTION
 TOWN.        17 NORTH                                                               :TOWNSHIP
 RANG.        3 EAST                                                                 :RANGE
 LATI.                                                                               :Latitude
 LONG.                                                                               :Longitude
 DATE.        11/16/2010                                                             :LOGGING DATE
 SRVC.        Schlumberger                                                           :SERVICE COMPANY
~Parameter
#MNEM.UNIT    VALUE                                                                  :DESCRIPTION
#----.----    ---------------                                                        :-------------------
 APD.F        15.000                                                                 :Elevation of depth reference above permanent datum
 EDF.F        683.000                                                                :Elevation of Derrick Floor
 EGL.F        669.000                                                                :Elevation of Ground Level
 EKB.F        684.000                                                                :Elevation of Kelly Bushing
 EPD.F        669.000                                                                :Elevation of Permnaent Datum
 LMF.         Kelly Bushing                                                          :Logging Measured From
 PDAT.        Ground Level                                                           :Permanent Datum
 TDD.F        7264.000                                                               :Total Depth Driller
 TDL.F        7272.000                                                               :Total Depth Logger
 BS.IN        8.500                                                                  :Bit Size
 R1.                                                                                 :REMARK 1
 R2.                                                                                 :REMARK 2
 R3.                                                                                 :REMARK 3
 R4.                                                                                 :REMARK 4
 R5.                                                                                 :REMARK 5
 R6.                                                                                 :REMARK 6
 R7.                                                                                 :REMARK 7
 R8.                                                                                 :REMARK 8
 R9.                                                                                 :REMARK 9
 R10.                                                                                :REMARK 10
 DCS_CENTER.  Denver                                                                 :Schlumberger DCS Center
 LOG_ANALYST. Becker                                                                 :Log Analyst Name
 ENG.         D. HUNTER / M. WINTER                                                  :Field Engineer Name
 GF_BASELINE. GF45LNX                                                                :GeoFrame Baseline
~Curve
#MNEM.UNIT                                                                           :DESCRIPTION
#----.----                                                                           :--------------------------------
 DEPT.F                                                                              :Depth Index
 RLA1.OHMM                                                                           : 1 Apparent Resistivity from Computed Focusing Mode 1                                        
 RLA2.OHMM                                                                           : 2 Apparent Resistivity from Computed Focusing Mode 2                                        
 RLA3.OHMM                                                                           : 3 Apparent Resistivity from Computed Focusing Mode 3                                        
 RLA4.OHMM                                                                           : 4 Apparent Resistivity from Computed Focusing Mode 4                                        
 RLA5.OHMM                                                                           : 5 Apparent Resistivity from Computed Focusing Mode 5                                        
 BS.IN                                                                               : 6 Bit Size                                                                                  
 HCAL.IN                                                                             : 7 HRCC Caliper Calibrated                                                                   
 HDAR.IN                                                                             : 8 Hole Diameter from Area                                                                   
 HD1_PPC1.IN                                                                         : 9 PPC1 Hole Diameter 1                                                                      
 HD2_PPC1.IN                                                                         :10 PPC1 Hole Diameter 2                                                                      
 TENS.LBS                                                                            :11 Cable Tension                                                                             
 GR_EDTC.GAPI                                                                        :12 Gamma Ray                                                                                 
 NPHI.CFCF                                                                           :13 Thermal Neutron Porosity (original Ratio Method) in Selected Lithology                    
 NPOR.CFCF                                                                           :14 Enhanced Thermal Neutron Porosity in Selected Lithology                                   
 PEFZ.                                                                               :15 HRDD Standard Resolution Formation Photoelectric Factor                                   
 RHOZ.G/C3                                                                           :16 HRDD Standard Resolution Formation Density                                                
 DPHZ.CFCF                                                                           :17 Standard Resolution Density Porosity                                                      
 SPHI.CFCF                                                                           :18 Sonic Porosity                                                                            
 VCL_HILT.CFCF                                                                       :19 Volume of Clay type Material relative to Total Volume                                     
 DTCO.US/FT                                                                          :20 Delta-T Compressional                                                                     
 DTSM_FAST.US/FT                                                                     :21 Shear Slowness of Fast Shear Waves                                                        
 DTST.US/FT                                                                          :22 Delta-T Stoneley - Monopole Stoneley                                                      
 PR_FAST.                                                                            :23 Poisson Ratio of Fast Shear Waves                                                         
 VPVS_FAST.                                                                          :24 Vp/Vs Ration of fast shear waves                                                          
 MAXXENE_OVERALL.                                                                    :25 Overall estimate of maximum cross energy                                                  
 MINXENE_OVERALL.                                                                    :26 Overall estimate of minimum cross energy                                                  
 FLAG.                                                                               :27 General Indicator Flag(Bad Borehole)                                                                    
~Ascii   DEPT          RLA1          RLA2          RLA3          RLA4          RLA5            BS          HCAL          HDAR      HD1_PPC1      HD2_PPC1          TENS       GR_EDTC          NPHI          NPOR          PEFZ          RHOZ          DPHZ          SPHI      VCL_HILT          DTCO     DTSM_FAST          DTST       PR_FAST     VPVS_FAST  MAXXENE_OVER  MINXENE_OVER          FLAG
# ...
    5527.00000      17.34751      15.29451      14.27406      13.47485      12.13997       8.50000       8.30967       8.40112       8.36222       8.44002    3233.64697      27.90755       0.07543       0.07168       1.96009       2.54210       0.06539       0.07073       6.55798      61.03950     102.76908     211.98367       0.22747       1.68365       3.67702       0.19637       0.00000
    5526.50000      18.06654      15.62139      14.65739      13.81817      12.34432       8.50000       8.32441       8.37947       8.36200       8.39695    3270.35303      52.21662       0.09200       0.09018       2.06136       2.53745       0.06821       0.07769      22.02306      61.99778     103.71676     212.52222       0.22201       1.67291       3.42948       0.17813       0.00000
    5526.00000      18.95657      16.70076      15.67112      14.77269      13.16415       8.50000       8.30229       8.35517       8.33914       8.37121    3176.64722      81.96725       0.11443       0.13721       2.26293       2.52844       0.07367       0.08483      49.79544      62.98128     104.70972     212.66273       0.21657       1.66255       3.17194       0.17407       0.00000
    5525.50000      21.99188      19.97639      18.73001      17.64100      15.73870       8.50000       8.30967       8.35097       8.33938       8.36257    3130.29419     106.17277       0.13168       0.14628       2.48340       2.53103       0.07210       0.08915      71.23800      63.57620     105.40710     212.51834       0.21410       1.65796       2.85570       0.16998       0.00000
    5525.00000      26.40933      24.35383      22.77202      21.54796      19.30927       8.50000       8.28755       8.35097       8.33938       8.36257    3176.88892     109.10091       0.12279       0.12773       2.65317       2.53420       0.07018       0.08935      75.98236      63.60383     105.75769     212.16220       0.21668       1.66276       2.52620       0.16509       0.00000
    5524.50000      42.82507      39.49337      38.00990      35.24734      32.07758       8.50000       8.26911       8.34789       8.35043       8.34534    3187.82349     122.81122       0.10126       0.08073       2.65726       2.54870       0.06140       0.08749      65.61832      63.34764     105.99995     211.82463       0.22221       1.67331       2.22937       0.16208       0.00000
    5524.00000      41.79004      37.26226      36.03054      33.85597      30.48763       8.50000       8.28017       8.34448       8.33938       8.34958    3186.05884     135.21858       0.10000       0.08770       2.56981       2.55363       0.05840       0.08832      68.18001      63.46167     105.92346     211.80742       0.22002       1.66909       1.96463       0.15946       0.00000
    5523.50000      23.47673      20.99331      20.32888      18.91420      17.15717       8.50000       8.28017       8.34887       8.33941       8.35833    3197.11768     158.53685       0.12956       0.15747       2.56337       2.52996       0.07275       0.09399      84.40662      64.24284     106.32288     212.12439       0.21249       1.65502       1.71591       0.15619       0.00000
    5523.00000      17.28992      15.40715      14.68417      13.78886      12.57634       8.50000       8.29123       8.33659       8.32784       8.34534    3242.70581     166.93991       0.15537       0.19187       2.61876       2.49819       0.09201       0.10027     100.00000      65.10667     106.99730     212.47015       0.20602       1.64342       1.50537       0.15506       0.00000
    5522.50000      15.97636      13.97078      13.05557      12.38270      11.29630       8.50000       8.27280       8.33659       8.32784       8.34534    3172.52954     171.52126       0.14931       0.13251       2.63165       2.49426       0.09439       0.10123     100.00000      65.23941     107.68006     212.36253       0.21002       1.65054       1.36606       0.15619       0.00000
    5522.00000      35.22605      30.62596      28.72918      27.21064      25.07218       8.50000       8.28017       8.36011       8.36200       8.35822    3200.23535     182.28256       0.13726       0.11711       2.65348       2.51159       0.08389       0.09749     100.00000      64.72447     108.03868     211.64511       0.22009       1.66921       1.25360       0.15661       0.00000
    5521.50000      31.23013      27.28038      25.35806      24.27820      22.29811       8.50000       8.27280       8.37304       8.36200       8.38408    3181.88232     195.99895       0.13344       0.13665       2.74559       2.53965       0.06688       0.09230     100.00000      64.00950     108.31635     210.85590       0.23169       1.69219       1.10503       0.15693       0.00000
    5521.00000      22.42485      20.19357      18.80726      17.89962      16.63587       8.50000       8.27280       8.34303       8.32784       8.35822    3167.47070     188.66243       0.13096       0.14500       2.93704       2.55276       0.05893       0.08693     100.00000      63.27060     108.72154     210.12668       0.24395       1.71836       0.99722       0.16190       0.00000
    5520.50000      31.40118      28.56426      26.51840      25.07460      23.49679       8.50000       8.26911       8.33080       8.31626       8.34534    3159.41187     184.54271       0.11182       0.10352       2.97454       2.58512       0.03932       0.07942     100.00000      62.23573     108.30364     209.39928       0.25349       1.74022       1.02283       0.16810       0.00000
    5520.00000      60.83348      54.50628      53.79791      50.34637      47.68932       8.50000       8.25805       8.33080       8.31626       8.34534    3175.88257     178.52994       0.09919       0.09129       2.95295       2.60844       0.02519       0.07191     100.00000      61.20227     108.63419     208.85188       0.26751       1.77500       1.19629       0.17455       0.00000
    5519.50000      60.31925      53.79147      52.04862      49.90817      46.75507       8.50000       8.27280       8.33080       8.31626       8.34534    3144.52954     197.11203       0.10226       0.11246       2.95682       2.61441       0.02157       0.07109     100.00000      61.08949     108.32307     208.80481       0.26681       1.77319       1.53028       0.17917       0.00000
    5519.00000      40.33634      36.54539      35.13199      33.50417      31.29081       8.50000       8.25805       8.32431       8.31626       8.33235    3180.47070     203.98193       0.11312       0.12707       3.11332       2.58733       0.03798       0.07740     100.00000      61.95826     108.39949     209.18254       0.25739       1.74956       1.80644       0.17957       0.00000
    5518.50000      30.76073      27.36550      26.26286      25.18523      23.71115       8.50000       8.25805       8.30637       8.29338       8.31936    3192.82349     178.63850       0.10685       0.12288       3.18783       2.56276       0.05287       0.08497     100.00000      63.00048     108.47357     209.60619       0.24549       1.72179       1.90389       0.18133       0.00000
    5518.00000      33.88438      30.04406      28.40237      27.30180      25.66094       8.50000       8.28017       8.30876       8.29367       8.32385    3143.58838     135.14366       0.09022       0.09251       3.08002       2.54749       0.06213       0.08494      98.19277      62.99557     107.89742     209.72015       0.24142       1.71278       1.90933       0.18392       0.00000
    5517.50000      35.79876      32.19014      30.74264      29.39514      27.50944       8.50000       8.25805       8.30077       8.28207       8.31947    3168.47070      83.58371       0.08394       0.07735       2.80932       2.54535       0.06342       0.07705      56.73663      61.90990     106.80772     209.62054       0.24701       1.72521       2.15835       0.18528       0.00000
    5517.00000      30.30710      27.20219      25.86368      24.65571      23.11049       8.50000       8.25068       8.31287       8.29338       8.33235    3208.47070      71.81199       0.10252       0.09892       2.60054       2.55298       0.05880       0.06951      45.23903      60.87092     106.39447     209.60484       0.25670       1.74787       2.57469       0.18456       0.00000
