~VERSION
 VERS.        2.00                                                                   :CWLS LOG ASCII STANDARD
 WRAP.        NO                                                                     :NO WRAP PERFORMED
 PROD.        Schlumberger                                                           :LAS Producer
 CREA.        Thu Dec  9 10:53:02 2010                                               :LAS Creation Date and time
~Well
#MNEM.UNIT    VALUE                                                                   :DESCRIPTION
#----.----    ---------------                                                        :-------------------
 STRT.F       7228.000                                                               :START DEPTH
 STOP.F       5250.000                                                               :STOP  DEPTH
 STEP.F       -0.500                                                                 :DEPTH STEP
 NULL.        -999.250                                                               :NULL VALUE
 COMP.        ADM COMPANY                                                            :COMPANY NAME
 WELL.        VERIFICATION WELL 1                                                    :WELL NAME
 FLD.         WILDCAT                                                                :FIELD NAME
 API.         121152346000                                                           :API NUMBER
 CNTY.        MACON                                                                  :COUNTY
 STAT.        ILLINOIS                                                               :STATE
 CTRY.        US                                                                     :COUNTRY
 LOC.         LAT 39* 52' 47.3" N                                                    :WELL SURFACE LOCATION LINE 1
 LOC2.        LONG 88* 53' 36.1"                                                     :WELL SURFACE LOCATION LINE 2
 LOC3.        605' N & 1175' E OF SW CORNER                                          :WELL SURFACE LOCATION LINE 3
 SECT.        32                                                                     :SECTION
 TOWN.        17 NORTH                                                               :TOWNSHIP
 RANG.        3 EAST                                                                 :RANGE
 LATI.                                                                               :Latitude
 LONG.                                                                               :Longitude
 DATE.        11/16/2010                                                             :LOGGING DATE
 SRVC.        Schlumberger                                                           :SERVICE COMPANY
~Parameter
#MNEM.UNIT    VALUE                                                                  :DESCRIPTION
#----.----    ---------------                                                        :-------------------
 APD.F        15.000                                                                 :Elevation of depth reference above permanent datum
 EDF.F        683.000                                                                :Elevation of Derrick Floor
 EGL.F        669.000                                                                :Elevation of Ground Level
 EKB.F        684.000                                                                :Elevation of Kelly Bushing
 EPD.F        669.000                                                                :Elevation of Permnaent Datum
 LMF.         Kelly Bushing                                                          :Logging Measured From
 PDAT.        Ground Level                                                           :Permanent Datum
 TDD.F        7264.000                                                               :Total Depth Driller
 TDL.F        7272.000                                                               :Total Depth Logger
 BS.IN        8.500                                                                  :Bit Size
 R1.                                                                                 :REMARK 1
 R2.                                                                                 :REMARK 2
 R3.                                                                                 :REMARK 3
 R4.                                                                                 :REMARK 4
 R5.                                                                                 :REMARK 5
 R6.                                                                                 :REMARK 6
 R7.                                                                                 :REMARK 7
 R8.                                                                                 :REMARK 8
 R9.                                                                                 :REMARK 9
 R10.                                                                                :REMARK 10
 DCS_CENTER.  Denver                                                                 :Schlumberger DCS Center
 LOG_ANALYST. Becker                                                                 :Log Analyst Name
 ENG.         D. HUNTER / M. WINTER                                                  :Field Engineer Name
 GF_BASELINE. GF45LNX                                                                :GeoFrame Baseline
~Curve
#MNEM.UNIT                                                                           :DESCRIPTION
#----.----                                                                           :--------------------------------
 DEPT.F                                                                              :Depth Index
 RLA1.OHMM                                                                           : 1 Apparent Resistivity from Computed Focusing Mode 1                                        
 RLA2.OHMM                                                                           : 2 Apparent Resistivity from Computed Focusing Mode 2                                        
 RLA3.OHMM                                                                           : 3 Apparent Resistivity from Computed Focusing Mode 3                                        
 RLA4.OHMM                                                                           : 4 Apparent Resistivity from Computed Focusing Mode 4                                        
 RLA5.OHMM                                                                           : 5 Apparent Resistivity from Computed Focusing Mode 5                                        
 BS.IN                                                                               : 6 Bit Size                                                                                  
 HCAL.IN                                                                             : 7 HRCC Caliper Calibrated                                                                   
 HDAR.IN                                                                             : 8 Hole Diameter from Area                                                                   
 HD1_PPC1.IN                                                                         : 9 PPC1 Hole Diameter 1                                                                      
 HD2_PPC1.IN                                                                         :10 PPC1 Hole Diameter 2                                                                      
 TENS.LBS                                                                            :11 Cable Tension                                                                             
 GR_EDTC.GAPI                                                                        :12 Gamma Ray                                                                                 
 NPHI.CFCF                                                                           :13 Thermal Neutron Porosity (original Ratio Method) in Selected Lithology                    
 NPOR.CFCF                                                                           :14 Enhanced Thermal Neutron Porosity in Selected Lithology                                   
 PEFZ.                                                                               :15 HRDD Standard Resolution Formation Photoelectric Factor                                   
 RHOZ.G/C3                                                                           :16 HRDD Standard Resolution Formation Density                                                
 DPHZ.CFCF                                                                           :17 Standard Resolution Density Porosity                                                      
 SPHI.CFCF                                                                           :18 Sonic Porosity                                                                            
 VCL_HILT.CFCF                                                                       :19 Volume of Clay type Material relative to Total Volume                                     
 DTCO.US/FT                                                                          :20 Delta-T Compressional                                                                     
 DTSM_FAST.US/FT                                                                     :21 Shear Slowness of Fast Shear Waves                                                        
 DTST.US/FT                                                                          :22 Delta-T Stoneley - Monopole Stoneley                                                      
 PR_FAST.                                                                            :23 Poisson Ratio of Fast Shear Waves                                                         
 VPVS_FAST.                                                                          :24 Vp/Vs Ration of fast shear waves                                                          
 MAXXENE_OVERALL.                                                                    :25 Overall estimate of maximum cross energy                                                  
 MINXENE_OVERALL.                                                                    :26 Overall estimate of minimum cross energy                                                  
 FLAG.                                                                               :27 General Indicator Flag(Bad Borehole)                                                                    
~Ascii   DEPT          RLA1          RLA2          RLA3          RLA4          RLA5            BS          HCAL          HDAR      HD1_PPC1      HD2_PPC1          TENS       GR_EDTC          NPHI          NPOR          PEFZ          RHOZ          DPHZ          SPHI      VCL_HILT          DTCO     DTSM_FAST          DTST       PR_FAST     VPVS_FAST  MAXXENE_OVER  MINXENE_OVER          FLAG
# ...
    5264.50000       0.04849       0.04288       0.04133       0.04075       0.05588      12.25000       8.58984       8.66304       8.65835       8.66772    3015.41675     113.12861       0.39935       0.36166      10.00000       3.99137      -0.81295       0.18834       0.00000      77.23490     144.45396     218.02350       0.29985       1.87032       8.60427       3.29083       0.00000
    5264.00000       0.04281       0.03796       0.03656       0.03629       0.05186      12.25000       8.60090       8.67589       8.65835       8.69343    3015.41675     101.20071       0.39689       0.35646      10.00000       3.98075      -0.80652       0.17820       0.00000      75.83785     144.63588     218.00891       0.31041       1.90717       8.23656       3.09371       0.00000
    5263.50000  100000.00000  100000.00000  100000.00000  100000.00000       0.01426      12.25000       8.58984       8.67524       8.66985       8.68063    3015.41675     100.61698       0.36026       0.35533      10.00000       3.98426      -0.80864       0.17467       0.00000      75.35165     144.92175     218.08749       0.31474       1.92327       6.47724       2.24503       0.00000
    5263.00000       0.02709       0.02584       0.02631       0.02711       0.04576      12.25000       8.58984       8.67529       8.66985       8.68073    3015.41675     102.33946       0.36960       0.34222      10.00000       3.98702      -0.81032       0.17700       0.00000      75.67246     144.75288     218.24060       0.31197       1.91289       4.80858       1.46552       0.00000
    5262.50000       0.07219       0.06343       0.05981       0.05713       0.06988      12.25000       8.58984       8.68086       8.68108       8.68063    3015.41675     106.20182       0.36219       0.34281      10.00000       3.98558      -0.80945       0.18078       0.00000      76.19400     144.12440     218.11383       0.30605       1.89155       4.47966       1.42180       0.00000
    5262.00000       0.06775       0.05929       0.05596       0.05372       0.06643      12.25000       8.60459       8.66502       8.65829       8.67174    3015.41675     109.25033       0.37960       0.33995      10.00000       3.98167      -0.80708       0.17900       0.00000      75.94826     142.60695     217.36638       0.30204       1.87769       4.41413       1.42505       0.00000
    5261.50000       0.05100       0.04480       0.04283       0.04196       0.05682      12.25000       8.58984       8.67715       8.66978       8.68453    3015.41675     116.45243       0.34418       0.34465      10.00000       3.98807      -0.81095       0.16845       0.00000      74.49580     140.63484     216.20737       0.30498       1.88782       4.34488       1.45575       0.00000
    5261.00000       0.04501       0.04060       0.03897       0.03855       0.05405      12.25000       8.59721       8.67734       8.67005       8.68464    3015.41675     122.63224       0.30242       0.28823      10.00000       4.04310      -0.84431       0.15572       0.00000      72.74225     138.96469     215.44479       0.31129       1.91037       4.33230       1.53019       0.00000
    5260.50000       0.07492       0.06565       0.06118       0.05839       0.07056      12.25000       8.61196       8.67081       8.66978       8.67185    3015.41675     121.95538       0.28029       0.27430      10.00000       4.18994      -0.93330       0.15147       0.00000      72.15751     138.09875     215.54765       0.31223       1.91385       4.51222       1.59221       0.00000
    5260.00000       0.02538       0.02280       0.02336       0.02430       0.04209      12.25000       8.60090       8.66879       8.66985       8.66772    3015.41675     114.39571       0.28413       0.28343      10.00000       4.39346      -1.05664       0.15529       0.00000      72.68314     137.96251     216.58760       0.30791       1.89814       4.65876       1.62514       0.00000
    5259.50000       0.03017       0.02983       0.03053       0.03140       0.04696      12.25000       8.58984       8.67721       8.66978       8.68464    3015.41675     113.84646       0.30632       0.28358      10.00000       4.55498      -1.15453       0.16671       0.00000      74.25608     138.18077     217.67928       0.29698       1.86087       4.61958       1.70587       0.00000
    5259.00000       0.05861       0.05346       0.05216       0.05107       0.06389      12.25000       8.58984       8.67225       8.64707       8.69743    3015.41675     110.24113       0.31602       0.30515      10.00000       4.62502      -1.19698       0.17549       0.00000      75.46505     139.35056     217.77528       0.29251       1.84656       4.54527       1.81800       0.00000
    5258.50000       0.09557       0.08297       0.07691       0.07325       0.08326      12.25000       8.55666       8.66502       8.65829       8.67174    3015.41675     103.90231       0.34602       0.38354       9.97418       4.62880      -1.19927       0.17552       0.00000      75.46853     142.09464     217.02890       0.30354       1.88283       4.27962       1.99245       0.00000
    5258.00000       0.02920       0.02673       0.02665       0.02718       0.04426      12.25000       8.54560       8.64540       8.63588       8.65492    3015.41675      89.24771       0.38069       0.38981       9.97418       4.62880      -1.19927       0.16704       0.00000      74.30082     142.60207     216.11101       0.31368       1.91925       3.97841       2.22952       0.00000
    5257.50000       0.05783       0.05179       0.04893       0.04743       0.06170      12.25000       8.57509       8.65138       8.66951       8.63324    3015.41675      78.77248       0.38048       0.35526       9.97418       4.62880      -1.19927       0.15562       0.00000      72.72874     141.22658     215.88335       0.31954       1.94183       4.07660       2.37827       0.00000
    5257.00000       0.04717       0.04229       0.04074       0.04042       0.05583      12.25000       8.56772       8.66292       8.66975       8.65895    3015.41675      78.87897       0.39638       0.35901      10.00000       4.58237      -1.17113       0.15089       0.00000      72.07762     139.00780     216.08006       0.31614       1.92858       4.49636       2.47288       0.00000
    5256.50000       0.04496       0.04002       0.03875       0.03814       0.05406      12.25000       8.58247       8.65835       8.66089       8.65492    3015.41675      86.30617       0.39389       0.40487      10.00000       4.43697      -1.08301       0.15308       0.00000      72.37875     137.53172     216.13596       0.30848       1.90017       4.89389       2.62897       0.00000
    5256.00000       0.05488       0.04719       0.04529       0.04394       0.05914      12.25000       8.58984       8.65796       8.65831       8.65895    3015.41675     100.78125       0.42743       0.36819      10.00000       4.25535      -0.97294       0.16308       0.00000      73.75632     137.76416     215.89108       0.29910       1.86783       5.49686       2.88921       0.00000
    5255.50000       0.03567       0.03284       0.03204       0.03220       0.04879      12.25000       8.57509       8.66071       8.66471       8.65492    3015.41675     113.33832       0.41221       0.38643      10.00000       4.11439      -0.88751       0.17485       0.00000      75.37672     139.21149     215.32210       0.29261       1.84688       6.24016       3.22259       0.00000
    5255.00000       0.06953       0.05955       0.05642       0.05432       0.06792      12.25000       8.58984       8.65983       8.66474       8.65492    3015.41675     123.45896       0.38239       0.34677      10.00000       4.07701      -0.86486       0.18169       0.00000      76.31924     140.43137     214.93057       0.29043       1.84005       6.53041       3.58918       0.00000
    5254.50000       0.04526       0.04059       0.03920       0.03852       0.05474      12.25000       8.58984       8.65921       8.66216       8.65895    3015.41675     127.49906       0.33992       0.30510      10.00000       4.08169      -0.86769       0.18079       0.00000      76.19518     140.64691     215.12943       0.29230       1.84588       6.54618       3.93869       0.00000
