~VERSION
 VERS.        2.00                                                                   :CWLS LOG ASCII STANDARD
 WRAP.        NO                                                                     :NO WRAP PERFORMED
 PROD.        Schlumberger                                                           :LAS Producer
 CREA.        Thu Dec  9 10:53:02 2010                                               :LAS Creation Date and time
~Well
#MNEM.UNIT    VALUE                                                                   :DESCRIPTION
#----.----    ---------------                                                        :-------------------
 STRT.F       7228.000                                                               :START DEPTH
 STOP.F       5250.000                                                               :STOP  DEPTH
 STEP.F       -0.500                                                                 :DEPTH STEP
 NULL.        -999.250                                                               :NULL VALUE
 COMP.        ADM COMPANY                                                            :COMPANY NAME
 WELL.        VERIFICATION WELL 1                                                    :WELL NAME
 FLD.         WILDCAT                                                                :FIELD NAME
 API.         121152346000                                                           :API NUMBER
 CNTY.        MACON                                                                  :COUNTY
 STAT.        ILLINOIS                                                               :STATE
 CTRY.        US                                                                     :COUNTRY
 LOC.         LAT 39* 52' 47.3" N                                                    :WELL SURFACE LOCATION LINE 1
 LOC2.        LONG 88* 53' 36.1"                                                     :WELL SURFACE LOCATION LINE 2
 LOC3.        605' N & 1175' E OF SW CORNER                                          :WELL SURFACE LOCATION LINE 3
 SECT.        32                                                                     :SECTION
 TOWN.        17 NORTH                                                               :TOWNSHIP
 RANG.        3 EAST                                                                 :RANGE
 LATI.                                                                               :Latitude
 LONG.                                                                               :Longitude
 DATE.        11/16/2010                                                             :LOGGING DATE
 SRVC.        Schlumberger                                                           :SERVICE COMPANY
~Parameter
#MNEM.UNIT    VALUE                                                                  :DESCRIPTION
#----.----    ---------------                                                        :-------------------
 APD.F        15.000                                                                 :Elevation of depth reference above permanent datum
 EDF.F        683.000                                                                :Elevation of Derrick Floor
 EGL.F        669.000                                                                :Elevation of Ground Level
 EKB.F        684.000                                                                :Elevation of Kelly Bushing
 EPD.F        669.000                                                                :Elevation of Permnaent Datum
 LMF.         Kelly Bushing                                                          :Logging Measured From
 PDAT.        Ground Level                                                           :Permanent Datum
 TDD.F        7264.000                                                               :Total Depth Driller
 TDL.F        7272.000                                                               :Total Depth Logger
 BS.IN        8.500                                                                  :Bit Size
 R1.                                                                                 :REMARK 1
 R2.                                                                                 :REMARK 2
 R3.                                                                                 :REMARK 3
 R4.                                                                                 :REMARK 4
 R5.                                                                                 :REMARK 5
 R6.                                                                                 :REMARK 6
 R7.                                                                                 :REMARK 7
 R8.                                                                                 :REMARK 8
 R9.                                                                                 :REMARK 9
 R10.                                                                                :REMARK 10
 DCS_CENTER.  Denver                                                                 :Schlumberger DCS Center
 LOG_ANALYST. Becker                                                                 :Log Analyst Name
 ENG.         D. HUNTER / M. WINTER                                                  :Field Engineer Name
 GF_BASELINE. GF45LNX                                                                :GeoFrame Baseline
~Curve
#MNEM.UNIT                                                                           :DESCRIPTION
#----.----                                                                           :--------------------------------
 DEPT.F                                                                              :Depth Index
 RLA1.OHMM                                                                           : 1 Apparent Resistivity from Computed Focusing Mode 1                                        
 RLA2.OHMM                                                                           : 2 Apparent Resistivity from Computed Focusing Mode 2                                        
 RLA3.OHMM                                                                           : 3 Apparent Resistivity from Computed Focusing Mode 3                                        
 RLA4.OHMM                                                                           : 4 Apparent Resistivity from Computed Focusing Mode 4                                        
 RLA5.OHMM                                                                           : 5 Apparent Resistivity from Computed Focusing Mode 5                                        
 BS.IN                                                                               : 6 Bit Size                                                                                  
 HCAL.IN                                                                             : 7 HRCC Caliper Calibrated                                                                   
 HDAR.IN                                                                             : 8 Hole Diameter from Area                                                                   
 HD1_PPC1.IN                                                                         : 9 PPC1 Hole Diameter 1                                                                      
 HD2_PPC1.IN                                                                         :10 PPC1 Hole Diameter 2                                                                      
 TENS.LBS                                                                            :11 Cable Tension                                                                             
 GR_EDTC.GAPI                                                                        :12 Gamma Ray                                                                                 
 NPHI.CFCF                                                                           :13 Thermal Neutron Porosity (original Ratio Method) in Selected Lithology                    
 NPOR.CFCF                                                                           :14 Enhanced Thermal Neutron Porosity in Selected Lithology                                   
 PEFZ.                                                                               :15 HRDD Standard Resolution Formation Photoelectric Factor                                   
 RHOZ.G/C3                                                                           :16 HRDD Standard Resolution Formation Density                                                
 DPHZ.CFCF                                                                           :17 Standard Resolution Density Porosity                                                      
 SPHI.CFCF                                                                           :18 Sonic Porosity                                                                            
 VCL_HILT.CFCF                                                                       :19 Volume of Clay type Material relative to Total Volume                                     
 DTCO.US/FT                                                                          :20 Delta-T Compressional                                                                     
 DTSM_FAST.US/FT                                                                     :21 Shear Slowness of Fast Shear Waves                                                        
 DTST.US/FT                                                                          :22 Delta-T Stoneley - Monopole Stoneley                                                      
 PR_FAST.                                                                            :23 Poisson Ratio of Fast Shear Waves                                                         
 VPVS_FAST.                                                                          :24 Vp/Vs Ration of fast shear waves                                                          
 MAXXENE_OVERALL.                                                                    :25 Overall estimate of maximum cross energy                                                  
 MINXENE_OVERALL.                                                                    :26 Overall estimate of minimum cross energy                                                  
 FLAG.                                                                               :27 General Indicator Flag(Bad Borehole)                                                                    
~Ascii   DEPT          RLA1          RLA2          RLA3          RLA4          RLA5            BS          HCAL          HDAR      HD1_PPC1      HD2_PPC1          TENS       GR_EDTC          NPHI          NPOR          PEFZ          RHOZ          DPHZ          SPHI      VCL_HILT          DTCO     DTSM_FAST          DTST       PR_FAST     VPVS_FAST  MAXXENE_OVER  MINXENE_OVER          FLAG
# ...
    6703.00000       2.90401       2.53818       2.34880       2.21862       2.03868       8.50000       8.25805       8.27632       8.25918       8.30647    3367.56250      66.53141       0.25999       0.26340       2.08752       2.26636       0.23251       0.23302      39.29907      83.38640     160.73944     238.41769       0.31589       1.92765       8.85518       6.02804       0.00000
    6702.50000       2.22102       1.93623       1.78035       1.68148       1.54797       8.50000       8.25805       8.28282       8.25918       8.30647    3339.62500      69.25194       0.27297       0.27472       2.09700       2.25977       0.23650       0.23860      37.91763      84.15486     161.07419     239.64786       0.31228       1.91402       9.07683       6.20893       0.00000
    6702.00000       1.94209       1.67967       1.55482       1.46807       1.35072       8.50000       8.23594       8.28282       8.25918       8.30647    3324.50000      70.39545       0.29341       0.28531       2.13202       2.24517       0.24535       0.24755      36.78204      85.38725     161.39893     241.48517       0.30566       1.89020       9.39286       6.41409       0.00000
    6701.50000       1.92612       1.66141       1.53844       1.45420       1.33509       8.50000       8.25068       8.27717       8.24786       8.31936    3385.06274      71.19359       0.28758       0.27565       2.17161       2.23719       0.25019       0.25657      39.10456      86.63020     161.57953     243.66666       0.29829       1.86516      10.02288       6.47477       0.00000
    6701.00000       1.91419       1.65411       1.52992       1.44425       1.32941       8.50000       8.25805       8.30072       8.28207       8.31936    3378.70581      70.02641       0.27846       0.26392       2.18565       2.24170       0.24746       0.26199      41.01374      87.37615     161.71158     244.63283       0.29384       1.85075      10.67199       6.07616       0.00000
    6700.50000       2.32393       2.03014       1.87940       1.76851       1.62511       8.50000       8.25805       8.29506       8.27076       8.34523    3383.50000      69.95127       0.26272       0.27208       2.18096       2.25094       0.24185       0.26270      44.54507      87.47434     161.90591     244.09555       0.29388       1.85090      11.21737       5.01571       0.00000
    6700.00000       2.63416       2.31360       2.13661       2.00626       1.84190       8.50000       8.25805       8.31379       8.28234       8.34523    3343.31250      70.99102       0.25972       0.26631       2.15146       2.26074       0.23592       0.26092      45.14945      87.22816     161.77840     242.18732       0.29506       1.85466      11.65012       4.14317       0.00000
    6699.50000       3.05354       2.68598       2.49101       2.33305       2.14083       8.50000       8.26543       8.30800       8.27076       8.35822    3334.75000      73.27670       0.27238       0.26366       2.15265       2.25797       0.23760       0.25910      44.63115      86.97835     161.46060     241.36923       0.29558       1.85633      11.78491       3.86127       0.00000
    6699.00000       2.92967       2.57126       2.38081       2.22902       2.04662       8.50000       8.28017       8.32015       8.28207       8.39264    3360.93750      73.85648       0.28131       0.27985       2.14939       2.25626       0.23863       0.25785      43.33604      86.80565     160.75739     241.48950       0.29421       1.85192      11.45477       3.56374       0.00000
    6698.50000       2.79813       2.43830       2.26914       2.12608       1.94948       8.50000       8.30967       8.33734       8.28205       8.38397    3397.12500      76.65441       0.28317       0.27114       2.15321       2.25864       0.23719       0.25498      41.01382      86.41039     159.81551     241.58926       0.29344       1.84949      10.47344       2.31588       0.00000
    6698.00000       2.85447       2.48566       2.31216       2.17180       1.98674       8.50000       8.31335       8.33315       8.28234       8.37110    3375.64697      78.84223       0.27965       0.26639       2.17471       2.26160       0.23540       0.24752      43.07655      85.38412     158.93155     240.49948       0.29714       1.86137       9.31423       1.32664       0.00000
    6697.50000       3.08656       2.68548       2.49058       2.34486       2.14752       8.50000       8.32441       8.32672       8.28234       8.37110    3344.93750      78.07802       0.27240       0.27663       2.20213       2.26475       0.23348       0.23583      45.67778      83.77311     157.82466     237.74168       0.30387       1.88395       8.98057       1.32715       0.00000
    6697.00000       3.06590       2.66018       2.45450       2.31629       2.11617       8.50000       8.32441       8.32659       8.28207       8.38397    3353.29419      82.83313       0.26616       0.26586       2.21416       2.26540       0.23309       0.22569      47.91366      82.37724     156.07991     234.76511       0.30694       1.89470       9.23341       1.20554       0.00000
    6696.50000       3.05829       2.65528       2.44698       2.30766       2.10581       8.50000       8.31335       8.34260       8.30265       8.35822    3370.58813      78.49312       0.25652       0.24659       2.16012       2.27045       0.23003       0.22404      46.02370      82.15015     154.28355     233.71025       0.30215       1.87807       9.06515       1.06234       0.00000
    6696.00000       3.50654       3.05769       2.81947       2.66009       2.42773       8.50000       8.31704       8.31678       8.26962       8.35822    3382.03467      76.43259       0.24176       0.25738       2.09501       2.26810       0.23145       0.22687      40.91861      82.54065     152.71758     233.61171       0.29367       1.85021       8.47104       1.01356       0.00000
    6695.50000       3.29866       2.86006       2.63880       2.48265       2.26766       8.50000       8.30967       8.31261       8.26699       8.35822    3363.56274      71.55464       0.25342       0.25864       2.05743       2.26237       0.23493       0.22960      38.16443      82.91594     151.49329     233.71918       0.28616       1.82707       7.93604       0.97618       0.00000
    6695.00000       3.74589       3.25616       3.01638       2.83486       2.58986       8.50000       8.31704       8.31135       8.26448       8.35822    3344.25000      69.96704       0.24774       0.26384       2.05555       2.26955       0.23058       0.22898      36.60079      82.83000     150.24365     233.35948       0.28167       1.81388       7.63237       0.97914       0.00000
    6694.50000       3.93034       3.42542       3.18123       2.97716       2.72749       8.50000       8.30229       8.31135       8.26448       8.35388    3349.03442      69.11985       0.25130       0.22932       2.06067       2.29779       0.21346       0.22314      37.21396      82.02688     148.94833     232.10605       0.28235       1.81585       7.50986       0.99382       0.00000
    6694.00000       4.31927       3.76303       3.52696       3.30250       3.01431       8.50000       8.30229       8.31372       8.27066       8.30647    3370.48901      67.98608       0.22875       0.21636       2.07185       2.32348       0.19789       0.21424      38.41402      80.80141     147.81140     230.01076       0.28691       1.82932       7.36113       0.99595       0.00000
    6693.50000       6.28173       5.50421       5.10267       4.77582       4.36221       8.50000       8.29492       8.30568       8.26801       8.30647    3381.71533      68.64023       0.22028       0.20287       2.08589       2.32379       0.19770       0.20781      39.20021      79.91530     147.07310     228.00859       0.29053       1.84036       7.15124       0.98171       0.00000
    6693.00000       4.96805       4.35832       3.97775       3.72138       3.39503       8.50000       8.26543       8.28296       8.25945       8.32798    3374.67358      66.77988       0.22322       0.22151       2.10526       2.29266       0.21657       0.20845      37.55096      80.00303     146.97513     227.81543       0.28947       1.83712       6.99692       0.93353       0.00000
