~VERSION
 VERS.        2.00                                                                   :CWLS LOG ASCII STANDARD
 WRAP.        NO                                                                     :NO WRAP PERFORMED
 PROD.        Schlumberger                                                           :LAS Producer
 CREA.        Thu Dec  9 10:53:02 2010                                               :LAS Creation Date and time
~Well
#MNEM.UNIT    VALUE                                                                   :DESCRIPTION
#----.----    ---------------                                                        :-------------------
 STRT.F       7228.000                                                               :START DEPTH
 STOP.F       5250.000                                                               :STOP  DEPTH
 STEP.F       -0.500                                                                 :DEPTH STEP
 NULL.        -999.250                                                               :NULL VALUE
 COMP.        ADM COMPANY                                                            :COMPANY NAME
 WELL.        VERIFICATION WELL 1                                                    :WELL NAME
 FLD.         WILDCAT                                                                :FIELD NAME
 API.         121152346000                                                           :API NUMBER
 CNTY.        MACON                                                                  :COUNTY
 STAT.        ILLINOIS                                                               :STATE
 CTRY.        US                                                                     :COUNTRY
 LOC.         LAT 39* 52' 47.3" N                                                    :WELL SURFACE LOCATION LINE 1
 LOC2.        LONG 88* 53' 36.1"                                                     :WELL SURFACE LOCATION LINE 2
 LOC3.        605' N & 1175' E OF SW CORNER                                          :WELL SURFACE LOCATION LINE 3
 SECT.        32                                                                     :SECTION
 TOWN.        17 NORTH                                                               :TOWNSHIP
 RANG.        3 EAST                                                                 :RANGE
 LATI.                                                                               :Latitude
 LONG.                                                                               :Longitude
 DATE.        11/16/2010                                                             :LOGGING DATE
 SRVC.        Schlumberger                                                           :SERVICE COMPANY
~Parameter
#MNEM.UNIT    VALUE                                                                  :DESCRIPTION
#----.----    ---------------                                                        :-------------------
 APD.F        15.000                                                                 :Elevation of depth reference above permanent datum
 EDF.F        683.000                                                                :Elevation of Derrick Floor
 EGL.F        669.000                                                                :Elevation of Ground Level
 EKB.F        684.000                                                                :Elevation of Kelly Bushing
 EPD.F        669.000                                                                :Elevation of Permnaent Datum
 LMF.         Kelly Bushing                                                          :Logging Measured From
 PDAT.        Ground Level                                                           :Permanent Datum
 TDD.F        7264.000                                                               :Total Depth Driller
 TDL.F        7272.000                                                               :Total Depth Logger
 BS.IN        8.500                                                                  :Bit Size
 R1.                                                                                 :REMARK 1
 R2.                                                                                 :REMARK 2
 R3.                                                                                 :REMARK 3
 R4.                                                                                 :REMARK 4
 R5.                                                                                 :REMARK 5
 R6.                                                                                 :REMARK 6
 R7.                                                                                 :REMARK 7
 R8.                                                                                 :REMARK 8
 R9.                                                                                 :REMARK 9
 R10.                                                                                :REMARK 10
 DCS_CENTER.  Denver                                                                 :Schlumberger DCS Center
 LOG_ANALYST. Becker                                                                 :Log Analyst Name
 ENG.         D. HUNTER / M. WINTER                                                  :Field Engineer Name
 GF_BASELINE. GF45LNX                                                                :GeoFrame Baseline
~Curve
#MNEM.UNIT                                                                           :DESCRIPTION
#----.----                                                                           :--------------------------------
 DEPT.F                                                                              :Depth Index
 RLA1.OHMM                                                                           : 1 Apparent Resistivity from Computed Focusing Mode 1                                        
 RLA2.OHMM                                                                           : 2 Apparent Resistivity from Computed Focusing Mode 2                                        
 RLA3.OHMM                                                                           : 3 Apparent Resistivity from Computed Focusing Mode 3                                        
 RLA4.OHMM                                                                           : 4 Apparent Resistivity from Computed Focusing Mode 4                                        
 RLA5.OHMM                                                                           : 5 Apparent Resistivity from Computed Focusing Mode 5                                        
 BS.IN                                                                               : 6 Bit Size                                                                                  
 HCAL.IN                                                                             : 7 HRCC Caliper Calibrated                                                                   
 HDAR.IN                                                                             : 8 Hole Diameter from Area                                                                   
 HD1_PPC1.IN                                                                         : 9 PPC1 Hole Diameter 1                                                                      
 HD2_PPC1.IN                                                                         :10 PPC1 Hole Diameter 2                                                                      
 TENS.LBS                                                                            :11 Cable Tension                                                                             
 GR_EDTC.GAPI                                                                        :12 Gamma Ray                                                                                 
 NPHI.CFCF                                                                           :13 Thermal Neutron Porosity (original Ratio Method) in Selected Lithology                    
 NPOR.CFCF                                                                           :14 Enhanced Thermal Neutron Porosity in Selected Lithology                                   
 PEFZ.                                                                               :15 HRDD Standard Resolution Formation Photoelectric Factor                                   
 RHOZ.G/C3                                                                           :16 HRDD Standard Resolution Formation Density                                                
 DPHZ.CFCF                                                                           :17 Standard Resolution Density Porosity                                                      
 SPHI.CFCF                                                                           :18 Sonic Porosity                                                                            
 VCL_HILT.CFCF                                                                       :19 Volume of Clay type Material relative to Total Volume                                     
 DTCO.US/FT                                                                          :20 Delta-T Compressional                                                                     
 DTSM_FAST.US/FT                                                                     :21 Shear Slowness of Fast Shear Waves                                                        
 DTST.US/FT                                                                          :22 Delta-T Stoneley - Monopole Stoneley                                                      
 PR_FAST.                                                                            :23 Poisson Ratio of Fast Shear Waves                                                         
 VPVS_FAST.                                                                          :24 Vp/Vs Ration of fast shear waves                                                          
 MAXXENE_OVERALL.                                                                    :25 Overall estimate of maximum cross energy                                                  
 MINXENE_OVERALL.                                                                    :26 Overall estimate of minimum cross energy                                                  
 FLAG.                                                                               :27 General Indicator Flag(Bad Borehole)                                                                    
~Ascii   DEPT          RLA1          RLA2          RLA3          RLA4          RLA5            BS          HCAL          HDAR      HD1_PPC1      HD2_PPC1          TENS       GR_EDTC          NPHI          NPOR          PEFZ          RHOZ          DPHZ          SPHI      VCL_HILT          DTCO     DTSM_FAST          DTST       PR_FAST     VPVS_FAST  MAXXENE_OVER  MINXENE_OVER          FLAG
# ...
    6839.50000       1.94168       1.72040       1.61176       1.52332       1.39436       8.50000       8.20644       8.26139       8.25522       8.26756    3496.00000      85.68079       0.22969       0.21893       2.27646       2.28978       0.21831       0.21035      48.07829      80.26466     149.24847     233.47423       0.29655       1.85945       3.12521       1.23710       0.00000
    6839.00000       2.33213       2.06586       1.95026       1.83917       1.68712       8.50000       8.19907       8.25758       8.24759       8.25466    3551.18701      82.73298       0.22611       0.22697       2.26914       2.31190       0.20491       0.20468      45.81116      79.48450     146.67531     231.85066       0.29212       1.84533       3.22096       1.40619       0.00000
    6838.50000       2.53822       2.23575       2.09903       1.99040       1.82709       8.50000       8.20644       8.25220       8.24256       8.26756    3591.05640      80.38217       0.23086       0.23176       2.26281       2.34483       0.18495       0.19807      44.88678      78.57364     144.94397     230.14702       0.29192       1.84469       3.49429       1.55762       0.00000
    6838.00000       2.92432       2.57588       2.42252       2.30539       2.12105       8.50000       8.19907       8.24762       8.23627       8.28045    3603.52954      79.13038       0.22034       0.21758       2.25850       2.36987       0.16978       0.19049      43.28420      77.53106     143.75807     228.69408       0.29492       1.85420       3.98946       1.67416       0.00000
    6837.50000       3.62032       3.18859       2.97834       2.84346       2.61397       8.50000       8.21382       8.25461       8.23879       8.28045    3592.44458      80.36143       0.20068       0.17256       2.23755       2.37430       0.16709       0.18409      44.01292      76.64935     142.96721     227.83698       0.29831       1.86521       4.44796       1.73431       0.00000
    6837.00000       3.66356       3.21892       2.99457       2.85556       2.63232       8.50000       8.20644       8.26465       8.24885       8.28045    3581.57031      80.52856       0.18217       0.17815       2.22785       2.36277       0.17408       0.18160      41.53660      76.30594     142.96762     227.69568       0.30083       1.87361       4.64782       1.74788       0.00000
    6836.50000       2.71218       2.36108       2.20226       2.08930       1.93526       8.50000       8.19170       8.26968       8.25890       8.28045    3528.25024      77.17733       0.19587       0.19788       2.24327       2.35356       0.17966       0.18287      49.44200      76.48152     142.60838     228.06332       0.29812       1.86461       4.61445       1.74488       0.00000
    6836.00000       3.29032       2.88362       2.68209       2.54253       2.36721       8.50000       8.20644       8.26968       8.25890       8.25466    3446.64722      80.33115       0.20994       0.22128       2.27363       2.36051       0.17545       0.18757      52.76173      77.12790     142.09439     228.87001       0.29116       1.84232       4.49201       1.74298       0.00000
    6835.50000       4.30067       3.75031       3.46082       3.26083       3.06511       8.50000       8.20644       8.26402       8.24759       8.26756    3470.82349      84.16928       0.22774       0.21495       2.33826       2.36355       0.17360       0.18890      57.06287      77.31128     141.93500     228.86691       0.28907       1.83589       4.39500       1.74037       0.00000
    6835.00000       3.72381       3.24837       2.98078       2.80863       2.64474       8.50000       8.19907       8.24547       8.23627       8.24165    3480.37500      95.09988       0.21936       0.21535       2.37202       2.36822       0.17078       0.18593      55.86649      76.90198     141.50620     227.80334       0.29044       1.84009       4.30758       1.73652       0.00000
    6834.50000       3.93044       3.44038       3.17283       2.98658       2.82141       8.50000       8.19170       8.25192       8.23627       8.28045    3469.41187      96.46574       0.20486       0.21056       2.37778       2.37131       0.16890       0.17927      58.04126      75.98555     140.42447     226.11775       0.29298       1.84804       4.24035       1.72621       0.00000
    6834.00000       5.11034       4.45493       4.11012       3.88279       3.66416       8.50000       8.19170       8.23896       8.23627       8.25466    3470.62500      93.61732       0.18279       0.18181       2.29668       2.38998       0.15759       0.17225      53.41625      75.01833     138.33224     224.82553       0.29169       1.84398       4.23671       1.70431       0.00000
    6833.50000       4.50256       3.90932       3.61714       3.42331       3.22344       8.50000       8.19907       8.26402       8.24759       8.25466    3475.47070      92.62329       0.17374       0.17668       2.20643       2.40636       0.14766       0.16540      51.24535      74.07585     136.09631     223.74864       0.28952       1.83726       3.96158       1.72473       0.00000
    6833.00000       5.13738       4.45004       4.13897       3.88136       3.64872       8.50000       8.20276       8.25113       8.24759       8.26756    3469.75000      87.15466       0.16579       0.17867       2.14013       2.41453       0.14271       0.15779      42.02628      73.02705     134.55087     222.61024       0.29121       1.84248       3.57781       1.77231       0.00000
    6832.50000       4.91321       4.25565       3.96724       3.71958       3.49263       8.50000       8.19907       8.24547       8.23627       8.26756    3453.70605      81.44325       0.16127       0.16079       2.11318       2.41119       0.14473       0.14994      38.44489      71.94677     132.64865     221.52240       0.29160       1.84371       3.51231       1.73605       0.00000
    6832.00000       5.57528       4.85834       4.52837       4.24960       3.98583       8.50000       8.21382       8.24612       8.22468       8.25466    3439.31250      70.64747       0.14992       0.15399       2.09716       2.41158       0.14450       0.14419      33.65571      71.15533     130.37076     220.71684       0.28786       1.83220       3.41207       1.58278       0.00000
    6831.50000       6.52993       5.74295       5.30902       4.97747       4.64091       8.50000       8.20644       8.25192       8.23627       8.26756    3457.05884      63.61846       0.14364       0.14371       2.08420       2.41788       0.14068       0.14271      34.23647      70.95133     128.97273     220.50308       0.28301       1.81776       3.06791       1.41804       0.00000
    6831.00000       7.92853       7.03894       6.52460       6.14439       5.66750       8.50000       8.19907       8.24547       8.23627       8.25466    3469.12524      59.40075       0.14588       0.14441       2.08820       2.42405       0.13694       0.14429      36.03654      71.16914     129.09044     220.67923       0.28167       1.81385       2.78903       1.35452       0.00000
    6830.50000       4.89889       4.27723       3.92152       3.69862       3.38603       8.50000       8.21382       8.25192       8.23627       8.26756    3456.70605      61.94582       0.16335       0.15095       2.08399       2.42481       0.13648       0.14948      38.49455      71.88311     130.32816     221.23462       0.28139       1.81306       2.62386       1.35211       0.00000
    6830.00000       3.98540       3.45102       3.19988       3.00912       2.74740       8.50000       8.20276       8.23981       8.22495       8.26756    3434.06274      70.57565       0.18379       0.17043       2.11812       2.40478       0.14862       0.15870      42.60999      73.15327     132.91428     222.61224       0.28272       1.81693       2.49269       1.34030       0.00000
    6829.50000       3.90594       3.36295       3.11356       2.92657       2.66597       8.50000       8.20276       8.24626       8.22495       8.26756    3464.29419      78.93408       0.20745       0.20609       2.16277       2.37716       0.16536       0.17243      47.71104      75.04302     136.66660     225.56873       0.28417       1.82118       2.44524       1.31503       0.00000
