~VERSION
 VERS.        2.00                                                                   :CWLS LOG ASCII STANDARD
 WRAP.        NO                                                                     :NO WRAP PERFORMED
 PROD.        Schlumberger                                                           :LAS Producer
 CREA.        Thu Dec  9 10:53:02 2010                                               :LAS Creation Date and time
~Well
#MNEM.UNIT    VALUE                                                                   :DESCRIPTION
#----.----    ---------------                                                        :-------------------
 STRT.F       7228.000                                                               :START DEPTH
 STOP.F       5250.000                                                               :STOP  DEPTH
 STEP.F       -0.500                                                                 :DEPTH STEP
 NULL.        -999.250                                                               :NULL VALUE
 COMP.        ADM COMPANY                                                            :COMPANY NAME
 WELL.        VERIFICATION WELL 1                                                    :WELL NAME
 FLD.         WILDCAT                                                                :FIELD NAME
 API.         121152346000                                                           :API NUMBER
 CNTY.        MACON                                                                  :COUNTY
 STAT.        ILLINOIS                                                               :STATE
 CTRY.        US                                                                     :COUNTRY
 LOC.         LAT 39* 52' 47.3" N                                                    :WELL SURFACE LOCATION LINE 1
 LOC2.        LONG 88* 53' 36.1"                                                     :WELL SURFACE LOCATION LINE 2
 LOC3.        605' N & 1175' E OF SW CORNER                                          :WELL SURFACE LOCATION LINE 3
 SECT.        32                                                                     :SECTION
 TOWN.        17 NORTH                                                               :TOWNSHIP
 RANG.        3 EAST                                                                 :RANGE
 LATI.                                                                               :Latitude
 LONG.                                                                               :Longitude
 DATE.        11/16/2010                                                             :LOGGING DATE
 SRVC.        Schlumberger                                                           :SERVICE COMPANY
~Parameter
#MNEM.UNIT    VALUE                                                                  :DESCRIPTION
#----.----    ---------------                                                        :-------------------
 APD.F        15.000                                                                 :Elevation of depth reference above permanent datum
 EDF.F        683.000                                                                :Elevation of Derrick Floor
 EGL.F        669.000                                                                :Elevation of Ground Level
 EKB.F        684.000                                                                :Elevation of Kelly Bushing
 EPD.F        669.000                                                                :Elevation of Permnaent Datum
 LMF.         Kelly Bushing                                                          :Logging Measured From
 PDAT.        Ground Level                                                           :Permanent Datum
 TDD.F        7264.000                                                               :Total Depth Driller
 TDL.F        7272.000                                                               :Total Depth Logger
 BS.IN        8.500                                                                  :Bit Size
 R1.                                                                                 :REMARK 1
 R2.                                                                                 :REMARK 2
 R3.                                                                                 :REMARK 3
 R4.                                                                                 :REMARK 4
 R5.                                                                                 :REMARK 5
 R6.                                                                                 :REMARK 6
 R7.                                                                                 :REMARK 7
 R8.                                                                                 :REMARK 8
 R9.                                                                                 :REMARK 9
 R10.                                                                                :REMARK 10
 DCS_CENTER.  Denver                                                                 :Schlumberger DCS Center
 LOG_ANALYST. Becker                                                                 :Log Analyst Name
 ENG.         D. HUNTER / M. WINTER                                                  :Field Engineer Name
 GF_BASELINE. GF45LNX                                                                :GeoFrame Baseline
~Curve
#MNEM.UNIT                                                                           :DESCRIPTION
#----.----                                                                           :--------------------------------
 DEPT.F                                                                              :Depth Index
 RLA1.OHMM                                                                           : 1 Apparent Resistivity from Computed Focusing Mode 1                                        
 RLA2.OHMM                                                                           : 2 Apparent Resistivity from Computed Focusing Mode 2                                        
 RLA3.OHMM                                                                           : 3 Apparent Resistivity from Computed Focusing Mode 3                                        
 RLA4.OHMM                                                                           : 4 Apparent Resistivity from Computed Focusing Mode 4                                        
 RLA5.OHMM                                                                           : 5 Apparent Resistivity from Computed Focusing Mode 5                                        
 BS.IN                                                                               : 6 Bit Size                                                                                  
 HCAL.IN                                                                             : 7 HRCC Caliper Calibrated                                                                   
 HDAR.IN                                                                             : 8 Hole Diameter from Area                                                                   
 HD1_PPC1.IN                                                                         : 9 PPC1 Hole Diameter 1                                                                      
 HD2_PPC1.IN                                                                         :10 PPC1 Hole Diameter 2                                                                      
 TENS.LBS                                                                            :11 Cable Tension                                                                             
 GR_EDTC.GAPI                                                                        :12 Gamma Ray                                                                                 
 NPHI.CFCF                                                                           :13 Thermal Neutron Porosity (original Ratio Method) in Selected Lithology                    
 NPOR.CFCF                                                                           :14 Enhanced Thermal Neutron Porosity in Selected Lithology                                   
 PEFZ.                                                                               :15 HRDD Standard Resolution Formation Photoelectric Factor                                   
 RHOZ.G/C3                                                                           :16 HRDD Standard Resolution Formation Density                                                
 DPHZ.CFCF                                                                           :17 Standard Resolution Density Porosity                                                      
 SPHI.CFCF                                                                           :18 Sonic Porosity                                                                            
 VCL_HILT.CFCF                                                                       :19 Volume of Clay type Material relative to Total Volume                                     
 DTCO.US/FT                                                                          :20 Delta-T Compressional                                                                     
 DTSM_FAST.US/FT                                                                     :21 Shear Slowness of Fast Shear Waves                                                        
 DTST.US/FT                                                                          :22 Delta-T Stoneley - Monopole Stoneley                                                      
 PR_FAST.                                                                            :23 Poisson Ratio of Fast Shear Waves                                                         
 VPVS_FAST.                                                                          :24 Vp/Vs Ration of fast shear waves                                                          
 MAXXENE_OVERALL.                                                                    :25 Overall estimate of maximum cross energy                                                  
 MINXENE_OVERALL.                                                                    :26 Overall estimate of minimum cross energy                                                  
 FLAG.                                                                               :27 General Indicator Flag(Bad Borehole)                                                                    
~Ascii   DEPT          RLA1          RLA2          RLA3          RLA4          RLA5            BS          HCAL          HDAR      HD1_PPC1      HD2_PPC1          TENS       GR_EDTC          NPHI          NPOR          PEFZ          RHOZ          DPHZ          SPHI      VCL_HILT          DTCO     DTSM_FAST          DTST       PR_FAST     VPVS_FAST  MAXXENE_OVER  MINXENE_OVER          FLAG
# ...
    7102.00000    2733.86816   10484.45605    8211.43945    7728.23877    8043.56836       8.50000       8.31704       8.34646       8.37356       8.33223    3831.25024     161.14212       0.06658       0.07064       3.45961       2.65849      -0.00514      -0.00184     100.00000      51.04669      90.16265     203.87112       0.26412       1.76628       8.13464       3.24749       0.00000
    7101.50000    2759.27881   10314.16895    8028.12744    7600.66162    7712.79150       8.50000       8.33179       8.34501       8.36205       8.31936    3789.94116     159.44528       0.06623       0.06944       3.52493       2.65433      -0.00262      -0.00221     100.00000      50.99626      90.03718     203.85176       0.26384       1.76556       8.06625       3.42619       0.00000
    7101.00000    2773.84668   11412.22656    8419.31934    8232.78613    8315.03027       8.50000       8.34653       8.33582       8.33941       8.32798    3750.18774     157.43388       0.06610       0.07139       3.63208       2.66278      -0.00775      -0.00429     100.00000      50.70866      90.03591     203.75557       0.26772       1.77555       7.92683       3.54262       0.00000
    7100.50000    2669.99292    9633.81055    8025.68848    7866.12842    7715.31348       8.50000       8.36128       8.32360       8.32784       8.33223    3802.23535     159.77501       0.06557       0.07107       3.76508       2.66443      -0.00875      -0.00593     100.00000      50.48403      89.90676     203.76698       0.26975       1.78089       7.70178       3.64805       0.00000
    7100.00000    2725.22070   12549.22168    9656.43848    9793.49512    9535.83496       8.50000       8.37602       8.31300       8.29365       8.31936    3805.43750     162.76779       0.06359       0.06806       3.84085       2.68152      -0.01910      -0.00586     100.00000      50.49274      90.14158     203.92104       0.27138       1.78524       7.40308       3.18724       0.00000
    7099.50000    2790.79614   14134.94922   11044.73730   11941.54102   11105.93848       8.50000       8.35390       8.33173       8.30523       8.33235    3808.88257     163.02252       0.06320       0.07060       3.77635       2.66571      -0.00952      -0.00439     100.00000      50.69503      90.57310     204.02557       0.27190       1.78663       7.11184       2.67892       0.00000
    7099.00000    2856.52100   14896.07227   11405.93848   12413.55469   11028.29102       8.50000       8.33916       8.34530       8.29365       8.35822    3756.82349     164.11465       0.06300       0.07139       3.62781       2.66361      -0.00825      -0.00280     100.00000      50.91436      91.10736     203.98763       0.27294       1.78942       6.90219       2.87972       0.00000
    7098.50000    2773.10205   21450.66016   16471.86719   17323.49414   15055.63965       8.50000       8.33916       8.35326       8.27076       8.39695    3776.31250     166.17123       0.06357       0.06761       3.48323       2.65260      -0.00158      -0.00136     100.00000      51.11320      91.44872     203.80923       0.27283       1.78914       6.69848       3.27710       0.00000
    7098.00000    2722.80737   11700.25488   10261.07715   10629.92090    9041.66406       8.50000       8.34653       8.43187       8.24759       8.43576    3820.29419     167.91814       0.06586       0.07171       3.48955       2.65511      -0.00310       0.00165     100.00000      51.52708      91.96809     204.05077       0.27124       1.78485       6.47353       3.60634       0.00000
    7097.50000    1554.43713    1903.64417    1862.42859    1780.77136    1513.16895       8.50000       8.37602       8.93977       8.52255       8.61614    3818.41187     158.79659       0.06927       0.07089       3.53099       2.65129      -0.00078       0.00815     100.00000      52.42221      92.71325     205.24521       0.26503       1.76859       6.22483       3.80786       0.00000
    7097.00000     899.66736     663.45422     655.04266     610.58765     513.78040       8.50000       8.54560       8.85724       8.29365       9.35699    3808.68774     159.67697       0.07190       0.07557       3.55570       2.64405       0.00361       0.01576     100.00000      53.47000      93.10749     207.38287       0.25395       1.74130       5.96505       4.00197       0.00000
    7096.50000     590.17462     363.90738     348.82288     321.55032     268.88696       8.50000       8.81103       8.71015       8.38465       9.42083    3834.35327     162.88324       0.07321       0.07984       3.50428       2.63453       0.00937       0.01829     100.00000      53.81809      93.04200     209.47629       0.24860       1.72882       5.80682       4.26803       0.00000
    7096.00000     430.23795     280.24597     264.83392     239.80069     202.91151       8.50000       8.65620       8.74973       8.39668       9.03565    3779.31274     169.07968       0.08112       0.08324       3.54635       2.63704       0.00785       0.01697     100.00000      53.63730      93.39458     210.04506       0.25392       1.74122       6.05637       4.43176       0.00000
    7095.50000     307.22449     231.80064     214.67104     194.22740     164.77782       8.50000       8.68569       8.67973       8.49925       9.10278    3726.64697     169.26515       0.08497       0.09288       3.65592       2.62734       0.01373       0.01490     100.00000      53.35177      93.67413     209.64110       0.25994       1.75578       6.98986       4.37374       0.00000
    7095.00000     216.08595     181.81705     165.11200     149.27271     126.73191       8.50000       8.40551       8.61200       8.45362       8.86021    3715.18726     172.36555       0.08611       0.10284       3.77113       2.62778       0.01347       0.01707     100.00000      53.65041      93.93774     208.50966       0.25795       1.75092       8.43262       4.18818       0.00000
    7094.50000     171.47398     147.71733     134.94109     123.58387     103.41417       8.50000       8.40551       8.53854       8.39668       8.77038    3737.62524     182.61276       0.07889       0.07941       3.79080       2.62521       0.01503       0.02446     100.00000      54.66747      93.32596     207.64880       0.23882       1.70716      10.18969       3.94278       0.00000
    7094.00000     138.20863     115.48629     106.27344      96.89322      82.22810       8.50000       8.39077       8.44345       8.37383       8.68040    3750.70581     176.28030       0.07487       0.08830       3.70668       2.63503       0.00907       0.02783     100.00000      55.13161      92.46826     206.77884       0.22423       1.67723      11.89954       3.59953       0.00000
    7093.50000     161.15413     135.55908     126.20250     112.16246      95.17716       8.50000       8.39814       8.42920       8.29365       8.51308    3713.43750     168.48169       0.07194       0.08910       3.57870       2.63727       0.00771       0.02486     100.00000      54.72307      92.09675     205.79346       0.22713       1.68296      13.20131       3.10939       0.00000
    7093.00000     270.66986     217.71655     207.91789     189.27216     160.98532       8.50000       8.39077       8.42210       8.30523       8.56475    3699.06250     167.46112       0.07039       0.07850       3.51887       2.63167       0.01111       0.01414     100.00000      53.24711      92.25693     204.98404       0.25025       1.73262      13.95266       2.57968       0.00000
    7092.50000     812.19910     531.60089     522.69751     486.76920     408.11731       8.50000       8.37602       8.41988       8.30495       8.53898    3727.62524     175.21245       0.06363       0.06715       3.53085       2.62838       0.01310       0.00182     100.00000      51.55003      92.47172     204.51993       0.27455       1.79382      14.14485       2.19129       0.00000
    7092.00000    1417.71741    1791.64063    1722.12488    1688.86926    1433.37683       8.50000       8.36128       8.41487       8.31654       8.53482    3762.47046     177.39354       0.05993       0.06557       3.56839       2.63907       0.00663      -0.00729     100.00000      50.29675      92.34999     204.33762       0.28914       1.83610      14.09281       1.96907       0.00000
