~VERSION
 VERS.        2.00                                                                   :CWLS LOG ASCII STANDARD
 WRAP.        NO                                                                     :NO WRAP PERFORMED
 PROD.        Schlumberger                                                           :LAS Producer
 CREA.        Thu Dec  9 10:53:02 2010                                               :LAS Creation Date and time
~Well
#MNEM.UNIT    VALUE                                                                   :DESCRIPTION
#----.----    ---------------                                                        :-------------------
 STRT.F       7228.000                                                               :START DEPTH
 STOP.F       5250.000                                                               :STOP  DEPTH
 STEP.F       -0.500                                                                 :DEPTH STEP
 NULL.        -999.250                                                               :NULL VALUE
 COMP.        ADM COMPANY                                                            :COMPANY NAME
 WELL.        VERIFICATION WELL 1                                                    :WELL NAME
 FLD.         WILDCAT                                                                :FIELD NAME
 API.         121152346000                                                           :API NUMBER
 CNTY.        MACON                                                                  :COUNTY
 STAT.        ILLINOIS                                                               :STATE
 CTRY.        US                                                                     :COUNTRY
 LOC.         LAT 39* 52' 47.3" N                                                    :WELL SURFACE LOCATION LINE 1
 LOC2.        LONG 88* 53' 36.1"                                                     :WELL SURFACE LOCATION LINE 2
 LOC3.        605' N & 1175' E OF SW CORNER                                          :WELL SURFACE LOCATION LINE 3
 SECT.        32                                                                     :SECTION
 TOWN.        17 NORTH                                                               :TOWNSHIP
 RANG.        3 EAST                                                                 :RANGE
 LATI.                                                                               :Latitude
 LONG.                                                                               :Longitude
 DATE.        11/16/2010                                                             :LOGGING DATE
 SRVC.        Schlumberger                                                           :SERVICE COMPANY
~Parameter
#MNEM.UNIT    VALUE                                                                  :DESCRIPTION
#----.----    ---------------                                                        :-------------------
 APD.F        15.000                                                                 :Elevation of depth reference above permanent datum
 EDF.F        683.000                                                                :Elevation of Derrick Floor
 EGL.F        669.000                                                                :Elevation of Ground Level
 EKB.F        684.000                                                                :Elevation of Kelly Bushing
 EPD.F        669.000                                                                :Elevation of Permnaent Datum
 LMF.         Kelly Bushing                                                          :Logging Measured From
 PDAT.        Ground Level                                                           :Permanent Datum
 TDD.F        7264.000                                                               :Total Depth Driller
 TDL.F        7272.000                                                               :Total Depth Logger
 BS.IN        8.500                                                                  :Bit Size
 R1.                                                                                 :REMARK 1
 R2.                                                                                 :REMARK 2
 R3.                                                                                 :REMARK 3
 R4.                                                                                 :REMARK 4
 R5.                                                                                 :REMARK 5
 R6.                                                                                 :REMARK 6
 R7.                                                                                 :REMARK 7
 R8.                                                                                 :REMARK 8
 R9.                                                                                 :REMARK 9
 R10.                                                                                :REMARK 10
 DCS_CENTER.  Denver                                                                 :Schlumberger DCS Center
 LOG_ANALYST. Becker                                                                 :Log Analyst Name
 ENG.         D. HUNTER / M. WINTER                                                  :Field Engineer Name
 GF_BASELINE. GF45LNX                                                                :GeoFrame Baseline
~Curve
#MNEM.UNIT                                                                           :DESCRIPTION
#----.----                                                                           :--------------------------------
 DEPT.F                                                                              :Depth Index
 RLA1.OHMM                                                                           : 1 Apparent Resistivity from Computed Focusing Mode 1                                        
 RLA2.OHMM                                                                           : 2 Apparent Resistivity from Computed Focusing Mode 2                                        
 RLA3.OHMM                                                                           : 3 Apparent Resistivity from Computed Focusing Mode 3                                        
 RLA4.OHMM                                                                           : 4 Apparent Resistivity from Computed Focusing Mode 4                                        
 RLA5.OHMM                                                                           : 5 Apparent Resistivity from Computed Focusing Mode 5                                        
 BS.IN                                                                               : 6 Bit Size                                                                                  
 HCAL.IN                                                                             : 7 HRCC Caliper Calibrated                                                                   
 HDAR.IN                                                                             : 8 Hole Diameter from Area                                                                   
 HD1_PPC1.IN                                                                         : 9 PPC1 Hole Diameter 1                                                                      
 HD2_PPC1.IN                                                                         :10 PPC1 Hole Diameter 2                                                                      
 TENS.LBS                                                                            :11 Cable Tension                                                                             
 GR_EDTC.GAPI                                                                        :12 Gamma Ray                                                                                 
 NPHI.CFCF                                                                           :13 Thermal Neutron Porosity (original Ratio Method) in Selected Lithology                    
 NPOR.CFCF                                                                           :14 Enhanced Thermal Neutron Porosity in Selected Lithology                                   
 PEFZ.                                                                               :15 HRDD Standard Resolution Formation Photoelectric Factor                                   
 RHOZ.G/C3                                                                           :16 HRDD Standard Resolution Formation Density                                                
 DPHZ.CFCF                                                                           :17 Standard Resolution Density Porosity                                                      
 SPHI.CFCF                                                                           :18 Sonic Porosity                                                                            
 VCL_HILT.CFCF                                                                       :19 Volume of Clay type Material relative to Total Volume                                     
 DTCO.US/FT                                                                          :20 Delta-T Compressional                                                                     
 DTSM_FAST.US/FT                                                                     :21 Shear Slowness of Fast Shear Waves                                                        
 DTST.US/FT                                                                          :22 Delta-T Stoneley - Monopole Stoneley                                                      
 PR_FAST.                                                                            :23 Poisson Ratio of Fast Shear Waves                                                         
 VPVS_FAST.                                                                          :24 Vp/Vs Ration of fast shear waves                                                          
 MAXXENE_OVERALL.                                                                    :25 Overall estimate of maximum cross energy                                                  
 MINXENE_OVERALL.                                                                    :26 Overall estimate of minimum cross energy                                                  
 FLAG.                                                                               :27 General Indicator Flag(Bad Borehole)                                                                    
~Ascii   DEPT          RLA1          RLA2          RLA3          RLA4          RLA5            BS          HCAL          HDAR      HD1_PPC1      HD2_PPC1          TENS       GR_EDTC          NPHI          NPOR          PEFZ          RHOZ          DPHZ          SPHI      VCL_HILT          DTCO     DTSM_FAST          DTST       PR_FAST     VPVS_FAST  MAXXENE_OVER  MINXENE_OVER          FLAG
# ...
    6314.50000      11.50220      10.11118       9.63267       9.08022       8.52082       8.50000       8.49030       8.60188       8.61313       8.59062    3166.37524      55.51624       0.10465       0.11298       2.08556       2.48027       0.10287       0.09483      26.23675      64.35851     108.05160     211.09518       0.22508       1.67890       9.14996       0.25773       0.00000
    6314.00000      12.12320      10.74230      10.03860       9.54417       8.90388       8.50000       8.52348       8.64474       8.64738       8.64210    3257.23535      57.37375       0.11495       0.12433       2.03985       2.47364       0.10689       0.09887      23.92116      64.91490     107.80178     211.81708       0.21555       1.66066       9.56231       0.25893       0.00000
    6313.50000      10.16713       8.93567       8.34165       8.01368       7.43183       8.50000       8.52348       8.65115       8.64738       8.65492    3353.70605      61.35343       0.12225       0.12454       2.03314       2.47138       0.10825       0.10263      29.00971      65.43186     107.85673     212.28157       0.20882       1.64838      10.09811       0.26764       0.00000
    6313.00000       9.25277       8.11628       7.63282       7.40961       6.84705       8.50000       8.54560       8.64541       8.64738       8.64200    3439.77148      64.65952       0.12288       0.13013       2.02474       2.46732       0.11072       0.10406      34.02634      65.62843     107.65083     212.30077       0.20425       1.64031      10.60874       0.27965       0.00000
    6312.50000       9.16086       7.98609       7.56253       7.36632       6.77579       8.50000       8.56035       8.65845       8.66486       8.65492    3439.66626      68.56995       0.12485       0.12978       2.00696       2.45968       0.11534       0.10409      33.83808      65.63276     107.14387     212.02206       0.19970       1.63248      10.98023       0.28999       0.00000
    6312.00000      11.86391      10.30783       9.94738       9.74280       8.94323       8.50000       8.56035       8.67862       8.68518       8.68063    3341.16772      72.51804       0.12666       0.13164       1.98469       2.45140       0.12036       0.10280      36.39634      65.45502     106.39496     211.60295       0.19552       1.62547      11.37044       0.29526       0.00000
    6311.50000      15.67790      13.83897      13.44741      12.95938      11.89298       8.50000       8.60090       8.68986       8.69909       8.68063    3267.86182      76.97495       0.12259       0.12339       2.00498       2.45271       0.11957       0.10041      39.16060      65.12670     105.89780     211.21234       0.19586       1.62603      11.70945       0.29708       0.00000
    6311.00000      22.00039      19.79690      19.41217      18.65228      17.16259       8.50000       8.61196       8.68986       8.69909       8.68063    3244.79175      80.31709       0.12044       0.12377       2.06815       2.45990       0.11521       0.09767      43.73661      64.74979     105.87273     210.89330       0.20124       1.63511      11.91314       0.29609       0.00000
    6310.50000      14.78218      13.65299      13.41081      12.65661      11.67595       8.50000       8.60459       8.68889       8.69285       8.69354    3250.55151      80.68346       0.12135       0.13369       2.10114       2.47958       0.10329       0.09588      45.41919      64.50248     106.31931     210.64551       0.20878       1.64830      12.02284       0.29002       0.00000
    6310.00000      12.07622      11.22646      10.73067      10.23450       9.48611       8.50000       8.57878       8.69915       8.69532       8.73599    3273.32690      78.95120       0.12889       0.13645       2.10522       2.50223       0.08956       0.09638      44.20013      64.57170     107.14796     210.54630       0.21485       1.65936      12.12199       0.28071       0.00000
    6309.50000      14.10391      12.76590      12.35459      11.66875      10.93162       8.50000       8.61196       8.72737       8.70778       8.83468    3287.79907      78.20240       0.12953       0.12451       2.10760       2.50349       0.08879       0.10005      41.02691      65.07716     108.18921     210.81641       0.21653       1.66248      12.44997       0.26921       0.00000
    6309.00000      11.05352       9.67591       9.17250       8.71546       8.15940       8.50000       8.83315       8.78648       8.73827       8.86032    3269.25000      74.29999       0.13430       0.11970       2.15987       2.48721       0.09866       0.10781      39.63530      66.14582     109.35878     211.82350       0.21155       1.65330      13.10289       0.25911       0.00000
    6308.50000       5.98210       5.37435       5.02563       4.77149       4.50091       8.50000       8.67832       8.81625       8.77219       8.83468    3250.43750      78.29159       0.15725       0.17125       2.21425       2.47059       0.10874       0.11834      42.66840      67.59565     110.31682     213.88960       0.19942       1.63201      13.59012       0.24958       0.00000
    6308.00000       4.56500       4.02458       3.72864       3.55209       3.34215       8.50000       8.66357       8.79783       8.76097       8.80904    3256.58838      87.00200       0.17770       0.20854       2.21069       2.46667       0.11111       0.12451      52.87050      68.44455     110.88177     215.65158       0.19221       1.62002      13.61324       0.23661       0.00000
    6307.50000       7.25771       6.35716       5.98776       5.71129       5.36680       8.50000       8.64514       8.77366       8.73827       8.79627    3286.81250      96.92787       0.16689       0.18204       2.16121       2.47690       0.10491       0.12372      54.25195      68.33638     110.93128     215.74545       0.19422       1.62331      13.27685       0.22419       0.00000
    6307.00000       9.17787       8.17859       7.72898       7.27817       6.92004       8.50000       8.64882       8.77288       8.74949       8.79627    3255.94141      97.07571       0.13717       0.13020       2.11456       2.47371       0.10684       0.11652      49.67365      67.34420     110.58176     214.53210       0.20524       1.64204      13.00982       0.22213       0.00000
    6306.50000       8.95670       7.97386       7.40888       6.96959       6.57557       8.50000       8.64145       8.76727       8.73827       8.78339    3254.93750      78.92236       0.11960       0.13214       2.08991       2.47679       0.10498       0.10822      40.65894      66.20158     109.43208     213.44867       0.21139       1.65301      13.52524       0.25615       0.00000
    6306.00000       9.27074       8.36621       7.81792       7.35794       6.97140       8.50000       8.64514       8.75509       8.72679       8.78339    3290.64697      68.94099       0.12104       0.13957       2.07387       2.47991       0.10309       0.10234      34.20937      65.39191     107.09093     212.84842       0.20273       1.63768      13.54713       0.28111       0.00000
    6305.50000       9.60634       8.65986       8.13253       7.65854       7.22544       8.50000       8.64882       8.74934       8.71530       8.77050    3302.87500      61.88584       0.11939       0.11431       2.05618       2.48801       0.09817       0.09872      29.54468      64.89404     105.42592     212.16513       0.19499       1.62459      12.92923       0.27135       0.00000
    6305.00000      13.30515      11.68144      11.29075      10.67741      10.04841       8.50000       8.64514       8.74864       8.72679       8.75771    3225.29419      60.78612       0.11317       0.11391       2.07165       2.48862       0.09781       0.09643      25.83205      64.57819     104.83591     211.44202       0.19427       1.62340      12.64127       0.26032       0.00000
    6304.50000      22.84446      20.32689      19.37576      18.64228      17.37387       8.50000       8.64514       8.73102       8.70433       8.78339    3176.75024      57.20650       0.10799       0.11219       2.09607       2.48390       0.10067       0.09493      28.91437      64.37120     103.93525     210.98061       0.18886       1.61462      12.04833       0.24882       0.00000
