~VERSION
 VERS.        2.00                                                                   :CWLS LOG ASCII STANDARD
 WRAP.        NO                                                                     :NO WRAP PERFORMED
 PROD.        Schlumberger                                                           :LAS Producer
 CREA.        Thu Dec  9 10:53:02 2010                                               :LAS Creation Date and time
~Well
#MNEM.UNIT    VALUE                                                                   :DESCRIPTION
#----.----    ---------------                                                        :-------------------
 STRT.F       7228.000                                                               :START DEPTH
 STOP.F       5250.000                                                               :STOP  DEPTH
 STEP.F       -0.500                                                                 :DEPTH STEP
 NULL.        -999.250                                                               :NULL VALUE
 COMP.        ADM COMPANY                                                            :COMPANY NAME
 WELL.        VERIFICATION WELL 1                                                    :WELL NAME
 FLD.         WILDCAT                                                                :FIELD NAME
 API.         121152346000                                                           :API NUMBER
 CNTY.        MACON                                                                  :COUNTY
 STAT.        ILLINOIS                                                               :STATE
 CTRY.        US                                                                     :COUNTRY
 LOC.         LAT 39* 52' 47.3" N                                                    :WELL SURFACE LOCATION LINE 1
 LOC2.        LONG 88* 53' 36.1"                                                     :WELL SURFACE LOCATION LINE 2
 LOC3.        605' N & 1175' E OF SW CORNER                                          :WELL SURFACE LOCATION LINE 3
 SECT.        32                                                                     :SECTION
 TOWN.        17 NORTH                                                               :TOWNSHIP
 RANG.        3 EAST                                                                 :RANGE
 LATI.                                                                               :Latitude
 LONG.                                                                               :Longitude
 DATE.        11/16/2010                                                             :LOGGING DATE
 SRVC.        Schlumberger                                                           :SERVICE COMPANY
~Parameter
#MNEM.UNIT    VALUE                                                                  :DESCRIPTION
#----.----    ---------------                                                        :-------------------
 APD.F        15.000                                                                 :Elevation of depth reference above permanent datum
 EDF.F        683.000                                                                :Elevation of Derrick Floor
 EGL.F        669.000                                                                :Elevation of Ground Level
 EKB.F        684.000                                                                :Elevation of Kelly Bushing
 EPD.F        669.000                                                                :Elevation of Permnaent Datum
 LMF.         Kelly Bushing                                                          :Logging Measured From
 PDAT.        Ground Level                                                           :Permanent Datum
 TDD.F        7264.000                                                               :Total Depth Driller
 TDL.F        7272.000                                                               :Total Depth Logger
 BS.IN        8.500                                                                  :Bit Size
 R1.                                                                                 :REMARK 1
 R2.                                                                                 :REMARK 2
 R3.                                                                                 :REMARK 3
 R4.                                                                                 :REMARK 4
 R5.                                                                                 :REMARK 5
 R6.                                                                                 :REMARK 6
 R7.                                                                                 :REMARK 7
 R8.                                                                                 :REMARK 8
 R9.                                                                                 :REMARK 9
 R10.                                                                                :REMARK 10
 DCS_CENTER.  Denver                                                                 :Schlumberger DCS Center
 LOG_ANALYST. Becker                                                                 :Log Analyst Name
 ENG.         D. HUNTER / M. WINTER                                                  :Field Engineer Name
 GF_BASELINE. GF45LNX                                                                :GeoFrame Baseline
~Curve
#MNEM.UNIT                                                                           :DESCRIPTION
#----.----                                                                           :--------------------------------
 DEPT.F                                                                              :Depth Index
 RLA1.OHMM                                                                           : 1 Apparent Resistivity from Computed Focusing Mode 1                                        
 RLA2.OHMM                                                                           : 2 Apparent Resistivity from Computed Focusing Mode 2                                        
 RLA3.OHMM                                                                           : 3 Apparent Resistivity from Computed Focusing Mode 3                                        
 RLA4.OHMM                                                                           : 4 Apparent Resistivity from Computed Focusing Mode 4                                        
 RLA5.OHMM                                                                           : 5 Apparent Resistivity from Computed Focusing Mode 5                                        
 BS.IN                                                                               : 6 Bit Size                                                                                  
 HCAL.IN                                                                             : 7 HRCC Caliper Calibrated                                                                   
 HDAR.IN                                                                             : 8 Hole Diameter from Area                                                                   
 HD1_PPC1.IN                                                                         : 9 PPC1 Hole Diameter 1                                                                      
 HD2_PPC1.IN                                                                         :10 PPC1 Hole Diameter 2                                                                      
 TENS.LBS                                                                            :11 Cable Tension                                                                             
 GR_EDTC.GAPI                                                                        :12 Gamma Ray                                                                                 
 NPHI.CFCF                                                                           :13 Thermal Neutron Porosity (original Ratio Method) in Selected Lithology                    
 NPOR.CFCF                                                                           :14 Enhanced Thermal Neutron Porosity in Selected Lithology                                   
 PEFZ.                                                                               :15 HRDD Standard Resolution Formation Photoelectric Factor                                   
 RHOZ.G/C3                                                                           :16 HRDD Standard Resolution Formation Density                                                
 DPHZ.CFCF                                                                           :17 Standard Resolution Density Porosity                                                      
 SPHI.CFCF                                                                           :18 Sonic Porosity                                                                            
 VCL_HILT.CFCF                                                                       :19 Volume of Clay type Material relative to Total Volume                                     
 DTCO.US/FT                                                                          :20 Delta-T Compressional                                                                     
 DTSM_FAST.US/FT                                                                     :21 Shear Slowness of Fast Shear Waves                                                        
 DTST.US/FT                                                                          :22 Delta-T Stoneley - Monopole Stoneley                                                      
 PR_FAST.                                                                            :23 Poisson Ratio of Fast Shear Waves                                                         
 VPVS_FAST.                                                                          :24 Vp/Vs Ration of fast shear waves                                                          
 MAXXENE_OVERALL.                                                                    :25 Overall estimate of maximum cross energy                                                  
 MINXENE_OVERALL.                                                                    :26 Overall estimate of minimum cross energy                                                  
 FLAG.                                                                               :27 General Indicator Flag(Bad Borehole)                                                                    
~Ascii   DEPT          RLA1          RLA2          RLA3          RLA4          RLA5            BS          HCAL          HDAR      HD1_PPC1      HD2_PPC1          TENS       GR_EDTC          NPHI          NPOR          PEFZ          RHOZ          DPHZ          SPHI      VCL_HILT          DTCO     DTSM_FAST          DTST       PR_FAST     VPVS_FAST  MAXXENE_OVER  MINXENE_OVER          FLAG
# ...
    6577.00000       4.83092       4.20216       3.94875       3.72892       3.42340       8.50000       8.33179       8.39090       8.38485       8.39695    3453.58838      32.67058       0.19481       0.19451       1.85889       2.35244       0.18034       0.18262      12.83036      76.44657     131.93053     223.77249       0.24726       1.72579       7.41022       0.48129       0.00000
    6576.50000       4.66254       4.06267       3.79687       3.59379       3.30565       8.50000       8.33916       8.39739       8.38485       8.40993    3449.72217      35.90823       0.19918       0.19566       1.84458       2.35463       0.17901       0.18198       9.98114      76.35920     132.00670     224.28943       0.24857       1.72876       7.17442       0.49923       0.00000
    6576.00000       4.51867       3.94805       3.66664       3.47135       3.18813       8.50000       8.34653       8.43379       8.41897       8.44862    3459.17651      35.88291       0.20370       0.19823       1.85002       2.35672       0.17775       0.18073       8.68539      76.18700     131.82323     224.58051       0.24922       1.73026       6.99358       0.52285       0.00000
    6575.50000       4.30897       3.77443       3.50873       3.31916       3.05466       8.50000       8.34653       8.42816       8.40769       8.44862    3470.29419      36.67233       0.19692       0.20067       1.87362       2.36052       0.17544       0.17986      10.35082      76.06729     131.80759     224.59111       0.25031       1.73278       6.65700       0.57415       0.00000
    6575.00000       4.21475       3.67171       3.40367       3.22006       2.96331       8.50000       8.34653       8.44028       8.41897       8.46159    3470.35303      36.05324       0.19038       0.18611       1.90483       2.36578       0.17225       0.17944      12.25465      76.00935     131.72101     224.35648       0.25039       1.73296       6.28776       0.62013       0.00000
    6574.50000       4.42163       3.84199       3.59430       3.38275       3.11785       8.50000       8.35390       8.43243       8.40752       8.45735    3429.11768      35.51878       0.18878       0.18690       1.92373       2.36917       0.17020       0.17800      13.89084      75.81113     131.22595     223.79907       0.24953       1.73096       5.94060       0.66230       0.00000
    6574.00000       4.75537       4.12591       3.83550       3.61944       3.33455       8.50000       8.36128       8.42751       8.41925       8.43576    3336.62500      34.07048       0.19387       0.20920       1.91027       2.37353       0.16756       0.17433      13.54364      75.30500     130.33409     223.00063       0.24944       1.73075       5.60478       0.72103       0.00000
    6573.50000       3.61314       3.13486       2.90787       2.73946       2.53477       8.50000       8.37971       8.39739       8.38485       8.40993    3243.35278      33.10580       0.19111       0.19083       1.87977       2.37863       0.16447       0.16970      13.71640      74.66736     128.67880     222.27475       0.24619       1.72336       5.09476       0.72126       0.00000
    6573.00000       4.34416       3.78984       3.52360       3.32001       3.06638       8.50000       8.36865       8.41614       8.39641       8.43587    3227.62500      32.82847       0.17819       0.17798       1.86367       2.38188       0.16250       0.16702      10.09746      74.29835     126.72770     221.82462       0.23812       1.70566       4.42905       0.69385       0.00000
    6572.50000       5.77073       5.03209       4.68675       4.39740       4.05864       8.50000       8.36865       8.42737       8.41897       8.43576    3295.35303      37.42685       0.17434       0.16671       1.86970       2.38015       0.16354       0.16719      10.10246      74.32269     125.72920     221.80002       0.23143       1.69167       3.91042       0.69488       0.00000
    6572.00000       5.72367       5.01221       4.64674       4.36448       4.02405       8.50000       8.36865       8.42088       8.41897       8.42279    3364.29419      40.18397       0.18747       0.19456       1.88658       2.37362       0.16750       0.16887      12.12279      74.55354     124.99896     222.13341       0.22392       1.67663       3.55526       0.70558       0.00000
    6571.50000       5.60649       4.91778       4.53911       4.26680       3.94764       8.50000       8.34653       8.43379       8.41897       8.44862    3424.64697      43.89388       0.19848       0.20689       1.92015       2.36086       0.17523       0.16798      16.00075      74.43096     123.51396     222.23582       0.21490       1.65944       3.27985       0.72649       0.00000
    6571.00000       5.58449       4.88831       4.51327       4.24419       3.94574       8.50000       8.36865       8.43393       8.41925       8.44862    3373.58813      43.36219       0.20182       0.20375       1.96436       2.35365       0.17961       0.16128      18.93778      73.50768     121.67972     221.59174       0.21266       1.65533       3.02084       0.79379       0.00000
    6570.50000       5.54439       4.83145       4.47936       4.23051       3.92611       8.50000       8.36128       8.43399       8.41925       8.44873    3287.05884      42.53777       0.17971       0.17963       1.99954       2.36873       0.17047       0.14972      20.36661      71.91623     119.95027     219.51341       0.21941       1.66792       2.81237       0.84853       0.00000
    6570.00000       5.98492       5.13911       4.85552       4.57461       4.26014       8.50000       8.37971       8.43892       8.44208       8.43576    3395.12500      39.13037       0.15400       0.13740       1.99108       2.40879       0.14619       0.13813      20.83726      70.32002     118.49908     217.13388       0.22822       1.68514       2.68351       0.84991       0.00000
    6569.50000       6.88166       6.01714       5.61856       5.28681       4.93389       8.50000       8.37602       8.42173       8.40769       8.43576    3487.72241      39.28097       0.13334       0.13276       1.98814       2.43782       0.12859       0.13071      19.54151      69.29868     117.18173     215.64880       0.23109       1.69097       2.57678       0.86166       0.00000
    6569.00000       6.79941       5.99967       5.59463       5.25526       4.90441       8.50000       8.35759       8.41158       8.38739       8.43576    3510.45288      39.64112       0.13239       0.13530       1.98872       2.44173       0.12622       0.12795      17.46935      68.91833     116.14987     215.24814       0.22831       1.68533       2.45309       0.87785       0.00000
    6568.50000       6.83483       6.03383       5.60722       5.27420       4.91973       8.50000       8.37971       8.40976       8.39384       8.42279    3471.28149      42.96230       0.13638       0.14345       2.00497       2.42905       0.13391       0.12668      17.93197      68.74316     115.35077     215.04662       0.22462       1.67800       2.33507       0.87404       0.00000
    6568.00000       8.16402       7.11513       6.67291       6.26221       5.85849       8.50000       8.37602       8.42201       8.40393       8.44873    3388.88428      47.16597       0.14502       0.14244       2.03132       2.42127       0.13862       0.12557      18.96857      68.59033     114.78674     214.66611       0.22232       1.67351       2.25329       0.87981       0.00000
    6567.50000       7.86714       6.97347       6.39083       6.00706       5.63995       8.50000       8.36865       8.41787       8.40142       8.42279    3288.63232      50.04164       0.14866       0.15557       2.06303       2.42517       0.13626       0.12418      21.47243      68.39903     114.29737     214.14832       0.22104       1.67104       2.21690       0.90743       0.00000
    6567.00000       5.36509       4.65127       4.32109       4.06873       3.81322       8.50000       8.37602       8.41534       8.39641       8.44862    3233.77124      51.25267       0.15162       0.17015       2.08780       2.43573       0.12986       0.12273      23.99970      68.19932     113.67886     213.70419       0.21885       1.66686       2.22146       0.92972       0.00000
