~VERSION
 VERS.        2.00                                                                   :CWLS LOG ASCII STANDARD
 WRAP.        NO                                                                     :NO WRAP PERFORMED
 PROD.        Schlumberger                                                           :LAS Producer
 CREA.        Thu Dec  9 10:53:02 2010                                               :LAS Creation Date and time
~Well
#MNEM.UNIT    VALUE                                                                   :DESCRIPTION
#----.----    ---------------                                                        :-------------------
 STRT.F       7228.000                                                               :START DEPTH
 STOP.F       5250.000                                                               :STOP  DEPTH
 STEP.F       -0.500                                                                 :DEPTH STEP
 NULL.        -999.250                                                               :NULL VALUE
 COMP.        ADM COMPANY                                                            :COMPANY NAME
 WELL.        VERIFICATION WELL 1                                                    :WELL NAME
 FLD.         WILDCAT                                                                :FIELD NAME
 API.         121152346000                                                           :API NUMBER
 CNTY.        MACON                                                                  :COUNTY
 STAT.        ILLINOIS                                                               :STATE
 CTRY.        US                                                                     :COUNTRY
 LOC.         LAT 39* 52' 47.3" N                                                    :WELL SURFACE LOCATION LINE 1
 LOC2.        LONG 88* 53' 36.1"                                                     :WELL SURFACE LOCATION LINE 2
 LOC3.        605' N & 1175' E OF SW CORNER                                          :WELL SURFACE LOCATION LINE 3
 SECT.        32                                                                     :SECTION
 TOWN.        17 NORTH                                                               :TOWNSHIP
 RANG.        3 EAST                                                                 :RANGE
 LATI.                                                                               :Latitude
 LONG.                                                                               :Longitude
 DATE.        11/16/2010                                                             :LOGGING DATE
 SRVC.        Schlumberger                                                           :SERVICE COMPANY
~Parameter
#MNEM.UNIT    VALUE                                                                  :DESCRIPTION
#----.----    ---------------                                                        :-------------------
 APD.F        15.000                                                                 :Elevation of depth reference above permanent datum
 EDF.F        683.000                                                                :Elevation of Derrick Floor
 EGL.F        669.000                                                                :Elevation of Ground Level
 EKB.F        684.000                                                                :Elevation of Kelly Bushing
 EPD.F        669.000                                                                :Elevation of Permnaent Datum
 LMF.         Kelly Bushing                                                          :Logging Measured From
 PDAT.        Ground Level                                                           :Permanent Datum
 TDD.F        7264.000                                                               :Total Depth Driller
 TDL.F        7272.000                                                               :Total Depth Logger
 BS.IN        8.500                                                                  :Bit Size
 R1.                                                                                 :REMARK 1
 R2.                                                                                 :REMARK 2
 R3.                                                                                 :REMARK 3
 R4.                                                                                 :REMARK 4
 R5.                                                                                 :REMARK 5
 R6.                                                                                 :REMARK 6
 R7.                                                                                 :REMARK 7
 R8.                                                                                 :REMARK 8
 R9.                                                                                 :REMARK 9
 R10.                                                                                :REMARK 10
 DCS_CENTER.  Denver                                                                 :Schlumberger DCS Center
 LOG_ANALYST. Becker                                                                 :Log Analyst Name
 ENG.         D. HUNTER / M. WINTER                                                  :Field Engineer Name
 GF_BASELINE. GF45LNX                                                                :GeoFrame Baseline
~Curve
#MNEM.UNIT                                                                           :DESCRIPTION
#----.----                                                                           :--------------------------------
 DEPT.F                                                                              :Depth Index
 RLA1.OHMM                                                                           : 1 Apparent Resistivity from Computed Focusing Mode 1                                        
 RLA2.OHMM                                                                           : 2 Apparent Resistivity from Computed Focusing Mode 2                                        
 RLA3.OHMM                                                                           : 3 Apparent Resistivity from Computed Focusing Mode 3                                        
 RLA4.OHMM                                                                           : 4 Apparent Resistivity from Computed Focusing Mode 4                                        
 RLA5.OHMM                                                                           : 5 Apparent Resistivity from Computed Focusing Mode 5                                        
 BS.IN                                                                               : 6 Bit Size                                                                                  
 HCAL.IN                                                                             : 7 HRCC Caliper Calibrated                                                                   
 HDAR.IN                                                                             : 8 Hole Diameter from Area                                                                   
 HD1_PPC1.IN                                                                         : 9 PPC1 Hole Diameter 1                                                                      
 HD2_PPC1.IN                                                                         :10 PPC1 Hole Diameter 2                                                                      
 TENS.LBS                                                                            :11 Cable Tension                                                                             
 GR_EDTC.GAPI                                                                        :12 Gamma Ray                                                                                 
 NPHI.CFCF                                                                           :13 Thermal Neutron Porosity (original Ratio Method) in Selected Lithology                    
 NPOR.CFCF                                                                           :14 Enhanced Thermal Neutron Porosity in Selected Lithology                                   
 PEFZ.                                                                               :15 HRDD Standard Resolution Formation Photoelectric Factor                                   
 RHOZ.G/C3                                                                           :16 HRDD Standard Resolution Formation Density                                                
 DPHZ.CFCF                                                                           :17 Standard Resolution Density Porosity                                                      
 SPHI.CFCF                                                                           :18 Sonic Porosity                                                                            
 VCL_HILT.CFCF                                                                       :19 Volume of Clay type Material relative to Total Volume                                     
 DTCO.US/FT                                                                          :20 Delta-T Compressional                                                                     
 DTSM_FAST.US/FT                                                                     :21 Shear Slowness of Fast Shear Waves                                                        
 DTST.US/FT                                                                          :22 Delta-T Stoneley - Monopole Stoneley                                                      
 PR_FAST.                                                                            :23 Poisson Ratio of Fast Shear Waves                                                         
 VPVS_FAST.                                                                          :24 Vp/Vs Ration of fast shear waves                                                          
 MAXXENE_OVERALL.                                                                    :25 Overall estimate of maximum cross energy                                                  
 MINXENE_OVERALL.                                                                    :26 Overall estimate of minimum cross energy                                                  
 FLAG.                                                                               :27 General Indicator Flag(Bad Borehole)                                                                    
~Ascii   DEPT          RLA1          RLA2          RLA3          RLA4          RLA5            BS          HCAL          HDAR      HD1_PPC1      HD2_PPC1          TENS       GR_EDTC          NPHI          NPOR          PEFZ          RHOZ          DPHZ          SPHI      VCL_HILT          DTCO     DTSM_FAST          DTST       PR_FAST     VPVS_FAST  MAXXENE_OVER  MINXENE_OVER          FLAG
# ...
    6178.00000      19.93068      17.48815      16.41515      15.31806      13.85087       8.50000       8.19170       8.30708       8.28180       8.33235    3377.52930      64.65784       0.09588       0.09544       2.01420       2.48220       0.10169       0.07176      29.79081      61.18084      98.39147     212.91003       0.18481       1.60821       7.42593       0.37783       0.00000
    6177.50000      22.14251      19.34440      18.14642      17.03634      15.35367       8.50000       8.22856       8.38909       8.28209       8.33235    3389.47070      65.51379       0.09353       0.09807       1.97177       2.49396       0.09457       0.07139      34.49747      61.12985      98.25034     213.19052       0.18419       1.60724       7.31286       0.36927       0.00000
    6177.00000      23.98495      20.65833      19.47969      18.21964      16.40677       8.50000       8.23594       8.31707       8.29370       8.50024    3337.23315      67.14241       0.09031       0.09460       1.96131       2.50138       0.09007       0.07399      34.24673      61.48875      98.84212     213.22974       0.18434       1.60748       7.36690       0.36064       0.00000
    6176.50000      23.89841      20.57414      19.11349      18.06861      16.30936       8.50000       8.22119       8.31903       8.30670       8.34087    3353.84863      67.08028       0.08651       0.08647       1.98572       2.49749       0.09243       0.07677      33.03219      61.87067      99.33336     213.04945       0.18307       1.60550       7.61167       0.36125       0.00000
    6176.00000      22.62069      19.42897      18.45059      17.11031      15.47425       8.50000       8.43501       8.32476       8.32874       8.33235    3418.98364      72.31544       0.08366       0.07927       1.98734       2.50195       0.08973       0.07755      31.82343      61.97920      99.88541     212.69241       0.18696       1.61160       7.82314       0.35679       0.00000
    6175.50000      18.27243      15.52477      14.36825      13.44891      12.17706       8.50000       8.41289       8.33576       8.33917       8.31947    3390.93335      74.37940       0.08759       0.09438       1.99876       2.51528       0.08165       0.07729      35.96982      61.94285     100.31248     212.33527       0.19185       1.61944       7.94065       0.34689       0.00000
    6175.00000      19.59095      16.74102      15.37457      14.37639      13.06230       8.50000       8.23594       8.33675       8.34115       8.33235    3421.63843      76.69106       0.09161       0.09989       2.02424       2.52563       0.07538       0.07670      42.47351      61.86125     100.77646     212.14095       0.19768       1.62907       8.13757       0.33228       0.00000
    6174.50000      16.30993      14.00783      13.05592      12.10896      11.09721       8.50000       8.24331       8.34153       8.35070       8.33235    3489.89990      84.38686       0.09238       0.09120       2.11731       2.52295       0.07700       0.07664      46.50573      61.85274     101.40433     211.94765       0.20375       1.63945       8.40995       0.33541       0.00000
    6174.00000      16.15544      13.79561      12.49046      11.73756      10.72025       8.50000       8.25805       8.34037       8.34838       8.33235    3447.17944      94.85162       0.08930       0.09386       2.20820       2.51981       0.07891       0.07726      46.06369      61.93846     102.35472     211.51457       0.21112       1.65252       8.52144       0.35247       0.00000
    6173.50000      22.73204      19.29633      17.60378      16.29690      14.88273       8.50000       8.25805       8.33718       8.34201       8.33235    3352.26270     106.25044       0.09332       0.09128       2.29710       2.52227       0.07741       0.07888      49.35619      62.16180     103.77769     211.05014       0.22023       1.66948       8.45333       0.36639       0.00000
    6173.00000      14.39943      12.20140      11.32853      10.40457       9.58576       8.50000       8.28017       8.34008       8.34781       8.33235    3364.95264     108.10641       0.09819       0.09870       2.38048       2.52245       0.07730       0.08155      57.85794      62.52930     104.98865     211.02820       0.22515       1.67903       8.30989       0.38386       0.00000
    6172.50000      11.96391      10.24093       9.38702       8.65644       7.97727       8.50000       8.26911       8.33929       8.34260       8.33235    3396.68408     101.26379       0.11857       0.13400       2.48970       2.51630       0.08103       0.08520      71.75869      63.03236     105.33472     211.51494       0.22108       1.67112       8.07148       0.40222       0.00000
    6172.00000      11.41517       9.64157       8.85445       8.20564       7.52945       8.50000       8.28755       8.34599       8.35070       8.33235    3384.37451      85.91070       0.12356       0.14307       2.54653       2.51837       0.07978       0.08919      73.74550      63.58152     104.99228     212.34235       0.21045       1.65130       7.79474       0.41639       0.00000
    6171.50000      15.34743      13.14925      12.02485      11.27598      10.36098       8.50000       8.29492       8.34179       8.34694       8.34523    3393.11768      74.46803       0.11567       0.10166       2.49670       2.52513       0.07568       0.09192      65.89150      63.95778     104.46218     212.96091       0.20018       1.63330       7.57950       0.41809       0.00000
    6171.00000      12.87481      11.23540      10.15075       9.47805       8.77800       8.50000       8.30229       8.34281       8.33110       8.33235    3397.97290      68.72723       0.10218       0.10321       2.37227       2.51693       0.08065       0.09241      51.21369      64.02434     103.80504     213.10011       0.19301       1.62134       7.44774       0.42657       0.00000
    6170.50000      11.25745       9.73049       8.95942       8.38467       7.70890       8.50000       8.29492       8.33457       8.30300       8.34523    3411.14575      68.48299       0.09996       0.11014       2.25004       2.49974       0.09106       0.09126      46.37624      63.86597     103.02963     212.91093       0.18798       1.61322       7.41933       0.46534       0.00000
    6170.00000      10.32440       8.93143       8.24184       7.71190       7.08336       8.50000       8.30967       8.32239       8.28655       8.37110    3404.87891      66.23820       0.10499       0.11551       2.19207       2.48550       0.09970       0.08942      45.66791      63.61354     102.35944     212.60764       0.18537       1.60908       7.44870       0.50997       0.00000
    6169.50000      10.76094       9.24228       8.55927       8.03793       7.32660       8.50000       8.29492       8.32269       8.29843       8.35822    3386.60938      61.81376       0.10270       0.10975       2.17873       2.48213       0.10174       0.08861      43.96825      63.50181     102.23550     212.48361       0.18593       1.60996       7.38798       0.55356       0.00000
    6169.00000      15.54126      13.66336      12.68012      11.90370      10.82454       8.50000       8.29123       8.31032       8.29427       8.35822    3372.95142      58.52228       0.10055       0.09702       2.18242       2.47955       0.10330       0.08996      40.93618      63.68808     102.71793     212.63617       0.18774       1.61283       7.33514       0.58151       0.00000
    6168.50000      13.54935      12.00185      11.21014      10.50241       9.51540       8.50000       8.30967       8.30938       8.29308       8.33235    3371.05151      59.73405       0.09754       0.09594       2.16183       2.47487       0.10614       0.09395      34.29523      64.23711     103.43816     212.94138       0.18611       1.61026       7.50562       0.57715       0.00000
    6168.00000      12.91617      11.47665      10.76231      10.12970       9.13131       8.50000       8.29123       8.31569       8.29902       8.31936    3393.19214      68.44923       0.09700       0.10197       2.10102       2.47794       0.10428       0.09937      30.81449      64.98375     104.31888     213.18671       0.18294       1.60531       7.76343       0.56841       0.00000
