~VERSION
 VERS.        2.00                                                                   :CWLS LOG ASCII STANDARD
 WRAP.        NO                                                                     :NO WRAP PERFORMED
 PROD.        Schlumberger                                                           :LAS Producer
 CREA.        Thu Dec  9 10:53:02 2010                                               :LAS Creation Date and time
~Well
#MNEM.UNIT    VALUE                                                                   :DESCRIPTION
#----.----    ---------------                                                        :-------------------
 STRT.F       7228.000                                                               :START DEPTH
 STOP.F       5250.000                                                               :STOP  DEPTH
 STEP.F       -0.500                                                                 :DEPTH STEP
 NULL.        -999.250                                                               :NULL VALUE
 COMP.        ADM COMPANY                                                            :COMPANY NAME
 WELL.        VERIFICATION WELL 1                                                    :WELL NAME
 FLD.         WILDCAT                                                                :FIELD NAME
 API.         121152346000                                                           :API NUMBER
 CNTY.        MACON                                                                  :COUNTY
 STAT.        ILLINOIS                                                               :STATE
 CTRY.        US                                                                     :COUNTRY
 LOC.         LAT 39* 52' 47.3" N                                                    :WELL SURFACE LOCATION LINE 1
 LOC2.        LONG 88* 53' 36.1"                                                     :WELL SURFACE LOCATION LINE 2
 LOC3.        605' N & 1175' E OF SW CORNER                                          :WELL SURFACE LOCATION LINE 3
 SECT.        32                                                                     :SECTION
 TOWN.        17 NORTH                                                               :TOWNSHIP
 RANG.        3 EAST                                                                 :RANGE
 LATI.                                                                               :Latitude
 LONG.                                                                               :Longitude
 DATE.        11/16/2010                                                             :LOGGING DATE
 SRVC.        Schlumberger                                                           :SERVICE COMPANY
~Parameter
#MNEM.UNIT    VALUE                                                                  :DESCRIPTION
#----.----    ---------------                                                        :-------------------
 APD.F        15.000                                                                 :Elevation of depth reference above permanent datum
 EDF.F        683.000                                                                :Elevation of Derrick Floor
 EGL.F        669.000                                                                :Elevation of Ground Level
 EKB.F        684.000                                                                :Elevation of Kelly Bushing
 EPD.F        669.000                                                                :Elevation of Permnaent Datum
 LMF.         Kelly Bushing                                                          :Logging Measured From
 PDAT.        Ground Level                                                           :Permanent Datum
 TDD.F        7264.000                                                               :Total Depth Driller
 TDL.F        7272.000                                                               :Total Depth Logger
 BS.IN        8.500                                                                  :Bit Size
 R1.                                                                                 :REMARK 1
 R2.                                                                                 :REMARK 2
 R3.                                                                                 :REMARK 3
 R4.                                                                                 :REMARK 4
 R5.                                                                                 :REMARK 5
 R6.                                                                                 :REMARK 6
 R7.                                                                                 :REMARK 7
 R8.                                                                                 :REMARK 8
 R9.                                                                                 :REMARK 9
 R10.                                                                                :REMARK 10
 DCS_CENTER.  Denver                                                                 :Schlumberger DCS Center
 LOG_ANALYST. Becker                                                                 :Log Analyst Name
 ENG.         D. HUNTER / M. WINTER                                                  :Field Engineer Name
 GF_BASELINE. GF45LNX                                                                :GeoFrame Baseline
~Curve
#MNEM.UNIT                                                                           :DESCRIPTION
#----.----                                                                           :--------------------------------
 DEPT.F                                                                              :Depth Index
 RLA1.OHMM                                                                           : 1 Apparent Resistivity from Computed Focusing Mode 1                                        
 RLA2.OHMM                                                                           : 2 Apparent Resistivity from Computed Focusing Mode 2                                        
 RLA3.OHMM                                                                           : 3 Apparent Resistivity from Computed Focusing Mode 3                                        
 RLA4.OHMM                                                                           : 4 Apparent Resistivity from Computed Focusing Mode 4                                        
 RLA5.OHMM                                                                           : 5 Apparent Resistivity from Computed Focusing Mode 5                                        
 BS.IN                                                                               : 6 Bit Size                                                                                  
 HCAL.IN                                                                             : 7 HRCC Caliper Calibrated                                                                   
 HDAR.IN                                                                             : 8 Hole Diameter from Area                                                                   
 HD1_PPC1.IN                                                                         : 9 PPC1 Hole Diameter 1                                                                      
 HD2_PPC1.IN                                                                         :10 PPC1 Hole Diameter 2                                                                      
 TENS.LBS                                                                            :11 Cable Tension                                                                             
 GR_EDTC.GAPI                                                                        :12 Gamma Ray                                                                                 
 NPHI.CFCF                                                                           :13 Thermal Neutron Porosity (original Ratio Method) in Selected Lithology                    
 NPOR.CFCF                                                                           :14 Enhanced Thermal Neutron Porosity in Selected Lithology                                   
 PEFZ.                                                                               :15 HRDD Standard Resolution Formation Photoelectric Factor                                   
 RHOZ.G/C3                                                                           :16 HRDD Standard Resolution Formation Density                                                
 DPHZ.CFCF                                                                           :17 Standard Resolution Density Porosity                                                      
 SPHI.CFCF                                                                           :18 Sonic Porosity                                                                            
 VCL_HILT.CFCF                                                                       :19 Volume of Clay type Material relative to Total Volume                                     
 DTCO.US/FT                                                                          :20 Delta-T Compressional                                                                     
 DTSM_FAST.US/FT                                                                     :21 Shear Slowness of Fast Shear Waves                                                        
 DTST.US/FT                                                                          :22 Delta-T Stoneley - Monopole Stoneley                                                      
 PR_FAST.                                                                            :23 Poisson Ratio of Fast Shear Waves                                                         
 VPVS_FAST.                                                                          :24 Vp/Vs Ration of fast shear waves                                                          
 MAXXENE_OVERALL.                                                                    :25 Overall estimate of maximum cross energy                                                  
 MINXENE_OVERALL.                                                                    :26 Overall estimate of minimum cross energy                                                  
 FLAG.                                                                               :27 General Indicator Flag(Bad Borehole)                                                                    
~Ascii   DEPT          RLA1          RLA2          RLA3          RLA4          RLA5            BS          HCAL          HDAR      HD1_PPC1      HD2_PPC1          TENS       GR_EDTC          NPHI          NPOR          PEFZ          RHOZ          DPHZ          SPHI      VCL_HILT          DTCO     DTSM_FAST          DTST       PR_FAST     VPVS_FAST  MAXXENE_OVER  MINXENE_OVER          FLAG
# ...
    6440.50000       9.05852       7.81305       7.26241       6.77373       6.13139       8.50000       8.41289       8.45733       8.45307       8.46159    3346.35303      29.45213       0.16748       0.17657       1.84277       2.38318       0.16171       0.14788       8.57195      71.66285     119.26499     218.45807       0.21747       1.66425       3.89783       0.51094       0.00000
    6440.00000       9.01815       7.81247       7.21617       6.71515       6.09311       8.50000       8.42395       8.46296       8.46434       8.47455    3418.05054      30.00606       0.16395       0.15944       1.84743       2.37828       0.16468       0.15138       6.67549      72.14461     119.93503     219.05147       0.21650       1.66243       4.07451       0.50625       0.00000
    6439.50000       9.15914       7.95263       7.36327       6.85966       6.22432       8.50000       8.41289       8.46481       8.46434       8.48740    3411.02515      29.32073       0.15908       0.16705       1.82510       2.38208       0.16237       0.15129       5.17795      72.13239     120.39709     219.15176       0.22003       1.66911       4.31356       0.49909       0.00000
    6439.00000       8.83603       7.67999       7.06053       6.58649       5.99033       8.50000       8.42395       8.47220       8.46434       8.46159    3376.87378      27.45017       0.15766       0.16354       1.80477       2.38924       0.15804       0.14985       4.04438      71.93452     120.66248     219.00761       0.22431       1.67739       4.61791       0.50550       0.00000
    6438.50000       7.92407       6.81242       6.29857       5.87762       5.34810       8.50000       8.42395       8.46857       8.46450       8.52614    3359.13867      30.81189       0.16502       0.15180       1.81358       2.39277       0.15590       0.14994       6.45888      71.94670     120.67796     218.79669       0.22428       1.67732       4.99249       0.53246       0.00000
    6438.00000       7.60900       6.62113       6.06405       5.65304       5.13887       8.50000       8.43501       8.49823       8.48875       8.53482    3373.46021      38.25352       0.17310       0.17231       1.84620       2.39406       0.15512       0.15121      10.37890      72.12165     120.38766     218.41228       0.22010       1.66923       5.43806       0.56583       0.00000
    6437.50000       6.35401       5.43645       5.03209       4.71404       4.28390       8.50000       8.45713       8.53068       8.52779       8.52614    3383.87378      40.28309       0.18411       0.20523       1.89230       2.39341       0.15551       0.15053      15.40889      72.02735     119.99123     217.66931       0.21835       1.66591       6.00739       0.60145       0.00000
    6437.00000       7.91439       6.74603       6.29864       5.93623       5.38533       8.50000       8.46819       8.52367       8.52120       8.52614    3320.70605      35.89674       0.18584       0.19232       1.91432       2.40260       0.14994       0.14492      18.94883      71.25595     119.65190     216.76176       0.22522       1.67918       6.64887       0.64040       0.00000
    6436.50000      10.41288       8.95689       8.38208       7.88506       7.17036       8.50000       8.46450       8.51805       8.50995       8.55192    3345.00000      37.92885       0.17630       0.15843       1.92790       2.40976       0.14560       0.13942      20.93565      70.49868     119.70068     215.93466       0.23445       1.69791       7.22581       0.66900       0.00000
    6436.00000      10.06619       8.80126       8.16894       7.66273       6.96231       8.50000       8.47187       8.54233       8.53274       8.56475    3347.62524      37.47033       0.17060       0.16497       1.90164       2.41554       0.14210       0.13856      19.58900      70.37949     120.64162     215.90234       0.24205       1.71416       7.77332       0.69133       0.00000
    6435.50000       8.48829       7.45043       6.94313       6.48265       5.88992       8.50000       8.49399       8.54875       8.53274       8.56062    3307.17651      38.54412       0.16880       0.18379       1.88606       2.40235       0.15009       0.14228      15.79413      70.89156     121.64373     216.94669       0.24285       1.71591       8.29367       0.71890       0.00000
    6435.00000       8.34252       7.26411       6.79711       6.36111       5.77240       8.50000       8.47925       8.54665       8.53269       8.57769    3279.62500      33.91845       0.17474       0.17610       1.85501       2.38638       0.15977       0.14884      11.81654      71.79505     122.24818     218.63937       0.23675       1.70274       8.71464       0.75123       0.00000
    6434.50000       8.09375       7.10477       6.58861       6.16846       5.59924       8.50000       8.49030       8.54944       8.52120       8.55192    3239.31250      33.10877       0.17476       0.18160       1.82758       2.37415       0.16718       0.15544       9.48971      72.70367     122.90139     220.02255       0.23083       1.69044       8.98043       0.79054       0.00000
    6434.00000       6.98857       6.07932       5.66132       5.31666       4.82363       8.50000       8.50136       8.54810       8.54428       8.55181    3259.23535      31.33866       0.18039       0.19535       1.78567       2.37485       0.16676       0.16234       8.01784      73.65405     123.48156     221.07178       0.22386       1.67651       9.05440       0.82455       0.00000
    6433.50000       6.95389       6.05397       5.57340       5.24903       4.75965       8.50000       8.47925       8.54227       8.53274       8.57769    3325.82349      30.41677       0.17845       0.17514       1.76818       2.37926       0.16408       0.17094       7.41712      74.83792     123.76519     222.20334       0.21181       1.65378       9.01010       0.83847       0.00000
    6433.00000       7.08329       6.14881       5.68629       5.33789       4.84395       8.50000       8.47925       8.55521       8.53274       8.56062    3350.47070      28.67041       0.18100       0.16957       1.77878       2.37758       0.16510       0.17906       5.51329      75.95593     123.79941     222.76103       0.19816       1.62988       8.89236       0.83749       0.00000
    6432.50000       6.07100       5.31832       4.88081       4.58221       4.16133       8.50000       8.50136       8.54695       8.53269       8.56475    3290.49683      26.46159       0.18375       0.19413       1.79376       2.37444       0.16701       0.18073       5.60303      76.18680     123.65658     222.60657       0.19407       1.62307       8.66466       0.82836       0.00000
    6432.00000       5.69689       4.94406       4.58892       4.30085       3.90378       8.50000       8.50136       8.54201       8.52293       8.55192    3263.59155      29.86408       0.18511       0.19731       1.78777       2.37887       0.16432       0.17437       5.94473      75.31052     123.47669     221.74017       0.20382       1.63957       8.32372       0.81002       0.00000
    6431.50000       7.42536       6.47581       6.02711       5.64432       5.13033       8.50000       8.50136       8.53527       8.51312       8.56475    3324.93066      36.35318       0.17957       0.17754       1.79716       2.38738       0.15916       0.16264      10.35367      73.69489     123.21043     220.70845       0.22149       1.67190       7.95685       0.78258       0.00000
    6431.00000       7.15942       6.21597       5.79396       5.42711       4.92516       8.50000       8.47925       8.55611       8.53274       8.59051    3358.96655      42.12006       0.17073       0.16377       1.81867       2.40047       0.15123       0.15530      15.18531      72.68415     122.95565     220.14497       0.23142       1.69164       7.58568       0.75278       0.00000
    6430.50000       9.08181       7.86908       7.39128       6.93833       6.29004       8.50000       8.49399       8.55243       8.53274       8.56475    3311.19751      46.13632       0.16742       0.16563       1.86046       2.40338       0.14947       0.15492      17.78064      72.63225     123.00702     220.46004       0.23235       1.69356       7.09734       0.72696       0.00000
