~VERSION
 VERS.        2.00                                                                   :CWLS LOG ASCII STANDARD
 WRAP.        NO                                                                     :NO WRAP PERFORMED
 PROD.        Schlumberger                                                           :LAS Producer
 CREA.        Thu Dec  9 10:53:02 2010                                               :LAS Creation Date and time
~Well
#MNEM.UNIT    VALUE                                                                   :DESCRIPTION
#----.----    ---------------                                                        :-------------------
 STRT.F       7228.000                                                               :START DEPTH
 STOP.F       5250.000                                                               :STOP  DEPTH
 STEP.F       -0.500                                                                 :DEPTH STEP
 NULL.        -999.250                                                               :NULL VALUE
 COMP.        ADM COMPANY                                                            :COMPANY NAME
 WELL.        VERIFICATION WELL 1                                                    :WELL NAME
 FLD.         WILDCAT                                                                :FIELD NAME
 API.         121152346000                                                           :API NUMBER
 CNTY.        MACON                                                                  :COUNTY
 STAT.        ILLINOIS                                                               :STATE
 CTRY.        US                                                                     :COUNTRY
 LOC.         LAT 39* 52' 47.3" N                                                    :WELL SURFACE LOCATION LINE 1
 LOC2.        LONG 88* 53' 36.1"                                                     :WELL SURFACE LOCATION LINE 2
 LOC3.        605' N & 1175' E OF SW CORNER                                          :WELL SURFACE LOCATION LINE 3
 SECT.        32                                                                     :SECTION
 TOWN.        17 NORTH                                                               :TOWNSHIP
 RANG.        3 EAST                                                                 :RANGE
 LATI.                                                                               :Latitude
 LONG.                                                                               :Longitude
 DATE.        11/16/2010                                                             :LOGGING DATE
 SRVC.        Schlumberger                                                           :SERVICE COMPANY
~Parameter
#MNEM.UNIT    VALUE                                                                  :DESCRIPTION
#----.----    ---------------                                                        :-------------------
 APD.F        15.000                                                                 :Elevation of depth reference above permanent datum
 EDF.F        683.000                                                                :Elevation of Derrick Floor
 EGL.F        669.000                                                                :Elevation of Ground Level
 EKB.F        684.000                                                                :Elevation of Kelly Bushing
 EPD.F        669.000                                                                :Elevation of Permnaent Datum
 LMF.         Kelly Bushing                                                          :Logging Measured From
 PDAT.        Ground Level                                                           :Permanent Datum
 TDD.F        7264.000                                                               :Total Depth Driller
 TDL.F        7272.000                                                               :Total Depth Logger
 BS.IN        8.500                                                                  :Bit Size
 R1.                                                                                 :REMARK 1
 R2.                                                                                 :REMARK 2
 R3.                                                                                 :REMARK 3
 R4.                                                                                 :REMARK 4
 R5.                                                                                 :REMARK 5
 R6.                                                                                 :REMARK 6
 R7.                                                                                 :REMARK 7
 R8.                                                                                 :REMARK 8
 R9.                                                                                 :REMARK 9
 R10.                                                                                :REMARK 10
 DCS_CENTER.  Denver                                                                 :Schlumberger DCS Center
 LOG_ANALYST. Becker                                                                 :Log Analyst Name
 ENG.         D. HUNTER / M. WINTER                                                  :Field Engineer Name
 GF_BASELINE. GF45LNX                                                                :GeoFrame Baseline
~Curve
#MNEM.UNIT                                                                           :DESCRIPTION
#----.----                                                                           :--------------------------------
 DEPT.F                                                                              :Depth Index
 RLA1.OHMM                                                                           : 1 Apparent Resistivity from Computed Focusing Mode 1                                        
 RLA2.OHMM                                                                           : 2 Apparent Resistivity from Computed Focusing Mode 2                                        
 RLA3.OHMM                                                                           : 3 Apparent Resistivity from Computed Focusing Mode 3                                        
 RLA4.OHMM                                                                           : 4 Apparent Resistivity from Computed Focusing Mode 4                                        
 RLA5.OHMM                                                                           : 5 Apparent Resistivity from Computed Focusing Mode 5                                        
 BS.IN                                                                               : 6 Bit Size                                                                                  
 HCAL.IN                                                                             : 7 HRCC Caliper Calibrated                                                                   
 HDAR.IN                                                                             : 8 Hole Diameter from Area                                                                   
 HD1_PPC1.IN                                                                         : 9 PPC1 Hole Diameter 1                                                                      
 HD2_PPC1.IN                                                                         :10 PPC1 Hole Diameter 2                                                                      
 TENS.LBS                                                                            :11 Cable Tension                                                                             
 GR_EDTC.GAPI                                                                        :12 Gamma Ray                                                                                 
 NPHI.CFCF                                                                           :13 Thermal Neutron Porosity (original Ratio Method) in Selected Lithology                    
 NPOR.CFCF                                                                           :14 Enhanced Thermal Neutron Porosity in Selected Lithology                                   
 PEFZ.                                                                               :15 HRDD Standard Resolution Formation Photoelectric Factor                                   
 RHOZ.G/C3                                                                           :16 HRDD Standard Resolution Formation Density                                                
 DPHZ.CFCF                                                                           :17 Standard Resolution Density Porosity                                                      
 SPHI.CFCF                                                                           :18 Sonic Porosity                                                                            
 VCL_HILT.CFCF                                                                       :19 Volume of Clay type Material relative to Total Volume                                     
 DTCO.US/FT                                                                          :20 Delta-T Compressional                                                                     
 DTSM_FAST.US/FT                                                                     :21 Shear Slowness of Fast Shear Waves                                                        
 DTST.US/FT                                                                          :22 Delta-T Stoneley - Monopole Stoneley                                                      
 PR_FAST.                                                                            :23 Poisson Ratio of Fast Shear Waves                                                         
 VPVS_FAST.                                                                          :24 Vp/Vs Ration of fast shear waves                                                          
 MAXXENE_OVERALL.                                                                    :25 Overall estimate of maximum cross energy                                                  
 MINXENE_OVERALL.                                                                    :26 Overall estimate of minimum cross energy                                                  
 FLAG.                                                                               :27 General Indicator Flag(Bad Borehole)                                                                    
~Ascii   DEPT          RLA1          RLA2          RLA3          RLA4          RLA5            BS          HCAL          HDAR      HD1_PPC1      HD2_PPC1          TENS       GR_EDTC          NPHI          NPOR          PEFZ          RHOZ          DPHZ          SPHI      VCL_HILT          DTCO     DTSM_FAST          DTST       PR_FAST     VPVS_FAST  MAXXENE_OVER  MINXENE_OVER          FLAG
    7228.00000    1373.17444     838.94263     805.87109     785.35986     764.31873       8.50000       8.17695       2.58867       2.71719       2.46015    3836.82349     120.34271       0.08575       0.09376       3.06020       2.69945      -0.02997       0.01867     100.00000      53.87073      91.35429     203.55592       0.23344       1.69581       7.65419       0.75506       0.00000
    7227.50000    1347.14832     680.29321     653.59161     651.25214     630.91089       8.50000       8.16958       2.58867       2.71719       2.46015    3808.99976     120.34271       0.08958       0.09308       3.04936       2.71242      -0.03783       0.01834     100.00000      53.82477      92.11156     203.62158       0.24075       1.71132       7.68615       0.76953       0.00000
    7227.00000    1143.81970     537.80609     520.95850     529.52539     507.97806       8.50000       8.16221       2.58867       2.71719       2.46015    3813.41162     120.34271       0.09468       0.09974       3.02658       2.72929      -0.04806       0.01659     100.00000      53.58383      92.32664     203.63776       0.24604       1.72303       8.03717       0.78225       0.00000
    7226.50000     954.71472     474.08444     465.99496     474.24197     453.38501       8.50000       8.19907       2.58867       2.71719       2.46015    3920.75000     120.34271       0.09400       0.09439       2.97830       2.74420      -0.05709       0.01463     100.00000      53.31412      92.65310     203.72050       0.25250       1.73787       8.60976       0.81290       0.00000
    7226.00000     782.62372     420.73352     422.89691     424.18408     404.08176       8.50000       8.16958       2.58867       2.71719       2.46015    3921.41187     120.34271       0.09544       0.09985       3.00827       2.73619      -0.05224       0.01339     100.00000      53.14420      92.46173     203.99393       0.25333       1.73983       9.61476       0.85455       0.00000
    7225.50000     650.59351     379.02771     389.65729     385.33334     365.62906       8.50000       8.15483       2.58867       2.71719       2.46015    3835.94141     120.34271       0.09462       0.10098       3.00807       2.73169      -0.04951       0.01295     100.00000      53.08361      92.45096     204.23601       0.25408       1.74161      11.06826       0.89052       0.00000
    7225.00000     534.40393     339.68097     347.53094     342.67200     323.38651       8.50000       8.20644       2.58867       2.71719       2.46015    3775.93750     120.34271       0.09424       0.09554       3.00813       2.72864      -0.04766       0.01286     100.00000      53.07091      92.15110     204.36877       0.25186       1.73638      12.29902       0.99382       0.00000
    7224.50000     460.47552     315.75098     317.43701     312.55356     292.22894       8.50000       8.19907       2.58867       2.71719       2.46015    3820.06250     120.34271       0.09508       0.09473       2.98038       2.73644      -0.05239       0.01274     100.00000      53.05460      92.17114     204.41878       0.25225       1.73729      13.17627       1.79999       0.00000
    7224.00000     427.01752     306.35617     301.95441     301.77429     276.59662       8.50000       8.21382       2.58867       2.71719       2.46015    3883.17676     120.34271       0.09536       0.09825       3.03131       2.72956      -0.04822       0.01234     100.00000      52.99986      92.02699     204.42868       0.25186       1.73636      14.08864       2.95133       0.00000
    7223.50000     367.50189     269.54068     267.01657     266.92212     242.90880       8.50000       8.19907       2.58867       2.71719       2.46015    3842.05908     120.34271       0.09597       0.09906       3.10221       2.71913      -0.04190       0.01235     100.00000      53.00055      91.91214     204.40715       0.25092       1.73417      14.70455       3.87043       0.00000
    7223.00000     325.73575     247.37312     245.15440     246.81450     223.02069       8.50000       8.21382       2.58867       2.71719       2.46015    3776.37476     120.34271       0.09348       0.09491       3.17383       2.70480      -0.03321       0.01345     100.00000      53.15169      92.00649     204.42917       0.24955       1.73102      15.15141       4.62024       0.00000
    7222.50000     185.94777     149.18628     149.60670     153.44681     133.77663       8.50000       8.18433       2.58867       2.71719       2.46015    3783.00024     120.34271       0.09237       0.09581       3.18942       2.69870      -0.02952       0.01570      97.45632      53.46233      93.17213     204.52893       0.25457       1.74276      16.12310       4.92302       0.00000
    7222.00000     141.89761     118.47843     119.92648     117.70773     105.59814       8.50000       8.17695       2.58867       2.71719       2.46015    3830.00024     120.34271       0.09172       0.09521       3.11100       2.70789      -0.03508       0.01744      86.47725      53.70213      94.67009     204.59631       0.26278       1.76287      17.43287       4.88337       0.00000
    7221.50000     143.65894     120.41207     122.44550     117.30841     105.22276       8.50000       8.19723       2.58867       2.71719       2.46015    3855.47070     120.34271       0.09130       0.09270       3.03253       2.71515      -0.03949       0.01837      84.72569      53.82934      95.42272     204.59676       0.26662       1.77269      18.72425       4.66812       0.00000
    7221.00000     193.26662     162.59128     164.13589     156.87480     142.27802       8.50000       8.21382       2.58867       2.71719       2.46015    3827.62524     120.34271       0.09433       0.09839       2.97177       2.72434      -0.04506       0.01960      85.06662      53.99949      95.26392     204.57480       0.26329       1.76416      20.05149       4.52657       0.00000
    7220.50000     199.69354     174.63042     172.61087     167.22054     149.56973       8.50000       8.19907       2.58867       2.71719       2.46015    3799.06250     120.34271       0.09411       0.09739       3.03023       2.71214      -0.03766       0.02165      83.14081      54.28069      95.57603     204.61737       0.26194       1.76077      21.08858       4.74335       0.00000
    7220.00000     172.80356     153.16945     151.11752     146.34967     131.14960       8.50000       8.20644       2.58867       2.71719       2.46015    3796.35303     120.34271       0.09650       0.09516       3.03763       2.70988      -0.03629       0.02381      83.79809      54.57823      96.31728     204.70868       0.26352       1.76476      21.48841       5.40733       0.00000
    7219.50000     146.26465     127.02203     125.62879     121.25563     109.33202       8.50000       8.19907       2.58867       2.71719       2.46015    3861.68774     120.34271       0.09617       0.10431       3.06283       2.69876      -0.02955       0.02594      81.66527      54.87236      96.81189     204.72023       0.26335       1.76431      21.48534       6.46897       0.00000
    7219.00000     125.03206     107.71992     107.32265     103.37699      93.43295       8.50000       8.16221       2.58867       2.71719       2.46015    3835.47070     120.34271       0.09648       0.09927       3.02297       2.70257      -0.03186       0.02854      84.45724      55.22981      96.61777     204.68913       0.25732       1.74938      21.20157       7.57543       0.00000
    7218.50000     126.39967     110.24178     110.37524     106.44609      96.53903       8.50000       8.16958       2.58867       2.71719       2.46015    3809.31250     120.34271       0.09762       0.09765       3.01422       2.70711      -0.03461       0.03085      82.50540      55.54817      96.10844     204.67755       0.24919       1.73018      20.62443       8.19526       0.00000
    7218.00000     110.86806      97.92213      96.76166      93.57748      85.05846       8.50000       8.22119       2.58867       2.71719       2.46015    3802.18750     120.34271       0.09665       0.10107       3.03292       2.71119      -0.03709       0.03159      82.46786      55.64946      96.00558     204.72873       0.24700       1.72518      19.82702       8.33764       0.00000
