~VERSION
 VERS.        2.00                                                                   :CWLS LOG ASCII STANDARD
 WRAP.        NO                                                                     :NO WRAP PERFORMED
 PROD.        Schlumberger                                                           :LAS Producer
 CREA.        Thu Dec  9 10:53:02 2010                                               :LAS Creation Date and time
~Well
#MNEM.UNIT    VALUE                                                                   :DESCRIPTION
#----.----    ---------------                                                        :-------------------
 STRT.F       7228.000                                                               :START DEPTH
 STOP.F       5250.000                                                               :STOP  DEPTH
 STEP.F       -0.500                                                                 :DEPTH STEP
 NULL.        -999.250                                                               :NULL VALUE
 COMP.        ADM COMPANY                                                            :COMPANY NAME
 WELL.        VERIFICATION WELL 1                                                    :WELL NAME
 FLD.         WILDCAT                                                                :FIELD NAME
 API.         121152346000                                                           :API NUMBER
 CNTY.        MACON                                                                  :COUNTY
 STAT.        ILLINOIS                                                               :STATE
 CTRY.        US                                                                     :COUNTRY
 LOC.         LAT 39* 52' 47.3" N                                                    :WELL SURFACE LOCATION LINE 1
 LOC2.        LONG 88* 53' 36.1"                                                     :WELL SURFACE LOCATION LINE 2
 LOC3.        605' N & 1175' E OF SW CORNER                                          :WELL SURFACE LOCATION LINE 3
 SECT.        32                                                                     :SECTION
 TOWN.        17 NORTH                                                               :TOWNSHIP
 RANG.        3 EAST                                                                 :RANGE
 LATI.                                                                               :Latitude
 LONG.                                                                               :Longitude
 DATE.        11/16/2010                                                             :LOGGING DATE
 SRVC.        Schlumberger                                                           :SERVICE COMPANY
~Parameter
#MNEM.UNIT    VALUE                                                                  :DESCRIPTION
#----.----    ---------------                                                        :-------------------
 APD.F        15.000                                                                 :Elevation of depth reference above permanent datum
 EDF.F        683.000                                                                :Elevation of Derrick Floor
 EGL.F        669.000                                                                :Elevation of Ground Level
 EKB.F        684.000                                                                :Elevation of Kelly Bushing
 EPD.F        669.000                                                                :Elevation of Permnaent Datum
 LMF.         Kelly Bushing                                                          :Logging Measured From
 PDAT.        Ground Level                                                           :Permanent Datum
 TDD.F        7264.000                                                               :Total Depth Driller
 TDL.F        7272.000                                                               :Total Depth Logger
 BS.IN        8.500                                                                  :Bit Size
 R1.                                                                                 :REMARK 1
 R2.                                                                                 :REMARK 2
 R3.                                                                                 :REMARK 3
 R4.                                                                                 :REMARK 4
 R5.                                                                                 :REMARK 5
 R6.                                                                                 :REMARK 6
 R7.                                                                                 :REMARK 7
 R8.                                                                                 :REMARK 8
 R9.                                                                                 :REMARK 9
 R10.                                                                                :REMARK 10
 DCS_CENTER.  Denver                                                                 :Schlumberger DCS Center
 LOG_ANALYST. Becker                                                                 :Log Analyst Name
 ENG.         D. HUNTER / M. WINTER                                                  :Field Engineer Name
 GF_BASELINE. GF45LNX                                                                :GeoFrame Baseline
~Curve
#MNEM.UNIT                                                                           :DESCRIPTION
#----.----                                                                           :--------------------------------
 DEPT.F                                                                              :Depth Index
 RLA1.OHMM                                                                           : 1 Apparent Resistivity from Computed Focusing Mode 1                                        
 RLA2.OHMM                                                                           : 2 Apparent Resistivity from Computed Focusing Mode 2                                        
 RLA3.OHMM                                                                           : 3 Apparent Resistivity from Computed Focusing Mode 3                                        
 RLA4.OHMM                                                                           : 4 Apparent Resistivity from Computed Focusing Mode 4                                        
 RLA5.OHMM                                                                           : 5 Apparent Resistivity from Computed Focusing Mode 5                                        
 BS.IN                                                                               : 6 Bit Size                                                                                  
 HCAL.IN                                                                             : 7 HRCC Caliper Calibrated                                                                   
 HDAR.IN                                                                             : 8 Hole Diameter from Area                                                                   
 HD1_PPC1.IN                                                                         : 9 PPC1 Hole Diameter 1                                                                      
 HD2_PPC1.IN                                                                         :10 PPC1 Hole Diameter 2                                                                      
 TENS.LBS                                                                            :11 Cable Tension                                                                             
 GR_EDTC.GAPI                                                                        :12 Gamma Ray                                                                                 
 NPHI.CFCF                                                                           :13 Thermal Neutron Porosity (original Ratio Method) in Selected Lithology                    
 NPOR.CFCF                                                                           :14 Enhanced Thermal Neutron Porosity in Selected Lithology                                   
 PEFZ.                                                                               :15 HRDD Standard Resolution Formation Photoelectric Factor                                   
 RHOZ.G/C3                                                                           :16 HRDD Standard Resolution Formation Density                                                
 DPHZ.CFCF                                                                           :17 Standard Resolution Density Porosity                                                      
 SPHI.CFCF                                                                           :18 Sonic Porosity                                                                            
 VCL_HILT.CFCF                                                                       :19 Volume of Clay type Material relative to Total Volume                                     
 DTCO.US/FT                                                                          :20 Delta-T Compressional                                                                     
 DTSM_FAST.US/FT                                                                     :21 Shear Slowness of Fast Shear Waves                                                        
 DTST.US/FT                                                                          :22 Delta-T Stoneley - Monopole Stoneley                                                      
 PR_FAST.                                                                            :23 Poisson Ratio of Fast Shear Waves                                                         
 VPVS_FAST.                                                                          :24 Vp/Vs Ration of fast shear waves                                                          
 MAXXENE_OVERALL.                                                                    :25 Overall estimate of maximum cross energy                                                  
 MINXENE_OVERALL.                                                                    :26 Overall estimate of minimum cross energy                                                  
 FLAG.                                                                               :27 General Indicator Flag(Bad Borehole)                                                                    
~Ascii   DEPT          RLA1          RLA2          RLA3          RLA4          RLA5            BS          HCAL          HDAR      HD1_PPC1      HD2_PPC1          TENS       GR_EDTC          NPHI          NPOR          PEFZ          RHOZ          DPHZ          SPHI      VCL_HILT          DTCO     DTSM_FAST          DTST       PR_FAST     VPVS_FAST  MAXXENE_OVER  MINXENE_OVER          FLAG
# ...
    5789.50000       6.39743       5.79246       5.51471       5.33706       5.16829       8.50000       8.25805       8.30927       8.29394       8.33672    3072.57642      34.62180       0.13155       0.14168       1.89632       2.41819       0.14049       0.10607       9.97407      65.90591     105.41553     217.36462       0.17915       1.59949       9.06683       0.34946       0.00000
    5789.00000       5.75068       5.19715       4.97405       4.77088       4.62429       8.50000       8.24699       8.31533       8.29394       8.34534    3052.80005      33.29712       0.12961       0.13080       1.88322       2.41458       0.14268       0.10887      10.44222      66.29107     105.73570     217.37325       0.17619       1.59502       8.45270       0.34417       0.00000
    5788.50000       5.43871       4.92349       4.70398       4.46293       4.29799       8.50000       8.25805       8.31786       8.29038       8.34534    3145.80981      29.90903       0.13077       0.12765       1.87796       2.41541       0.14217       0.11035      10.13063      66.49454     105.93988     217.30376       0.17497       1.59321       7.79713       0.34681       0.00000
    5788.00000       4.65543       4.25649       3.99107       3.74026       3.58808       8.50000       8.23594       8.30293       8.26422       8.33235    3229.81738      27.28560       0.13257       0.14538       1.85459       2.42238       0.13795       0.11061       6.49982      66.53121     105.92883     217.23241       0.17427       1.59217       7.17492       0.37232       0.00000
    5787.50000       3.58801       3.22466       3.00802       2.80291       2.66203       8.50000       8.21382       8.29111       8.24801       8.33672    3188.86621      25.49153       0.14146       0.14616       1.84644       2.42577       0.13590       0.11041       6.09895      66.50381     105.28339     217.03990       0.16805       1.58312       6.58224       0.40514       0.00000
    5787.00000       3.99526       3.58752       3.32654       3.08903       2.91944       8.50000       8.22856       8.29435       8.25447       8.33235    3077.17578      24.38797       0.14068       0.13967       1.86224       2.42169       0.13837       0.10953       4.97597      66.38226     104.68357     216.66444       0.16372       1.57698       5.97738       0.43263       0.00000
    5786.50000       4.15220       3.72655       3.43993       3.19223       3.00855       8.50000       8.21382       8.29577       8.25918       8.33235    3045.19043      23.56509       0.13959       0.12882       1.86495       2.41736       0.14099       0.10757       4.88051      66.11292     104.34029     216.32401       0.16460       1.57821       5.41292       0.46062       0.00000
    5786.00000       4.37595       3.92426       3.63475       3.38454       3.16516       8.50000       8.22488       8.29221       8.25945       8.32373    3050.35718      25.59256       0.13860       0.13066       1.83149       2.42486       0.13645       0.10509       2.91375      65.77094     104.48519     216.16402       0.17186       1.58862       4.83017       0.48900       0.00000
    5785.50000       5.14179       4.62595       4.29836       4.01747       3.74592       8.50000       8.22856       8.29577       8.25918       8.33235    3094.68774      34.08086       0.13635       0.11719       1.83296       2.43935       0.12766       0.10408       5.56286      65.63171     105.63286     215.88013       0.18562       1.60948       4.26383       0.52060       0.00000
    5785.00000       5.95676       5.31740       4.97877       4.66019       4.32440       8.50000       8.20276       8.34514       8.30988       8.38408    3123.41089      82.67461       0.15774       0.13605       1.96092       2.46312       0.11326       0.10495      27.24333      65.75178     106.72115     214.93008       0.19408       1.62309       3.84974       0.53696       0.00000
    5784.50000       7.49649       6.62310       6.29187       5.89822       5.44631       8.50000       8.20644       8.34990       8.33287       8.35833    3091.37524     151.87991       0.20148       0.22473       2.19506       2.50416       0.08839       0.10573      70.82818      65.85937     107.51393     213.59091       0.19970       1.63248       3.57396       0.53594       0.00000
    5784.00000      15.93031      14.31682      13.53874      12.81241      11.76010       8.50000       8.21382       8.35494       8.32148       8.38840    3091.02686     186.21910       0.20660       0.21828       2.47482       2.54443       0.06398       0.10272     100.00000      65.44468     108.25500     212.48386       0.21201       1.65415       3.37373       0.54783       0.00000
    5783.50000      25.95041      23.20572      21.88229      20.64820      18.88224       8.50000       8.21382       8.36347       8.34101       8.38840    3165.41968     149.10692       0.17097       0.15307       2.59110       2.56418       0.05201       0.09509     100.00000      64.39451     108.77147     211.91093       0.23020       1.68914       3.21763       0.59635       0.00000
    5783.00000      24.57200      21.87692      20.12731      18.94466      17.20970       8.50000       8.24331       8.32037       8.29360       8.38408    3194.41968      86.26581       0.11202       0.12014       2.50421       2.54776       0.06196       0.08646     100.00000      63.20543     108.78683     211.72179       0.24521       1.72116       3.05831       0.65876       0.00000
    5782.50000      19.11752      16.68622      15.47680      14.42628      13.12417       8.50000       8.19170       8.30641       8.28046       8.33235    3170.00903      53.46635       0.09176       0.09162       2.24247       2.52260       0.07721       0.08107      80.37785      62.46290     108.31725     211.74869       0.25089       1.73411       2.99096       0.69517       0.00000
    5782.00000      22.10883      18.80810      17.04967      15.97951      14.41150       8.50000       8.20644       8.30577       8.30496       8.33235    3108.81250      58.95168       0.09432       0.08829       2.02959       2.50260       0.08933       0.08075      42.52690      62.41860     107.32232     211.93112       0.24442       1.71940       3.24310       0.70022       0.00000
    5781.50000      21.29311      18.11962      16.74823      15.54617      14.05569       8.50000       8.19170       8.35083       8.33961       8.30657    3093.23047      82.20802       0.11054       0.10774       1.96062       2.49932       0.09132       0.08529      36.70020      63.04470     106.68797     211.78053       0.23172       1.69226       3.65507       0.69877       0.00000
    5781.00000      17.83170      15.28542      14.04290      13.05274      11.78659       8.50000       8.17695       8.35251       8.33941       8.36267    3137.20532     117.38486       0.15391       0.15688       2.05583       2.50872       0.08563       0.09046      61.31479      63.75698     106.45853     211.19006       0.22037       1.66976       3.97778       0.70667       0.00000
    5780.50000      21.80294      19.09100      17.31504      16.19104      14.50568       8.50000       8.20644       8.36174       8.33941       8.35822    3128.38403     148.36130       0.17204       0.18480       2.26676       2.52502       0.07575       0.09348      93.77204      64.17207     106.32861     210.83307       0.21354       1.65693       4.22918       0.71434       0.00000
    5780.00000      30.73086      26.99470      25.16395      23.82690      21.58062       8.50000       8.22488       8.36174       8.33941       8.38408    3095.24097     145.64824       0.17559       0.15863       2.47285       2.54702       0.06241       0.09426     100.00000      64.27919     106.09824     211.33144       0.21005       1.65058       4.45052       0.71620       0.00000
    5779.50000      32.23905      28.29241      27.25797      25.23269      22.85653       8.50000       8.22119       8.31583       8.29060       8.38408    3077.50903      99.64333       0.14784       0.15728       2.59657       2.55633       0.05677       0.09347     100.00000      64.17115     105.11656     212.35834       0.20296       1.63807       4.74657       0.69947       0.00000
