~VERSION
 VERS.        2.00                                                                   :CWLS LOG ASCII STANDARD
 WRAP.        NO                                                                     :NO WRAP PERFORMED
 PROD.        Schlumberger                                                           :LAS Producer
 CREA.        Thu Dec  9 10:53:02 2010                                               :LAS Creation Date and time
~Well
#MNEM.UNIT    VALUE                                                                   :DESCRIPTION
#----.----    ---------------                                                        :-------------------
 STRT.F       7228.000                                                               :START DEPTH
 STOP.F       5250.000                                                               :STOP  DEPTH
 STEP.F       -0.500                                                                 :DEPTH STEP
 NULL.        -999.250                                                               :NULL VALUE
 COMP.        ADM COMPANY                                                            :COMPANY NAME
 WELL.        VERIFICATION WELL 1                                                    :WELL NAME
 FLD.         WILDCAT                                                                :FIELD NAME
 API.         121152346000                                                           :API NUMBER
 CNTY.        MACON                                                                  :COUNTY
 STAT.        ILLINOIS                                                               :STATE
 CTRY.        US                                                                     :COUNTRY
 LOC.         LAT 39* 52' 47.3" N                                                    :WELL SURFACE LOCATION LINE 1
 LOC2.        LONG 88* 53' 36.1"                                                     :WELL SURFACE LOCATION LINE 2
 LOC3.        605' N & 1175' E OF SW CORNER                                          :WELL SURFACE LOCATION LINE 3
 SECT.        32                                                                     :SECTION
 TOWN.        17 NORTH                                                               :TOWNSHIP
 RANG.        3 EAST                                                                 :RANGE
 LATI.                                                                               :Latitude
 LONG.                                                                               :Longitude
 DATE.        11/16/2010                                                             :LOGGING DATE
 SRVC.        Schlumberger                                                           :SERVICE COMPANY
~Parameter
#MNEM.UNIT    VALUE                                                                  :DESCRIPTION
#----.----    ---------------                                                        :-------------------
 APD.F        15.000                                                                 :Elevation of depth reference above permanent datum
 EDF.F        683.000                                                                :Elevation of Derrick Floor
 EGL.F        669.000                                                                :Elevation of Ground Level
 EKB.F        684.000                                                                :Elevation of Kelly Bushing
 EPD.F        669.000                                                                :Elevation of Permnaent Datum
 LMF.         Kelly Bushing                                                          :Logging Measured From
 PDAT.        Ground Level                                                           :Permanent Datum
 TDD.F        7264.000                                                               :Total Depth Driller
 TDL.F        7272.000                                                               :Total Depth Logger
 BS.IN        8.500                                                                  :Bit Size
 R1.                                                                                 :REMARK 1
 R2.                                                                                 :REMARK 2
 R3.                                                                                 :REMARK 3
 R4.                                                                                 :REMARK 4
 R5.                                                                                 :REMARK 5
 R6.                                                                                 :REMARK 6
 R7.                                                                                 :REMARK 7
 R8.                                                                                 :REMARK 8
 R9.                                                                                 :REMARK 9
 R10.                                                                                :REMARK 10
 DCS_CENTER.  Denver                                                                 :Schlumberger DCS Center
 LOG_ANALYST. Becker                                                                 :Log Analyst Name
 ENG.         D. HUNTER / M. WINTER                                                  :Field Engineer Name
 GF_BASELINE. GF45LNX                                                                :GeoFrame Baseline
~Curve
#MNEM.UNIT                                                                           :DESCRIPTION
#----.----                                                                           :--------------------------------
 DEPT.F                                                                              :Depth Index
 RLA1.OHMM                                                                           : 1 Apparent Resistivity from Computed Focusing Mode 1                                        
 RLA2.OHMM                                                                           : 2 Apparent Resistivity from Computed Focusing Mode 2                                        
 RLA3.OHMM                                                                           : 3 Apparent Resistivity from Computed Focusing Mode 3                                        
 RLA4.OHMM                                                                           : 4 Apparent Resistivity from Computed Focusing Mode 4                                        
 RLA5.OHMM                                                                           : 5 Apparent Resistivity from Computed Focusing Mode 5                                        
 BS.IN                                                                               : 6 Bit Size                                                                                  
 HCAL.IN                                                                             : 7 HRCC Caliper Calibrated                                                                   
 HDAR.IN                                                                             : 8 Hole Diameter from Area                                                                   
 HD1_PPC1.IN                                                                         : 9 PPC1 Hole Diameter 1                                                                      
 HD2_PPC1.IN                                                                         :10 PPC1 Hole Diameter 2                                                                      
 TENS.LBS                                                                            :11 Cable Tension                                                                             
 GR_EDTC.GAPI                                                                        :12 Gamma Ray                                                                                 
 NPHI.CFCF                                                                           :13 Thermal Neutron Porosity (original Ratio Method) in Selected Lithology                    
 NPOR.CFCF                                                                           :14 Enhanced Thermal Neutron Porosity in Selected Lithology                                   
 PEFZ.                                                                               :15 HRDD Standard Resolution Formation Photoelectric Factor                                   
 RHOZ.G/C3                                                                           :16 HRDD Standard Resolution Formation Density                                                
 DPHZ.CFCF                                                                           :17 Standard Resolution Density Porosity                                                      
 SPHI.CFCF                                                                           :18 Sonic Porosity                                                                            
 VCL_HILT.CFCF                                                                       :19 Volume of Clay type Material relative to Total Volume                                     
 DTCO.US/FT                                                                          :20 Delta-T Compressional                                                                     
 DTSM_FAST.US/FT                                                                     :21 Shear Slowness of Fast Shear Waves                                                        
 DTST.US/FT                                                                          :22 Delta-T Stoneley - Monopole Stoneley                                                      
 PR_FAST.                                                                            :23 Poisson Ratio of Fast Shear Waves                                                         
 VPVS_FAST.                                                                          :24 Vp/Vs Ration of fast shear waves                                                          
 MAXXENE_OVERALL.                                                                    :25 Overall estimate of maximum cross energy                                                  
 MINXENE_OVERALL.                                                                    :26 Overall estimate of minimum cross energy                                                  
 FLAG.                                                                               :27 General Indicator Flag(Bad Borehole)                                                                    
~Ascii   DEPT          RLA1          RLA2          RLA3          RLA4          RLA5            BS          HCAL          HDAR      HD1_PPC1      HD2_PPC1          TENS       GR_EDTC          NPHI          NPOR          PEFZ          RHOZ          DPHZ          SPHI      VCL_HILT          DTCO     DTSM_FAST          DTST       PR_FAST     VPVS_FAST  MAXXENE_OVER  MINXENE_OVER          FLAG
# ...
    5390.50000      20.97208      18.64402      18.29689      17.81662      16.82622       8.50000       8.88476       8.80469       8.85167       8.75771    3097.70581     173.43729       0.15509       0.15831       3.60309       2.57965       0.04264       0.11168     100.00000      66.67897     127.22433     210.04169       0.31064       1.90801       6.68191       0.25731       0.00000
    5390.00000      21.62310      19.37740      18.82825      18.31574      17.25057       8.50000       8.88476       8.79190       8.85167       8.75771    3150.82349     168.10838       0.13779       0.13357       3.60336       2.57377       0.04620       0.11020     100.00000      66.47411     127.49541     209.87141       0.31334       1.91797       6.43477       0.23450       0.00000
    5389.50000      27.22495      24.54647      23.71160      23.08869      21.82122       8.50000       8.88476       8.82016       8.90840       8.73213    3160.05908     160.55849       0.13942       0.14144       3.63990       2.57138       0.04765       0.11053     100.00000      66.52023     127.79831     209.90146       0.31419       1.92119       6.23351       0.22457       0.00000
    5389.00000      26.08392      23.80793      23.41360      22.55296      21.38168       8.50000       8.87739       8.82199       8.90810       8.73192    3173.82349     164.16516       0.15863       0.16589       3.64718       2.58613       0.03871       0.11421     100.00000      67.02633     127.86029     210.14568       0.31053       1.90761       5.95963       0.21677       0.00000
    5388.50000      23.13004      21.29971      20.77132      20.03300      19.00988       8.50000       8.88845       8.82588       8.91984       8.73587    3164.11768     172.73088       0.17233       0.18025       3.65700       2.59143       0.03550       0.11961     100.00000      67.77083     128.26587     210.49588       0.30636       1.89264       5.77655       0.20824       0.00000
    5388.00000      18.77056      17.13641      16.85864      16.10597      15.36729       8.50000       8.87739       8.81377       8.90840       8.73192    3179.81250     183.77086       0.17036       0.16777       3.59229       2.57930       0.04285       0.12371     100.00000      68.33518     128.69591     210.93260       0.30368       1.88330       5.42708       0.19506       0.00000
    5387.50000      13.64868      12.18438      11.90639      11.36591      10.94986       8.50000       8.87001       8.80737       8.90840       8.71913    3130.76465     187.00142       0.16349       0.16612       3.51558       2.54456       0.06390       0.12465     100.00000      68.46432     129.17447     211.32248       0.30467       1.88674       4.80373       0.17495       0.00000
    5387.00000      16.41776      14.69786      13.93257      13.52891      12.92051       8.50000       8.87739       8.80356       8.89692       8.70634    3120.94116     183.87607       0.15174       0.15268       3.42045       2.52044       0.07852       0.12380     100.00000      68.34721     129.46844     211.40427       0.30682       1.89428       4.11600       0.16633       0.00000
    5386.50000      17.04046      15.22801      14.49281      13.91890      13.35822       8.50000       8.87739       8.78960       8.88577       8.71020    3148.62500     175.34058       0.15169       0.15056       3.40320       2.51577       0.08135       0.12240     100.00000      68.15459     130.24374     211.21097       0.31146       1.91100       3.43684       0.17418       0.00000
    5386.00000      17.94950      16.27560      15.39207      14.85723      14.28563       8.50000       8.87739       8.74953       8.84023       8.69343    3126.94116     172.28180       0.14680       0.15503       3.44414       2.53740       0.06824       0.12201     100.00000      68.10069     131.46327     210.75058       0.31662       1.93043       3.04327       0.18183       0.00000
    5385.50000      22.04487      20.19449      19.22734      18.54094      17.94688       8.50000       8.87739       8.75324       8.85167       8.65884    3053.75000     178.55980       0.15591       0.16060       3.52592       2.56177       0.05347       0.12269     100.00000      68.19437     132.38101     210.40669       0.31939       1.94123       2.98604       0.41490       0.00000
    5385.00000      23.05559      20.80894      20.15284      19.28587      18.77500       8.50000       8.87739       8.74916       8.81780       8.65480    3129.64722     186.95264       0.15806       0.16216       3.54528       2.58650       0.03849       0.12452     100.00000      68.44614     132.95966     210.24692       0.31972       1.94254       2.99215       0.64979       0.00000
    5384.50000      24.75215      22.08581      21.51467      20.84846      20.36510       8.50000       8.87739       8.73063       8.80634       8.68052    3148.58813     191.97954       0.16065       0.16625       3.61518       2.58724       0.03804       0.12584     100.00000      68.62809     133.27879     210.16830       0.31959       1.94204       3.21596       0.67881       0.00000
    5384.00000      21.88726      19.35582      19.00245      18.49044      18.15132       8.50000       8.87001       8.72075       8.76097       8.65492    3088.52954     190.68782       0.16389       0.17122       3.58474       2.59706       0.03208       0.12533     100.00000      68.55859     132.96468     210.12675       0.31893       1.93943       3.49655       0.71987       0.00000
    5383.50000      21.18099      18.55061      17.89536      17.66926      17.24895       8.50000       8.86633       8.75850       8.77219       8.68052    3092.23535     182.00543       0.16489       0.16935       3.59095       2.59195       0.03518       0.12237     100.00000      68.15070     131.99625     210.09756       0.31827       1.93683       3.63512       0.74949       0.00000
    5383.00000      27.33134      23.98760      23.23298      23.16695      22.55957       8.50000       8.85527       8.75290       8.76097       8.74482    3078.37524     184.92635       0.16198       0.16066       3.55872       2.58454       0.03967       0.11833     100.00000      67.59406     131.41364     210.13367       0.32013       1.94416       3.86809       0.75087       0.00000
    5382.50000      24.14073      21.16222      20.57085      20.51432      19.91616       8.50000       8.87739       8.80976       8.77219       8.74482    3051.47046     185.14191       0.14592       0.14895       3.57700       2.56747       0.05002       0.11515     100.00000      67.15655     130.87903     210.21938       0.32131       1.94886       4.04645       0.72736       0.00000
    5382.00000      23.15351      20.66133      20.14469      19.93863      19.27144       8.50000       8.87739       8.80338       8.77219       8.84733    3169.35303     189.80421       0.14119       0.14991       3.58680       2.56185       0.05342       0.11456     100.00000      67.07538     130.45441     210.29456       0.32031       1.94489       4.21794       0.72165       0.00000
    5381.50000      21.85734      19.42474      19.01856      18.82497      18.18291       8.50000       8.87739       8.81426       8.78261       8.83457    3247.00024     186.75623       0.14487       0.14982       3.61223       2.56424       0.05197       0.11687     100.00000      67.39316     130.03694     210.44290       0.31638       1.92953       4.51442       0.73530       0.00000
    5381.00000      21.98325      19.96254      19.63657      19.23844      18.50822       8.50000       8.86264       8.81617       8.77499       8.84733    3191.32690     177.15063       0.15523       0.15920       3.63516       2.56487       0.05160       0.12299     100.00000      68.23559     130.11461     210.79428       0.31032       1.90684       5.02833       0.74386       0.00000
    5380.50000      19.21268      17.54635      17.48509      16.90047      16.23929       8.50000       8.86264       8.81581       8.77992       8.86021    3016.21582     169.59814       0.17512       0.18156       3.62227       2.55551       0.05727       0.13183     100.00000      69.45241     130.55949     211.35153       0.30267       1.87984       5.58296       0.75238       0.00000
