~VERSION
 VERS.        2.00                                                                   :CWLS LOG ASCII STANDARD
 WRAP.        NO                                                                     :NO WRAP PERFORMED
 PROD.        Schlumberger                                                           :LAS Producer
 CREA.        Thu Dec  9 10:53:02 2010                                               :LAS Creation Date and time
~Well
#MNEM.UNIT    VALUE                                                                   :DESCRIPTION
#----.----    ---------------                                                        :-------------------
 STRT.F       7228.000                                                               :START DEPTH
 STOP.F       5250.000                                                               :STOP  DEPTH
 STEP.F       -0.500                                                                 :DEPTH STEP
 NULL.        -999.250                                                               :NULL VALUE
 COMP.        ADM COMPANY                                                            :COMPANY NAME
 WELL.        VERIFICATION WELL 1                                                    :WELL NAME
 FLD.         WILDCAT                                                                :FIELD NAME
 API.         121152346000                                                           :API NUMBER
 CNTY.        MACON                                                                  :COUNTY
 STAT.        ILLINOIS                                                               :STATE
 CTRY.        US                                                                     :COUNTRY
 LOC.         LAT 39* 52' 47.3" N                                                    :WELL SURFACE LOCATION LINE 1
 LOC2.        LONG 88* 53' 36.1"                                                     :WELL SURFACE LOCATION LINE 2
 LOC3.        605' N & 1175' E OF SW CORNER                                          :WELL SURFACE LOCATION LINE 3
 SECT.        32                                                                     :SECTION
 TOWN.        17 NORTH                                                               :TOWNSHIP
 RANG.        3 EAST                                                                 :RANGE
 LATI.                                                                               :Latitude
 LONG.                                                                               :Longitude
 DATE.        11/16/2010                                                             :LOGGING DATE
 SRVC.        Schlumberger                                                           :SERVICE COMPANY
~Parameter
#MNEM.UNIT    VALUE                                                                  :DESCRIPTION
#----.----    ---------------                                                        :-------------------
 APD.F        15.000                                                                 :Elevation of depth reference above permanent datum
 EDF.F        683.000                                                                :Elevation of Derrick Floor
 EGL.F        669.000                                                                :Elevation of Ground Level
 EKB.F        684.000                                                                :Elevation of Kelly Bushing
 EPD.F        669.000                                                                :Elevation of Permnaent Datum
 LMF.         Kelly Bushing                                                          :Logging Measured From
 PDAT.        Ground Level                                                           :Permanent Datum
 TDD.F        7264.000                                                               :Total Depth Driller
 TDL.F        7272.000                                                               :Total Depth Logger
 BS.IN        8.500                                                                  :Bit Size
 R1.                                                                                 :REMARK 1
 R2.                                                                                 :REMARK 2
 R3.                                                                                 :REMARK 3
 R4.                                                                                 :REMARK 4
 R5.                                                                                 :REMARK 5
 R6.                                                                                 :REMARK 6
 R7.                                                                                 :REMARK 7
 R8.                                                                                 :REMARK 8
 R9.                                                                                 :REMARK 9
 R10.                                                                                :REMARK 10
 DCS_CENTER.  Denver                                                                 :Schlumberger DCS Center
 LOG_ANALYST. Becker                                                                 :Log Analyst Name
 ENG.         D. HUNTER / M. WINTER                                                  :Field Engineer Name
 GF_BASELINE. GF45LNX                                                                :GeoFrame Baseline
~Curve
#MNEM.UNIT                                                                           :DESCRIPTION
#----.----                                                                           :--------------------------------
 DEPT.F                                                                              :Depth Index
 RLA1.OHMM                                                                           : 1 Apparent Resistivity from Computed Focusing Mode 1                                        
 RLA2.OHMM                                                                           : 2 Apparent Resistivity from Computed Focusing Mode 2                                        
 RLA3.OHMM                                                                           : 3 Apparent Resistivity from Computed Focusing Mode 3                                        
 RLA4.OHMM                                                                           : 4 Apparent Resistivity from Computed Focusing Mode 4                                        
 RLA5.OHMM                                                                           : 5 Apparent Resistivity from Computed Focusing Mode 5                                        
 BS.IN                                                                               : 6 Bit Size                                                                                  
 HCAL.IN                                                                             : 7 HRCC Caliper Calibrated                                                                   
 HDAR.IN                                                                             : 8 Hole Diameter from Area                                                                   
 HD1_PPC1.IN                                                                         : 9 PPC1 Hole Diameter 1                                                                      
 HD2_PPC1.IN                                                                         :10 PPC1 Hole Diameter 2                                                                      
 TENS.LBS                                                                            :11 Cable Tension                                                                             
 GR_EDTC.GAPI                                                                        :12 Gamma Ray                                                                                 
 NPHI.CFCF                                                                           :13 Thermal Neutron Porosity (original Ratio Method) in Selected Lithology                    
 NPOR.CFCF                                                                           :14 Enhanced Thermal Neutron Porosity in Selected Lithology                                   
 PEFZ.                                                                               :15 HRDD Standard Resolution Formation Photoelectric Factor                                   
 RHOZ.G/C3                                                                           :16 HRDD Standard Resolution Formation Density                                                
 DPHZ.CFCF                                                                           :17 Standard Resolution Density Porosity                                                      
 SPHI.CFCF                                                                           :18 Sonic Porosity                                                                            
 VCL_HILT.CFCF                                                                       :19 Volume of Clay type Material relative to Total Volume                                     
 DTCO.US/FT                                                                          :20 Delta-T Compressional                                                                     
 DTSM_FAST.US/FT                                                                     :21 Shear Slowness of Fast Shear Waves                                                        
 DTST.US/FT                                                                          :22 Delta-T Stoneley - Monopole Stoneley                                                      
 PR_FAST.                                                                            :23 Poisson Ratio of Fast Shear Waves                                                         
 VPVS_FAST.                                                                          :24 Vp/Vs Ration of fast shear waves                                                          
 MAXXENE_OVERALL.                                                                    :25 Overall estimate of maximum cross energy                                                  
 MINXENE_OVERALL.                                                                    :26 Overall estimate of minimum cross energy                                                  
 FLAG.                                                                               :27 General Indicator Flag(Bad Borehole)                                                                    
~Ascii   DEPT          RLA1          RLA2          RLA3          RLA4          RLA5            BS          HCAL          HDAR      HD1_PPC1      HD2_PPC1          TENS       GR_EDTC          NPHI          NPOR          PEFZ          RHOZ          DPHZ          SPHI      VCL_HILT          DTCO     DTSM_FAST          DTST       PR_FAST     VPVS_FAST  MAXXENE_OVER  MINXENE_OVER          FLAG
# ...
    5915.50000      15.41525      14.02333      13.62727      13.13143      12.41293       8.50000       8.70781       8.82556       8.78366       8.87318    3121.32642      29.14795       0.11897       0.13797       1.90312       2.47245       0.10760       0.10007       5.66349      65.08018     106.80948     212.46950       0.20476       1.64120       2.57321       0.98362       0.00000
    5915.00000       9.83751       8.99876       8.71349       8.33144       7.95231       8.50000       8.67832       8.82556       8.78366       8.86032    3082.68750      30.29554       0.12695       0.14401       1.89193       2.48756       0.09845       0.09845       5.52307      64.85686     106.57908     212.55864       0.20596       1.64330       2.54068       0.75861       0.00000
    5914.50000      12.85377      11.85650      11.32211      10.93371      10.48625       8.50000       8.69306       8.81858       8.77986       8.85128    3067.04175      31.72140       0.12758       0.13426       1.89076       2.51058       0.08450       0.09558      10.54315      64.46093     106.20872     212.13725       0.20841       1.64764       2.51717       0.68032       0.00000
    5914.00000      12.07303      10.94006      10.42018      10.11894       9.69401       8.50000       8.67832       8.80906       8.76966       8.83853    3087.31934      32.33708       0.11950       0.13433       1.86591       2.53184       0.07161       0.09208      12.04207      63.97884     105.50989     211.37463       0.20924       1.64914       2.49882       0.66266       0.00000
    5913.50000      14.65926      13.10037      12.47568      12.13386      11.61755       8.50000       8.64514       8.79284       8.75426       8.77452    3133.63184      30.67804       0.10579       0.10184       1.85346       2.52902       0.07332       0.08938      11.43369      63.60821     104.34403     210.77545       0.20431       1.64042       2.46686       0.64654       0.00000
    5913.00000      18.28221      16.21646      15.43107      14.95871      14.26125       8.50000       8.60459       8.73924       8.70397       8.76164    3145.18750      27.85320       0.09771       0.09458       1.84611       2.51376       0.08257       0.08863       6.00876      63.50369     103.01440     210.62238       0.19353       1.62218       2.42853       0.61225       0.00000
    5912.50000      14.62392      13.02441      12.78529      12.26678      11.76014       8.50000       8.57878       8.72720       8.69275       8.70634    3114.37500      23.29758       0.09503       0.11670       1.84455       2.50613       0.08719       0.08823       2.89046      63.44944     101.55987     210.68631       0.17991       1.60064       2.40544       0.56009       0.00000
    5912.00000      13.35004      12.09781      11.57902      11.21233      10.66132       8.50000       8.55297       8.68248       8.65862       8.66783    3073.43750      21.20150       0.09314       0.11216       1.87237       2.50433       0.08829       0.08630       0.80917      63.18289     100.37032     210.63608       0.17182       1.58857       2.36770       0.50418       0.00000
    5911.50000      23.37379      21.48976      20.90018      20.12277      19.27340       8.50000       8.50874       8.63486       8.60189       8.64615    3104.26685      20.69354       0.08369       0.07152       1.88046       2.51468       0.08201       0.08265       2.02370      62.68101     100.16525     210.32130       0.17818       1.59802       2.32414       0.45963       0.00000
    5911.00000      32.71307      31.60724      32.24212      31.50352      28.68767       8.50000       8.49399       8.60689       8.56763       8.63324    3099.18750      22.09225       0.08795       0.08702       1.88570       2.51681       0.08072       0.08341       5.04936      62.78515     101.67941     210.23114       0.19188       1.61948       2.32198       0.42182       0.00000
    5910.50000      11.58067      10.85048      10.41390       9.79165       9.09259       8.50000       8.49030       8.60044       8.56763       8.61637    3124.43750      22.79178       0.10651       0.12895       1.89897       2.50263       0.08932       0.09279       8.69297      64.07766     104.61127     210.63849       0.19975       1.63257       2.39123       0.37939       0.00000
    5910.00000       8.58084       7.99627       7.59283       7.10607       6.56580       8.50000       8.47187       8.58060       8.54483       8.61229    3097.62500      24.79952       0.13086       0.13176       1.92092       2.47944       0.10337       0.10757      11.04107      66.11240     107.02478     211.91942       0.19147       1.61883       2.50976       0.33749       0.00000
    5909.50000       6.32963       5.78315       5.39906       5.06901       4.67866       8.50000       8.47925       8.57854       8.54479       8.61637    3100.00000      26.40036       0.14571       0.16645       1.96035       2.46323       0.11319       0.11766       9.47285      67.50193     108.57067     213.14310       0.18494       1.60841       2.61346       0.30150       0.00000
    5909.00000       6.02441       5.43035       5.02246       4.71344       4.32814       8.50000       8.43501       8.58060       8.54483       8.59051    3100.31250      29.86002       0.14910       0.18607       1.93313       2.48123       0.10229       0.11790       9.71144      67.53549     108.93208     213.42889       0.18782       1.61296       2.68589       0.26386       0.00000
    5908.50000       7.56198       6.78818       6.29356       5.92943       5.41935       8.50000       8.42026       8.54716       8.50748       8.56486    3101.43750      30.68573       0.13481       0.13729       1.91346       2.49900       0.09151       0.10934       8.90175      66.35630     108.67339     212.94162       0.20276       1.63773       2.75159       0.23046       0.00000
    5908.00000      10.09328       9.30897       8.65944       8.11066       7.41411       8.50000       8.42395       8.52467       8.48449       8.56486    3106.25903      28.95825       0.11281       0.10252       1.88024       2.50801       0.08606       0.09956       9.30660      65.00910     107.60645     212.08476       0.21262       1.65525       2.78561       0.20318       0.00000
    5907.50000       8.82028       8.29470       7.92459       7.41847       6.77385       8.50000       8.42026       8.51823       8.47161       8.56486    3122.33032      27.91614       0.09889       0.10424       1.89506       2.49914       0.09143       0.09079       7.42301      63.80226     105.71297     211.28464       0.21351       1.65688       2.74731       0.18192       0.00000
    5907.00000      11.99019      11.08765      10.90349      10.35052       9.37498       8.50000       8.42026       8.51209       8.47167       8.54324    3114.84229      28.09302       0.09229       0.09475       1.87480       2.50641       0.08702       0.08297       3.29162      62.72523     104.07386     210.47563       0.21477       1.65920       2.69329       0.17421       0.00000
    5906.50000      18.46713      16.99546      16.96963      16.21056      14.72773       8.50000       8.51242       8.58691       8.54159       8.66783    3111.45654      27.56108       0.09304       0.08088       1.85636       2.51376       0.08257       0.07868       2.15805      62.13424     103.21138     210.14520       0.21579       1.66110       2.63301       0.17532       0.00000
    5906.00000      17.83935      15.93818      15.62413      15.04147      13.77077       8.50000       8.64145       8.72375       8.65541       8.81280    3113.13647      26.07187       0.09344       0.09736       1.84742       2.51403       0.08240       0.07898       2.10270      62.17575     102.79916     210.58995       0.21159       1.65336       2.54918       0.17911       0.00000
    5905.50000      13.11373      11.53946      10.99066      10.66397       9.77660       8.50000       8.67832       8.82559       8.82926       8.82192    3116.06250      24.57598       0.09977       0.10496       1.84548       2.51271       0.08321       0.08315       5.82924      62.74973     102.72747     211.15344       0.20240       1.63710       2.47954       0.18244       0.00000
