~VERSION
 VERS.        2.00                                                                   :CWLS LOG ASCII STANDARD
 WRAP.        NO                                                                     :NO WRAP PERFORMED
 PROD.        Schlumberger                                                           :LAS Producer
 CREA.        Thu Dec  9 10:53:02 2010                                               :LAS Creation Date and time
~Well
#MNEM.UNIT    VALUE                                                                   :DESCRIPTION
#----.----    ---------------                                                        :-------------------
 STRT.F       7228.000                                                               :START DEPTH
 STOP.F       5250.000                                                               :STOP  DEPTH
 STEP.F       -0.500                                                                 :DEPTH STEP
 NULL.        -999.250                                                               :NULL VALUE
 COMP.        ADM COMPANY                                                            :COMPANY NAME
 WELL.        VERIFICATION WELL 1                                                    :WELL NAME
 FLD.         WILDCAT                                                                :FIELD NAME
 API.         121152346000                                                           :API NUMBER
 CNTY.        MACON                                                                  :COUNTY
 STAT.        ILLINOIS                                                               :STATE
 CTRY.        US                                                                     :COUNTRY
 LOC.         LAT 39* 52' 47.3" N                                                    :WELL SURFACE LOCATION LINE 1
 LOC2.        LONG 88* 53' 36.1"                                                     :WELL SURFACE LOCATION LINE 2
 LOC3.        605' N & 1175' E OF SW CORNER                                          :WELL SURFACE LOCATION LINE 3
 SECT.        32                                                                     :SECTION
 TOWN.        17 NORTH                                                               :TOWNSHIP
 RANG.        3 EAST                                                                 :RANGE
 LATI.                                                                               :Latitude
 LONG.                                                                               :Longitude
 DATE.        11/16/2010                                                             :LOGGING DATE
 SRVC.        Schlumberger                                                           :SERVICE COMPANY
~Parameter
#MNEM.UNIT    VALUE                                                                  :DESCRIPTION
#----.----    ---------------                                                        :-------------------
 APD.F        15.000                                                                 :Elevation of depth reference above permanent datum
 EDF.F        683.000                                                                :Elevation of Derrick Floor
 EGL.F        669.000                                                                :Elevation of Ground Level
 EKB.F        684.000                                                                :Elevation of Kelly Bushing
 EPD.F        669.000                                                                :Elevation of Permnaent Datum
 LMF.         Kelly Bushing                                                          :Logging Measured From
 PDAT.        Ground Level                                                           :Permanent Datum
 TDD.F        7264.000                                                               :Total Depth Driller
 TDL.F        7272.000                                                               :Total Depth Logger
 BS.IN        8.500                                                                  :Bit Size
 R1.                                                                                 :REMARK 1
 R2.                                                                                 :REMARK 2
 R3.                                                                                 :REMARK 3
 R4.                                                                                 :REMARK 4
 R5.                                                                                 :REMARK 5
 R6.                                                                                 :REMARK 6
 R7.                                                                                 :REMARK 7
 R8.                                                                                 :REMARK 8
 R9.                                                                                 :REMARK 9
 R10.                                                                                :REMARK 10
 DCS_CENTER.  Denver                                                                 :Schlumberger DCS Center
 LOG_ANALYST. Becker                                                                 :Log Analyst Name
 ENG.         D. HUNTER / M. WINTER                                                  :Field Engineer Name
 GF_BASELINE. GF45LNX                                                                :GeoFrame Baseline
~Curve
#MNEM.UNIT                                                                           :DESCRIPTION
#----.----                                                                           :--------------------------------
 DEPT.F                                                                              :Depth Index
 RLA1.OHMM                                                                           : 1 Apparent Resistivity from Computed Focusing Mode 1                                        
 RLA2.OHMM                                                                           : 2 Apparent Resistivity from Computed Focusing Mode 2                                        
 RLA3.OHMM                                                                           : 3 Apparent Resistivity from Computed Focusing Mode 3                                        
 RLA4.OHMM                                                                           : 4 Apparent Resistivity from Computed Focusing Mode 4                                        
 RLA5.OHMM                                                                           : 5 Apparent Resistivity from Computed Focusing Mode 5                                        
 BS.IN                                                                               : 6 Bit Size                                                                                  
 HCAL.IN                                                                             : 7 HRCC Caliper Calibrated                                                                   
 HDAR.IN                                                                             : 8 Hole Diameter from Area                                                                   
 HD1_PPC1.IN                                                                         : 9 PPC1 Hole Diameter 1                                                                      
 HD2_PPC1.IN                                                                         :10 PPC1 Hole Diameter 2                                                                      
 TENS.LBS                                                                            :11 Cable Tension                                                                             
 GR_EDTC.GAPI                                                                        :12 Gamma Ray                                                                                 
 NPHI.CFCF                                                                           :13 Thermal Neutron Porosity (original Ratio Method) in Selected Lithology                    
 NPOR.CFCF                                                                           :14 Enhanced Thermal Neutron Porosity in Selected Lithology                                   
 PEFZ.                                                                               :15 HRDD Standard Resolution Formation Photoelectric Factor                                   
 RHOZ.G/C3                                                                           :16 HRDD Standard Resolution Formation Density                                                
 DPHZ.CFCF                                                                           :17 Standard Resolution Density Porosity                                                      
 SPHI.CFCF                                                                           :18 Sonic Porosity                                                                            
 VCL_HILT.CFCF                                                                       :19 Volume of Clay type Material relative to Total Volume                                     
 DTCO.US/FT                                                                          :20 Delta-T Compressional                                                                     
 DTSM_FAST.US/FT                                                                     :21 Shear Slowness of Fast Shear Waves                                                        
 DTST.US/FT                                                                          :22 Delta-T Stoneley - Monopole Stoneley                                                      
 PR_FAST.                                                                            :23 Poisson Ratio of Fast Shear Waves                                                         
 VPVS_FAST.                                                                          :24 Vp/Vs Ration of fast shear waves                                                          
 MAXXENE_OVERALL.                                                                    :25 Overall estimate of maximum cross energy                                                  
 MINXENE_OVERALL.                                                                    :26 Overall estimate of minimum cross energy                                                  
 FLAG.                                                                               :27 General Indicator Flag(Bad Borehole)                                                                    
~Ascii   DEPT          RLA1          RLA2          RLA3          RLA4          RLA5            BS          HCAL          HDAR      HD1_PPC1      HD2_PPC1          TENS       GR_EDTC          NPHI          NPOR          PEFZ          RHOZ          DPHZ          SPHI      VCL_HILT          DTCO     DTSM_FAST          DTST       PR_FAST     VPVS_FAST  MAXXENE_OVER  MINXENE_OVER          FLAG
# ...
    6965.50000       2.16152       1.89401       1.77611       1.68567       1.56063       8.50000       8.21382       8.25850       8.23654       8.26756    3601.31250      62.58191       0.20920       0.21398       2.06528       2.31693       0.20186       0.18706      30.51999      77.05795     144.25156     231.27664       0.30035       1.87199       4.20467       0.43200       0.00000
    6965.00000       2.12383       1.86011       1.74685       1.65492       1.53702       8.50000       8.21382       8.25706       8.25945       8.28045    3589.29419      60.44860       0.22062       0.21996       2.02570       2.31088       0.20553       0.19162      25.74282      77.68539     144.89505     232.53853       0.29829       1.86515       3.97455       0.42869       0.00000
    6964.50000       2.06532       1.80056       1.68432       1.59357       1.47718       8.50000       8.22119       8.25771       8.24786       8.29346    3565.68750      58.49202       0.22880       0.22797       1.98843       2.30860       0.20691       0.19467      23.07569      78.10590     145.51257     233.21738       0.29764       1.86302       3.74429       0.42643       0.00000
    6964.00000       2.01866       1.76998       1.64644       1.56030       1.44746       8.50000       8.20644       8.26672       8.25113       8.29346    3564.35767      53.93171       0.23775       0.23168       1.97934       2.30084       0.21161       0.19701      24.12829      78.42784     146.08067     233.48721       0.29752       1.86261       3.53736       0.42078       0.00000
    6963.50000       1.93114       1.69985       1.57992       1.49469       1.38458       8.50000       8.22856       8.28211       8.27076       8.29346    3536.10767      50.78750       0.23979       0.23677       1.97450       2.29676       0.21409       0.19955      25.66670      78.77819     146.27487     233.84258       0.29573       1.85679       3.27913       0.41149       0.00000
    6963.00000       1.66402       1.46268       1.35762       1.28473       1.18877       8.50000       8.21382       8.27969       8.26591       8.28045    3530.28662      50.23872       0.24028       0.24737       1.97172       2.30072       0.21168       0.20198      26.38906      79.11227     146.24432     234.41060       0.29315       1.84857       2.97424       0.39609       0.00000
    6962.50000       1.85302       1.63202       1.52399       1.44275       1.33550       8.50000       8.21382       8.27274       8.25945       8.28045    3531.08936      51.94317       0.23651       0.23743       1.96606       2.31139       0.20522       0.20282      27.89273      79.22770     145.95233     234.82732       0.29111       1.84219       2.61479       0.37194       0.00000
    6962.00000       2.05295       1.79948       1.67496       1.59107       1.46913       8.50000       8.21382       8.26995       8.25945       8.29346    3546.91064      53.47906       0.23230       0.21288       1.98371       2.31715       0.20173       0.20131      28.54048      79.02045     145.31340     234.87279       0.29006       1.83893       2.26416       0.34506       0.00000
    6961.50000       1.94589       1.70827       1.59486       1.51733       1.40066       8.50000       8.20276       8.27553       8.25945       8.29346    3550.95923      56.37338       0.23334       0.22136       2.00959       2.31725       0.20167       0.19748      29.19459      78.49275     144.42471     234.54279       0.29040       1.83998       1.99922       0.32759       0.00000
    6961.00000       1.93979       1.69616       1.58599       1.51097       1.39161       8.50000       8.21382       8.27645       8.25945       8.29346    3512.18750      55.60559       0.22442       0.23149       2.03130       2.32047       0.19971       0.19146      30.67849      77.66467     143.64780     233.87091       0.29347       1.84959       1.78219       0.31695       0.00000
    6960.50000       2.16000       1.89711       1.78225       1.69578       1.56065       8.50000       8.20644       8.27645       8.25945       8.28045    3497.50000      55.47622       0.21221       0.20223       2.03382       2.33293       0.19216       0.18550      31.81206      76.84306     143.16576     232.85121       0.29766       1.86309       1.58614       0.30749       0.00000
    6960.00000       2.59999       2.28839       2.15545       2.05212       1.88922       8.50000       8.19907       8.28140       8.28234       8.27602    3460.25000      57.55177       0.20071       0.19741       2.00194       2.35825       0.17682       0.18130      36.34632      76.26491     142.77829     231.59064       0.30039       1.87214       1.43870       0.29789       0.00000
    6959.50000       2.79991       2.47342       2.32476       2.21113       2.03248       8.50000       8.19907       8.26758       8.25913       8.29346    3486.18750      61.88892       0.19743       0.20371       1.96349       2.38055       0.16330       0.18027      33.76361      76.12254     142.47308     230.57642       0.30024       1.87163       1.35518       0.28533       0.00000
    6959.00000       2.65434       2.33427       2.18742       2.07725       1.91121       8.50000       8.20276       8.27645       8.25945       8.28045    3521.70581      63.26881       0.19755       0.19745       1.93663       2.38801       0.15878       0.18116      34.86784      76.24512     142.35225     230.35762       0.29886       1.86703       1.29299       0.27132       0.00000
    6958.50000       2.45999       2.17106       2.03327       1.92692       1.77083       8.50000       8.22119       8.26995       8.25945       8.28905    3536.25024      59.15618       0.20283       0.19885       1.94237       2.37113       0.16901       0.18399      32.43113      76.63530     142.62436     230.79399       0.29705       1.86108       1.20994       0.25753       0.00000
    6958.00000       2.32144       2.03815       1.90365       1.80242       1.65875       8.50000       8.20644       8.27409       8.25913       8.30647    3556.37500      54.81421       0.21780       0.20932       1.94726       2.34345       0.18579       0.18878      31.94531      77.29493     143.42432     231.82089       0.29534       1.85555       1.12806       0.24527       0.00000
    6957.50000       2.06843       1.81263       1.68750       1.59287       1.47179       8.50000       8.20276       8.29441       8.28234       8.28045    3618.05884      53.30830       0.22807       0.22811       1.92566       2.32434       0.19737       0.19482      32.86530      78.12689     144.09908     233.03499       0.29183       1.84442       1.04914       0.23693       0.00000
    6957.00000       1.70883       1.49193       1.38315       1.30364       1.20350       8.50000       8.23594       8.25850       8.23654       8.30635    3627.87500      55.08272       0.23112       0.23593       1.93147       2.31136       0.20523       0.19956      32.14423      78.77888     144.38054     234.24886       0.28804       1.83273       0.97746       0.23047       0.00000
    6956.50000       2.05763       1.80370       1.67066       1.57416       1.45895       8.50000       8.21382       8.28290       8.25945       8.30647    3525.94116      56.83168       0.21757       0.21239       1.95736       2.31163       0.20507       0.20069      33.52069      78.93439     144.31244     235.38701       0.28656       1.82826       0.92821       0.22786       0.00000
    6956.00000       2.32846       2.03624       1.88145       1.76732       1.63762       8.50000       8.22488       8.28296       8.25945       8.29346    3429.00000      58.20945       0.21228       0.20316       2.01901       2.31124       0.20531       0.19949      33.19682      78.76961     143.85555     236.05542       0.28590       1.82628       0.90439       0.23014       0.00000
    6955.50000       2.32848       2.04109       1.88166       1.77313       1.64012       8.50000       8.22119       8.27645       8.25945       8.29346    3445.68750      61.36727       0.20650       0.20377       2.06128       2.31727       0.20165       0.19709      34.16069      78.43932     143.15282     235.88608       0.28547       1.82501       0.92522       0.23215       0.00000
