~VERSION
 VERS.        2.00                                                                   :CWLS LOG ASCII STANDARD
 WRAP.        NO                                                                     :NO WRAP PERFORMED
 PROD.        Schlumberger                                                           :LAS Producer
 CREA.        Thu Dec  9 10:53:02 2010                                               :LAS Creation Date and time
~Well
#MNEM.UNIT    VALUE                                                                   :DESCRIPTION
#----.----    ---------------                                                        :-------------------
 STRT.F       7228.000                                                               :START DEPTH
 STOP.F       5250.000                                                               :STOP  DEPTH
 STEP.F       -0.500                                                                 :DEPTH STEP
 NULL.        -999.250                                                               :NULL VALUE
 COMP.        ADM COMPANY                                                            :COMPANY NAME
 WELL.        VERIFICATION WELL 1                                                    :WELL NAME
 FLD.         WILDCAT                                                                :FIELD NAME
 API.         121152346000                                                           :API NUMBER
 CNTY.        MACON                                                                  :COUNTY
 STAT.        ILLINOIS                                                               :STATE
 CTRY.        US                                                                     :COUNTRY
 LOC.         LAT 39* 52' 47.3" N                                                    :WELL SURFACE LOCATION LINE 1
 LOC2.        LONG 88* 53' 36.1"                                                     :WELL SURFACE LOCATION LINE 2
 LOC3.        605' N & 1175' E OF SW CORNER                                          :WELL SURFACE LOCATION LINE 3
 SECT.        32                                                                     :SECTION
 TOWN.        17 NORTH                                                               :TOWNSHIP
 RANG.        3 EAST                                                                 :RANGE
 LATI.                                                                               :Latitude
 LONG.                                                                               :Longitude
 DATE.        11/16/2010                                                             :LOGGING DATE
 SRVC.        Schlumberger                                                           :SERVICE COMPANY
~Parameter
#MNEM.UNIT    VALUE                                                                  :DESCRIPTION
#----.----    ---------------                                                        :-------------------
 APD.F        15.000                                                                 :Elevation of depth reference above permanent datum
 EDF.F        683.000                                                                :Elevation of Derrick Floor
 EGL.F        669.000                                                                :Elevation of Ground Level
 EKB.F        684.000                                                                :Elevation of Kelly Bushing
 EPD.F        669.000                                                                :Elevation of Permnaent Datum
 LMF.         Kelly Bushing                                                          :Logging Measured From
 PDAT.        Ground Level                                                           :Permanent Datum
 TDD.F        7264.000                                                               :Total Depth Driller
 TDL.F        7272.000                                                               :Total Depth Logger
 BS.IN        8.500                                                                  :Bit Size
 R1.                                                                                 :REMARK 1
 R2.                                                                                 :REMARK 2
 R3.                                                                                 :REMARK 3
 R4.                                                                                 :REMARK 4
 R5.                                                                                 :REMARK 5
 R6.                                                                                 :REMARK 6
 R7.                                                                                 :REMARK 7
 R8.                                                                                 :REMARK 8
 R9.                                                                                 :REMARK 9
 R10.                                                                                :REMARK 10
 DCS_CENTER.  Denver                                                                 :Schlumberger DCS Center
 LOG_ANALYST. Becker                                                                 :Log Analyst Name
 ENG.         D. HUNTER / M. WINTER                                                  :Field Engineer Name
 GF_BASELINE. GF45LNX                                                                :GeoFrame Baseline
~Curve
#MNEM.UNIT                                                                           :DESCRIPTION
#----.----                                                                           :--------------------------------
 DEPT.F                                                                              :Depth Index
 RLA1.OHMM                                                                           : 1 Apparent Resistivity from Computed Focusing Mode 1                                        
 RLA2.OHMM                                                                           : 2 Apparent Resistivity from Computed Focusing Mode 2                                        
 RLA3.OHMM                                                                           : 3 Apparent Resistivity from Computed Focusing Mode 3                                        
 RLA4.OHMM                                                                           : 4 Apparent Resistivity from Computed Focusing Mode 4                                        
 RLA5.OHMM                                                                           : 5 Apparent Resistivity from Computed Focusing Mode 5                                        
 BS.IN                                                                               : 6 Bit Size                                                                                  
 HCAL.IN                                                                             : 7 HRCC Caliper Calibrated                                                                   
 HDAR.IN                                                                             : 8 Hole Diameter from Area                                                                   
 HD1_PPC1.IN                                                                         : 9 PPC1 Hole Diameter 1                                                                      
 HD2_PPC1.IN                                                                         :10 PPC1 Hole Diameter 2                                                                      
 TENS.LBS                                                                            :11 Cable Tension                                                                             
 GR_EDTC.GAPI                                                                        :12 Gamma Ray                                                                                 
 NPHI.CFCF                                                                           :13 Thermal Neutron Porosity (original Ratio Method) in Selected Lithology                    
 NPOR.CFCF                                                                           :14 Enhanced Thermal Neutron Porosity in Selected Lithology                                   
 PEFZ.                                                                               :15 HRDD Standard Resolution Formation Photoelectric Factor                                   
 RHOZ.G/C3                                                                           :16 HRDD Standard Resolution Formation Density                                                
 DPHZ.CFCF                                                                           :17 Standard Resolution Density Porosity                                                      
 SPHI.CFCF                                                                           :18 Sonic Porosity                                                                            
 VCL_HILT.CFCF                                                                       :19 Volume of Clay type Material relative to Total Volume                                     
 DTCO.US/FT                                                                          :20 Delta-T Compressional                                                                     
 DTSM_FAST.US/FT                                                                     :21 Shear Slowness of Fast Shear Waves                                                        
 DTST.US/FT                                                                          :22 Delta-T Stoneley - Monopole Stoneley                                                      
 PR_FAST.                                                                            :23 Poisson Ratio of Fast Shear Waves                                                         
 VPVS_FAST.                                                                          :24 Vp/Vs Ration of fast shear waves                                                          
 MAXXENE_OVERALL.                                                                    :25 Overall estimate of maximum cross energy                                                  
 MINXENE_OVERALL.                                                                    :26 Overall estimate of minimum cross energy                                                  
 FLAG.                                                                               :27 General Indicator Flag(Bad Borehole)                                                                    
~Ascii   DEPT          RLA1          RLA2          RLA3          RLA4          RLA5            BS          HCAL          HDAR      HD1_PPC1      HD2_PPC1          TENS       GR_EDTC          NPHI          NPOR          PEFZ          RHOZ          DPHZ          SPHI      VCL_HILT          DTCO     DTSM_FAST          DTST       PR_FAST     VPVS_FAST  MAXXENE_OVER  MINXENE_OVER          FLAG
# ...
    6052.00000      19.36035      16.41594      15.96968      14.54124      13.13444       8.50000       8.33916       8.49654       8.58899       8.43576    3146.52783      29.85260       0.06589       0.06894       1.97324       2.56431       0.05193       0.07070       8.17390      61.03485      96.58723     209.63492       0.16762       1.58249       1.39078       0.23546       0.00000
    6051.50000      16.62215      14.17663      13.40442      12.44436      11.21102       8.50000       8.35390       8.44210       8.45708       8.43576    3136.86035      31.02279       0.07409       0.09497       1.89680       2.53449       0.07001       0.07381       9.95867      61.46406      97.14751     209.66905       0.16626       1.58056       1.42721       0.23767       0.00000
    6051.00000      15.69927      13.42502      12.43487      11.54475      10.37497       8.50000       8.33179       8.42737       8.41897       8.43576    3149.34448      31.64138       0.08247       0.09185       1.82293       2.55035       0.06039       0.07750      10.36351      61.97200      97.81780     209.64024       0.16475       1.57842       1.50927       0.24387       0.00000
    6050.50000      19.61413      16.92021      15.80394      14.56777      13.14224       8.50000       8.35390       8.42737       8.41897       8.42290    3165.93750      30.86294       0.08096       0.08221       1.82818       2.55998       0.05456       0.08171       7.04378      62.55113      98.62569     209.53873       0.16354       1.57672       1.67565       0.25476       0.00000
    6050.00000      23.43040      20.58980      19.05252      17.71528      15.93855       8.50000       8.34653       8.42715       8.42282       8.43576    3180.52075      28.50323       0.07840       0.07224       1.82987       2.55621       0.05684       0.08695       4.11077      63.27287      99.61426     209.48198       0.16184       1.57436       1.90509       0.27215       0.00000
    6049.50000      10.91206       9.68936       8.92169       8.27191       7.48043       8.50000       8.34653       8.42943       8.43309       8.42290    3188.03467      25.91508       0.08993       0.09981       1.86440       2.53857       0.06754       0.09317       4.59658      64.12984     100.56429     209.67999       0.15731       1.56814       2.10820       0.28944       0.00000
    6049.00000      11.13367       9.51722       8.84111       8.28176       7.42514       8.50000       8.34653       8.43756       8.44079       8.43576    3179.77075      24.32246       0.10265       0.11628       1.88430       2.52958       0.07298       0.09860       5.73015      64.87692     101.13818     210.19992       0.15041       1.55892       2.21641       0.32414       0.00000
    6048.50000      12.43362      10.66984       9.94354       9.30914       8.33888       8.50000       8.34653       8.42671       8.43053       8.43576    3229.93774      24.98086       0.11234       0.11873       1.89300       2.53333       0.07071       0.10035       6.88184      65.11781     101.45761     210.79250       0.14975       1.55806       2.25961       0.37097       0.00000
    6048.00000      12.86161      11.03087      10.33414       9.71257       8.69725       8.50000       8.33916       8.42737       8.41897       8.44873    3279.68750      25.89440       0.10390       0.11421       1.90687       2.53973       0.06683       0.09874       4.45277      64.89584     101.88297     210.93353       0.15864       1.56995       2.27939       0.39320       0.00000
    6047.50000      13.99657      12.15706      11.36417      10.69758       9.55757       8.50000       8.34653       8.42737       8.41897       8.43587    3218.94141      27.04345       0.09569       0.09791       1.90560       2.54300       0.06485       0.09416       4.69254      64.26616     102.03322     210.59760       0.17120       1.58767       2.31813       0.42735       0.00000
    6047.00000      18.57228      16.44653      15.35466      14.56432      12.99953       8.50000       8.34653       8.43385       8.41897       8.43576    3170.43750      24.55938       0.08784       0.08997       1.87667       2.54618       0.06292       0.09001       2.83025      63.69440     101.77103     210.02263       0.17804       1.59780       2.38161       0.47302       0.00000
    6046.50000      20.22500      17.73943      16.82216      15.81982      14.18596       8.50000       8.34653       8.42742       8.41897       8.43576    3233.87500      22.55400       0.08903       0.09749       1.84144       2.55466       0.05778       0.08758       3.07316      63.35987     101.40810     209.60974       0.17982       1.60051       2.45338       0.51607       0.00000
    6046.00000      19.79367      17.35367      16.48895      15.48524      13.90290       8.50000       8.33547       8.41595       8.39614       8.43576    3246.35278      20.80988       0.09278       0.09315       1.85204       2.56094       0.05398       0.08649       2.02370      63.20909     100.84279     209.43684       0.17643       1.59538       2.52720       0.54696       0.00000
    6045.50000      19.12437      16.71596      15.90253      14.89793      13.39415       8.50000       8.34653       8.42173       8.40769       8.43576    3204.31250      22.07961       0.09773       0.10312       1.91755       2.55436       0.05796       0.08598       4.37180      63.13921     100.98357     209.36084       0.17908       1.59938       2.55235       0.56427       0.00000
    6045.00000      17.01529      14.83725      14.07272      13.23978      11.98578       8.50000       8.33547       8.41595       8.39614       8.43576    3196.00000      26.31079       0.10019       0.10485       1.97789       2.54091       0.06612       0.08560       5.99118      63.08759     100.90513     209.34837       0.17912       1.59944       2.48305       0.58575       0.00000
    6044.50000      15.69563      13.60521      12.74168      12.06934      10.96152       8.50000       8.33179       8.42173       8.40769       8.44002    3216.37524      30.50364       0.09932       0.09819       1.98914       2.52723       0.07440       0.08574       7.44530      63.10655     101.21355     209.42252       0.18200       1.60385       2.28396       0.59002       0.00000
    6044.00000      16.27739      14.08755      13.10386      12.39534      11.28535       8.50000       8.33916       8.42173       8.40769       8.43576    3231.58838      29.35086       0.09702       0.10138       1.95429       2.51927       0.07923       0.08745       6.52797      63.34253     101.51043     209.68846       0.18117       1.60256       2.07315       0.58814       0.00000
    6043.50000      16.26161      13.99582      13.00598      12.25607      11.22148       8.50000       8.33916       8.41817       8.39632       8.43576    3244.94116      27.46227       0.09478       0.10297       1.93801       2.50544       0.08761       0.09108       6.85184      63.84106     101.39621     210.09900       0.17161       1.58826       1.98934       0.56459       0.00000
    6043.00000      13.68900      11.83700      10.99692      10.31907       9.51312       8.50000       8.33916       8.41595       8.39614       8.40125    3187.68774      23.43597       0.09520       0.09508       1.91071       2.49889       0.09158       0.09390       6.44719      64.23001     101.61399     210.49168       0.16729       1.58203       1.99794       0.53426       0.00000
    6042.50000      14.46291      12.40643      11.39893      10.72354       9.87455       8.50000       8.32441       8.41017       8.38457       8.38408    3245.31250      25.30069       0.09651       0.09917       1.90527       2.49839       0.09188       0.09338       5.34029      64.15784     100.92567     210.66257       0.16092       1.57308       2.04863       0.53721       0.00000
    6042.00000      17.28871      14.87200      13.81190      12.93112      11.92606       8.50000       8.31704       8.38737       8.37349       8.39695    3189.75000      22.67084       0.09620       0.10249       1.88852       2.51613       0.08113       0.08899       3.55897      63.55421     100.50859     210.58357       0.16689       1.58146       2.07870       0.52124       0.00000
