~VERSION
 VERS.        2.00                                                                   :CWLS LOG ASCII STANDARD
 WRAP.        NO                                                                     :NO WRAP PERFORMED
 PROD.        Schlumberger                                                           :LAS Producer
 CREA.        Thu Dec  9 10:53:02 2010                                               :LAS Creation Date and time
~Well
#MNEM.UNIT    VALUE                                                                   :DESCRIPTION
#----.----    ---------------                                                        :-------------------
 STRT.F       7228.000                                                               :START DEPTH
 STOP.F       5250.000                                                               :STOP  DEPTH
 STEP.F       -0.500                                                                 :DEPTH STEP
 NULL.        -999.250                                                               :NULL VALUE
 COMP.        ADM COMPANY                                                            :COMPANY NAME
 WELL.        VERIFICATION WELL 1                                                    :WELL NAME
 FLD.         WILDCAT                                                                :FIELD NAME
 API.         121152346000                                                           :API NUMBER
 CNTY.        MACON                                                                  :COUNTY
 STAT.        ILLINOIS                                                               :STATE
 CTRY.        US                                                                     :COUNTRY
 LOC.         LAT 39* 52' 47.3" N                                                    :WELL SURFACE LOCATION LINE 1
 LOC2.        LONG 88* 53' 36.1"                                                     :WELL SURFACE LOCATION LINE 2
 LOC3.        605' N & 1175' E OF SW CORNER                                          :WELL SURFACE LOCATION LINE 3
 SECT.        32                                                                     :SECTION
 TOWN.        17 NORTH                                                               :TOWNSHIP
 RANG.        3 EAST                                                                 :RANGE
 LATI.                                                                               :Latitude
 LONG.                                                                               :Longitude
 DATE.        11/16/2010                                                             :LOGGING DATE
 SRVC.        Schlumberger                                                           :SERVICE COMPANY
~Parameter
#MNEM.UNIT    VALUE                                                                  :DESCRIPTION
#----.----    ---------------                                                        :-------------------
 APD.F        15.000                                                                 :Elevation of depth reference above permanent datum
 EDF.F        683.000                                                                :Elevation of Derrick Floor
 EGL.F        669.000                                                                :Elevation of Ground Level
 EKB.F        684.000                                                                :Elevation of Kelly Bushing
 EPD.F        669.000                                                                :Elevation of Permnaent Datum
 LMF.         Kelly Bushing                                                          :Logging Measured From
 PDAT.        Ground Level                                                           :Permanent Datum
 TDD.F        7264.000                                                               :Total Depth Driller
 TDL.F        7272.000                                                               :Total Depth Logger
 BS.IN        8.500                                                                  :Bit Size
 R1.                                                                                 :REMARK 1
 R2.                                                                                 :REMARK 2
 R3.                                                                                 :REMARK 3
 R4.                                                                                 :REMARK 4
 R5.                                                                                 :REMARK 5
 R6.                                                                                 :REMARK 6
 R7.                                                                                 :REMARK 7
 R8.                                                                                 :REMARK 8
 R9.                                                                                 :REMARK 9
 R10.                                                                                :REMARK 10
 DCS_CENTER.  Denver                                                                 :Schlumberger DCS Center
 LOG_ANALYST. Becker                                                                 :Log Analyst Name
 ENG.         D. HUNTER / M. WINTER                                                  :Field Engineer Name
 GF_BASELINE. GF45LNX                                                                :GeoFrame Baseline
~Curve
#MNEM.UNIT                                                                           :DESCRIPTION
#----.----                                                                           :--------------------------------
 DEPT.F                                                                              :Depth Index
 RLA1.OHMM                                                                           : 1 Apparent Resistivity from Computed Focusing Mode 1                                        
 RLA2.OHMM                                                                           : 2 Apparent Resistivity from Computed Focusing Mode 2                                        
 RLA3.OHMM                                                                           : 3 Apparent Resistivity from Computed Focusing Mode 3                                        
 RLA4.OHMM                                                                           : 4 Apparent Resistivity from Computed Focusing Mode 4                                        
 RLA5.OHMM                                                                           : 5 Apparent Resistivity from Computed Focusing Mode 5                                        
 BS.IN                                                                               : 6 Bit Size                                                                                  
 HCAL.IN                                                                             : 7 HRCC Caliper Calibrated                                                                   
 HDAR.IN                                                                             : 8 Hole Diameter from Area                                                                   
 HD1_PPC1.IN                                                                         : 9 PPC1 Hole Diameter 1                                                                      
 HD2_PPC1.IN                                                                         :10 PPC1 Hole Diameter 2                                                                      
 TENS.LBS                                                                            :11 Cable Tension                                                                             
 GR_EDTC.GAPI                                                                        :12 Gamma Ray                                                                                 
 NPHI.CFCF                                                                           :13 Thermal Neutron Porosity (original Ratio Method) in Selected Lithology                    
 NPOR.CFCF                                                                           :14 Enhanced Thermal Neutron Porosity in Selected Lithology                                   
 PEFZ.                                                                               :15 HRDD Standard Resolution Formation Photoelectric Factor                                   
 RHOZ.G/C3                                                                           :16 HRDD Standard Resolution Formation Density                                                
 DPHZ.CFCF                                                                           :17 Standard Resolution Density Porosity                                                      
 SPHI.CFCF                                                                           :18 Sonic Porosity                                                                            
 VCL_HILT.CFCF                                                                       :19 Volume of Clay type Material relative to Total Volume                                     
 DTCO.US/FT                                                                          :20 Delta-T Compressional                                                                     
 DTSM_FAST.US/FT                                                                     :21 Shear Slowness of Fast Shear Waves                                                        
 DTST.US/FT                                                                          :22 Delta-T Stoneley - Monopole Stoneley                                                      
 PR_FAST.                                                                            :23 Poisson Ratio of Fast Shear Waves                                                         
 VPVS_FAST.                                                                          :24 Vp/Vs Ration of fast shear waves                                                          
 MAXXENE_OVERALL.                                                                    :25 Overall estimate of maximum cross energy                                                  
 MINXENE_OVERALL.                                                                    :26 Overall estimate of minimum cross energy                                                  
 FLAG.                                                                               :27 General Indicator Flag(Bad Borehole)                                                                    
~Ascii   DEPT          RLA1          RLA2          RLA3          RLA4          RLA5            BS          HCAL          HDAR      HD1_PPC1      HD2_PPC1          TENS       GR_EDTC          NPHI          NPOR          PEFZ          RHOZ          DPHZ          SPHI      VCL_HILT          DTCO     DTSM_FAST          DTST       PR_FAST     VPVS_FAST  MAXXENE_OVER  MINXENE_OVER          FLAG
# ...
    5653.00000       7.59174       6.67230       6.39994       6.12535       6.01612       8.50000       8.25805       8.33240       8.32809       8.33235    3148.11768      63.54026       0.14249       0.15544       2.05287       2.45665       0.11718       0.10123      38.10736      65.23909     106.27541     216.60547       0.19765       1.62901      10.28570       0.85552       0.00000
    5652.50000       9.58768       8.66339       8.27052       7.99488       7.84680       8.50000       8.25068       8.32431       8.31626       8.33235    3112.41187      70.02028       0.13382       0.11616       2.02242       2.46828       0.11013       0.10151      37.49699      65.27757     106.50690     216.08266       0.19918       1.63160      10.72940       0.86062       0.00000
    5652.00000       5.91528       5.37004       5.01091       4.85977       4.73379       8.50000       8.24699       8.31852       8.30469       8.33235    3046.18750      57.48625       0.12264       0.12923       1.93612       2.46027       0.11499       0.10208      27.28295      65.35680     106.66422     215.67218       0.19943       1.63203      11.34164       0.87177       0.00000
    5651.50000       3.71189       3.29762       3.12861       3.02840       2.93065       8.50000       8.25805       8.32431       8.31626       8.33672    3010.23511      38.69067       0.13014       0.14468       1.87166       2.44309       0.12540       0.10282       9.91873      65.45782     106.80297     215.64102       0.19920       1.63163      12.10821       0.88796       0.00000
    5651.00000       3.42589       3.04674       2.88886       2.77703       2.67210       8.50000       8.25068       8.32662       8.31653       8.33235    3028.11768      28.33693       0.13745       0.13997       1.84621       2.42774       0.13470       0.10305       4.99735      65.48936     106.69627     215.87238       0.19777       1.62922      12.99105       0.90317       0.00000
    5650.50000       3.49482       3.11548       2.94672       2.81945       2.69021       8.50000       8.25805       8.31866       8.30496       8.33235    3030.50000      24.70155       0.13399       0.13473       1.84646       2.42333       0.13738       0.10316       6.12033      65.50475     106.31373     216.27672       0.19402       1.62299      14.03215       0.91480       0.00000
    5650.00000       3.43048       3.11347       2.92969       2.79490       2.65657       8.50000       8.25805       8.32431       8.31626       8.34970    3020.58838      30.24674       0.13596       0.13509       1.82530       2.42618       0.13565       0.10360       6.63635      65.56538     105.75516     217.11885       0.18783       1.61297      15.14404       0.91489       0.00000
    5649.50000       3.26337       3.00768       2.83229       2.68278       2.53407       8.50000       8.24331       8.33311       8.31653       8.33672    3029.17651      28.95603       0.14266       0.14733       1.82402       2.42314       0.13749       0.10467       8.36724      65.71313     105.55791     218.32988       0.18361       1.60634      16.23026       0.91480       0.00000
    5649.00000       3.31859       3.06583       2.91537       2.75776       2.58964       8.50000       8.23594       8.32084       8.30496       8.34970    3013.35278      30.00798       0.14718       0.14957       1.83119       2.41945       0.13973       0.10532       6.20888      65.80217     105.67738     219.25914       0.18338       1.60599      17.20677       0.90824       0.00000
    5648.50000       3.15422       2.90226       2.78570       2.63596       2.45897       8.50000       8.25068       8.32747       8.30524       8.33235    2994.06250      26.11270       0.14720       0.14712       1.88063       2.40849       0.14637       0.10517       6.47151      65.78127     106.12244     219.63693       0.18801       1.61326      17.82030       0.87596       0.00000
    5648.00000       2.83472       2.58754       2.48988       2.36518       2.19647       8.50000       8.22856       8.31866       8.30496       8.34534    2994.29419      26.14079       0.14044       0.13482       1.87875       2.41268       0.14383       0.10424       4.74062      65.65317     106.56622     219.77641       0.19413       1.62317      18.10628       0.81429       0.00000
    5647.50000       3.04928       2.76482       2.66197       2.56070       2.35672       8.50000       8.22488       8.31936       8.29338       8.36267    3050.64697      27.50497       0.13596       0.13568       1.86921       2.41803       0.14059       0.10283       5.17133      65.45928     106.68802     219.83751       0.19814       1.62984      18.22501       0.76394       0.00000
    5647.00000       3.25480       2.95125       2.82328       2.74157       2.51261       8.50000       8.22119       8.33960       8.31653       8.34534    3134.94116      26.88238       0.13285       0.13326       1.81957       2.43015       0.13324       0.10090       3.69993      65.19371     106.94090     219.70084       0.20428       1.64036      18.20269       0.77094       0.00000
    5646.50000       3.52441       3.19645       3.04179       2.96814       2.70903       8.50000       8.22488       8.32502       8.30469       8.33672    3175.38892      26.06432       0.13429       0.14003       1.78905       2.43659       0.12934       0.09890       4.43067      64.91838     107.33269     219.21048       0.21158       1.65335      17.92424       0.80168       0.00000
    5646.00000       3.84991       3.49368       3.32920       3.23332       2.95959       8.50000       8.24331       8.32662       8.31653       8.33235    3176.17651      23.67125       0.13222       0.13420       1.77380       2.43781       0.12860       0.09799       3.91237      64.79314     107.79687     218.73758       0.21718       1.66371      17.16922       0.79565       0.00000
    5645.50000       4.20477       3.80426       3.62836       3.51484       3.23051       8.50000       8.23594       8.31866       8.30496       8.34534    3136.17651      24.29121       0.13141       0.13242       1.76388       2.44484       0.12434       0.09825       7.53865      64.82944     107.90190     218.63591       0.21755       1.66440      15.98603       0.76220       0.00000
    5645.00000       4.45760       4.02064       3.85979       3.71285       3.43321       8.50000       8.22488       8.32502       8.30469       8.33235    3141.94116      32.20575       0.13774       0.14061       1.78102       2.45269       0.11958       0.09963      15.01754      65.01920     108.25095     218.74133       0.21782       1.66491      14.57676       0.73374       0.00000
    5644.50000       5.11679       4.63868       4.44368       4.25589       3.96129       8.50000       8.23594       8.30708       8.28180       8.33235    3086.17651      43.32808       0.14056       0.14350       1.81721       2.45557       0.11784       0.10223      22.63173      65.37708     108.20858     218.81062       0.21256       1.65515      13.07060       0.70439       0.00000
    5644.00000       5.80753       5.25279       4.97658       4.74519       4.44010       8.50000       8.22488       8.31287       8.29338       8.31947    3040.76465      49.16488       0.13927       0.12314       1.85542       2.44784       0.12252       0.10791      24.96877      66.15941     108.63161     218.96347       0.20520       1.64197      11.51520       0.63688       0.00000
    5643.50000       5.47266       4.92677       4.59938       4.36244       4.10114       8.50000       8.23594       8.33508       8.35070       8.30657    3084.70581      49.66745       0.13247       0.12349       1.86606       2.43335       0.13130       0.11711      22.28491      67.42610     108.65956     219.46262       0.18692       1.61154      10.03211       0.52812       0.00000
    5643.00000       5.59058       4.95682       4.61750       4.37713       4.13250       8.50000       8.21382       8.32850       8.35043       8.29346    3077.82373      47.17472       0.13914       0.14290       1.85635       2.41797       0.14062       0.12564      20.97668      68.60020     109.02129     220.21384       0.17227       1.58923       8.86121       0.43943       0.00000
