~VERSION
 VERS.        2.00                                                                   :CWLS LOG ASCII STANDARD
 WRAP.        NO                                                                     :NO WRAP PERFORMED
 PROD.        Schlumberger                                                           :LAS Producer
 CREA.        Thu Dec  9 10:37:48 2010                                               :LAS Creation Date and time
~Well
#MNEM.UNIT    VALUE                                                                   :DESCRIPTION
#----.----    ---------------                                                        :-------------------
 STRT.F       5250.000                                                               :START DEPTH
 STOP.F       350.000                                                                :STOP  DEPTH
 STEP.F       -0.500                                                                 :DEPTH STEP
 NULL.        -999.250                                                               :NULL VALUE
 COMP.        ADM COMPANY                                                            :COMPANY NAME
 WELL.        VERIFICATION WELL 1                                                    :WELL NAME
 FLD.         WILDCAT                                                                :FIELD NAME
 API.         121152346000                                                           :API NUMBER
 CNTY.        MACON                                                                  :COUNTY
 STAT.        ILLINOIS                                                               :STATE
 CTRY.        US                                                                     :COUNTRY
 LOC.         LAT 39* 52' 47.5" N                                                    :WELL SURFACE LOCATION LINE 1
 LOC2.        LONG 88* 53' 36.9"                                                     :WELL SURFACE LOCATION LINE 2
 LOC3.                                                                               :WELL SURFACE LOCATION LINE 3
 SECT.        5                                                                      :SECTION
 TOWN.        17 NORTH                                                               :TOWNSHIP
 RANG.        3 EAST                                                                 :RANGE
 LATI.                                                                               :Latitude
 LONG.                                                                               :Longitude
 DATE.        10/24/2010                                                             :LOGGING DATE
 SRVC.        Schlumberger                                                           :SERVICE COMPANY
~Parameter
#MNEM.UNIT    VALUE                                                                  :DESCRIPTION
#----.----    ---------------                                                        :-------------------
 APD.F        15.000                                                                 :Elevation of depth reference above permanent datum
 EDF.F        683.000                                                                :Elevation of Derrick Floor
 EGL.F        669.000                                                                :Elevation of Ground Level
 EKB.F        684.000                                                                :Elevation of Kelly Bushing
 EPD.F        669.000                                                                :Elevation of Permnaent Datum
 LMF.         Kelly Bushing                                                          :Logging Measured From
 PDAT.        Ground Level                                                           :Permanent Datum
 TDD.F        5320.000                                                               :Total Depth Driller
 TDL.F        5322.000                                                               :Total Depth Logger
 BS.IN        12.25                                                                  :Bit Size
 R1.                                                                                 :REMARK 1
 R2.                                                                                 :REMARK 2
 R3.                                                                                 :REMARK 3
 R4.                                                                                 :REMARK 4
 R5.                                                                                 :REMARK 5
 R6.                                                                                 :REMARK 6
 R7.                                                                                 :REMARK 7
 R8.                                                                                 :REMARK 8
 R9.                                                                                 :REMARK 9
 R10.                                                                                :REMARK 10
 DCS_CENTER.  Denver                                                                 :Schlumberger DCS Center
 LOG_ANALYST. Becker                                                                 :Log Analyst Name
 ENG.         DARREN HUNTER                                                          :Field Engineer Name
 GF_BASELINE. GF45LNX                                                                :GeoFrame Baseline
~Curve
#MNEM.UNIT                                                                           :DESCRIPTION
#----.----                                                                           :--------------------------------
 DEPT.F                                                                              :Depth Index
 RLA1.OHMM                                                                           : 1 Apparent Resistivity from Computed Focusing Mode 1                                        
 RLA2.OHMM                                                                           : 2 Apparent Resistivity from Computed Focusing Mode 2                                        
 RLA3.OHMM                                                                           : 3 Apparent Resistivity from Computed Focusing Mode 3                                        
 RLA4.OHMM                                                                           : 4 Apparent Resistivity from Computed Focusing Mode 4                                        
 RLA5.OHMM                                                                           : 5 Apparent Resistivity from Computed Focusing Mode 5                                        
 BS.IN                                                                               : 6 Bit Size                                                                                  
 HCAL.IN                                                                             : 7 HRCC Caliper Calibrated                                                                   
 HDAR.IN                                                                             : 8 Hole Diameter from Area                                                                   
 HD1_PPC1.IN                                                                         : 9 PPC1 Hole Diameter 1                                                                      
 HD2_PPC1.IN                                                                         :10 PPC1 Hole Diameter 2                                                                      
 TENS.LBS                                                                            :11 Cable Tension                                                                             
 GR_EDTC.GAPI                                                                        :12 Gamma Ray                                                                                 
 NPHI.CFCF                                                                           :13 Thermal Neutron Porosity (original Ratio Method) in Selected Lithology                    
 NPOR.CFCF                                                                           :14 Enhanced Thermal Neutron Porosity in Selected Lithology                                   
 PEFZ.                                                                               :15 HRDD Standard Resolution Formation Photoelectric Factor                                   
 RHOZ.G/C3                                                                           :16 HRDD Standard Resolution Formation Density                                                
 DPHZ.CFCF                                                                           :17 Standard Resolution Density Porosity                                                      
 SPHI.CFCF                                                                           :18 Sonic Porosity                                                                            
 VCL_HILT.CFCF                                                                       :19 Volume of Clay type Material relative to Total Volume                                     
 DTCO.US/FT                                                                          :20 Delta-T Compressional                                                                     
 DTSM_FAST.US/FT                                                                     :21 Shear Slowness of Fast Shear Waves                                                        
 DTST.US/FT                                                                          :22 Delta-T Stoneley - Monopole Stoneley                                                      
 PR_FAST.                                                                            :23 Poisson Ratio of Fast Shear Waves                                                         
 VPVS_FAST.                                                                          :24 Vp/Vs Ration of fast shear waves                                                          
 MAXXENE_OVERALL.                                                                    :25 Overall estimate of maximum cross energy                                                  
 MINXENE_OVERALL.                                                                    :26 Overall estimate of minimum cross energy                                                  
 FLAG.                                                                               :27 General Indicator Flag(Bad Borehole)                                                                    
~Ascii   DEPT          RLA1          RLA2          RLA3          RLA4          RLA5            BS          HCAL          HDAR      HD1_PPC1      HD2_PPC1          TENS       GR_EDTC          NPHI          NPOR          PEFZ          RHOZ          DPHZ          SPHI      VCL_HILT          DTCO     DTSM_FAST          DTST       PR_FAST     VPVS_FAST  MAXXENE_OVER  MINXENE_OVER          FLAG
# ...
    2310.00000       9.78982       9.55036       9.57359       9.60242       9.41412      12.25000      12.14932      12.27141      12.35141      12.19140    2125.00000      50.66686       0.14939       0.14709       3.79628       2.67509       0.02042       0.11436      34.65202      67.04804     121.14458     213.83745       0.27939       1.80733       0.50289       0.34633       0.00000
    2309.50000       9.94187       9.59599       9.62220       9.60071       9.47959      12.25000      12.17132      12.27561      12.35899      12.19223    2091.00000      49.20679       0.14496       0.16028       3.82940       2.69399       0.00936       0.11344      35.53051      66.92067     120.79166     213.67528       0.27685       1.80017       0.53125       0.35360       0.00000
    2309.00000      10.07914       9.62789       9.60121       9.57438       9.53259      12.25000      12.14932      12.26648      12.31747      12.21550    2091.00000      48.12122       0.14000       0.15944       3.89858       2.70989       0.00006       0.10858      31.54546      66.25079     120.46208     213.33040       0.28619       1.82717       0.56278       0.35061       0.00000
    2308.50000      10.91368      10.34156      10.26317      10.22361      10.27329      12.25000      12.12732      12.24315      12.31902      12.16729    2094.00000      42.96916       0.13248       0.12098       4.01284       2.68546       0.01435       0.10019      30.87984      65.09576     119.25007     212.73354       0.28790       1.83233       0.59685       0.34555       0.00000
    2308.00000      13.12797      12.58424      12.28316      12.46034      12.45097      12.25000      12.11632      12.23239      12.29749      12.16729    2125.00000      42.67412       0.12016       0.11590       4.05354       2.67603       0.01987       0.09044      31.94022      63.75424     117.43253     211.99193       0.29085       1.84137       0.63842       0.34510       0.00000
    2307.50000      14.81657      14.00577      13.78409      13.79318      14.02179      12.25000      12.10532      12.22635      12.29749      12.15521    2108.00000      35.89136       0.11002       0.11062       4.08688       2.66476       0.02645       0.08224      28.72167      62.62448     115.71201     211.39316       0.29263       1.84693       0.67499       0.34144       0.00000
    2307.00000      14.90195      13.75434      13.41286      13.45235      13.70956      12.25000      12.10532      12.22146      12.28684      12.15608    2112.00000      33.55701       0.09482       0.09396       4.07044       2.66851       0.02427       0.07686      21.36076      61.88430     114.13089     211.06230       0.29176       1.84420       0.69875       0.33812       0.00000
    2306.50000      16.97608      15.70234      15.47112      15.51450      15.88982      12.25000      12.08331      12.19346      12.24375      12.14317    2074.00000      29.99133       0.06997       0.07400       4.11399       2.65206       0.03388       0.07140      16.78642      61.13203     112.31738     210.87138       0.29106       1.84202       0.73032       0.34120       0.00000
    2306.00000      18.22939      16.67764      16.53384      16.55782      16.97197      12.25000      12.08331      12.18813      12.23309      12.14317    2112.00000      30.17432       0.05489       0.05640       4.09700       2.63437       0.04423       0.06485      13.62386      60.22937     110.55786     210.72772       0.28552       1.82518       0.75921       0.35622       0.00000
    2305.50000      19.99144      18.45127      18.34232      18.45895      18.88753      12.25000      12.08331      12.17606      12.23309      12.11903    2105.00000      27.05697       0.04531       0.06192       4.02041       2.62665       0.04874       0.05974      16.04513      59.52642     109.98139     210.69293       0.29169       1.84400       0.76891       0.37116       0.00000
    2305.00000      21.08414      19.81894      19.69625      19.79550      20.26898      12.25000      12.06131      12.15882      12.19770      12.11993    2101.00000      28.89421       0.04408       0.06112       3.93397       2.63233       0.04542       0.05819      12.00408      59.31254     110.68062     210.79120       0.29745       1.86240       0.78084       0.38356       0.00000
    2304.50000      19.66775      18.54626      18.39251      18.42691      18.88235      12.25000      12.06131      12.14763      12.20037      12.09488    2085.00000      30.54107       0.04397       0.05721       3.89649       2.64375       0.03874       0.06069      16.92361      59.65684     112.05072     211.10042       0.30210       1.87789       0.80092       0.40453       0.00000
    2304.00000      17.54177      16.60263      16.42040      16.40966      16.77803      12.25000      12.06131      12.15751      12.21925      12.09577    2117.00000      36.39142       0.05579       0.06840       3.87033       2.65814       0.03033       0.06970      15.10434      60.89757     113.59956     211.59155       0.29878       1.86676       0.79600       0.41916       0.00000
    2303.50000      14.19408      13.28744      13.08701      13.04906      13.28038      12.25000      12.08331      12.19212      12.25313      12.13111    2104.00000      36.20860       0.07919       0.09704       3.85228       2.66582       0.02584       0.08101      22.30794      62.45474     115.00486     212.08237       0.29087       1.84144       0.76023       0.42682       0.00000
    2303.00000      11.57876      10.88121      10.75207      10.66861      10.91071      12.25000      12.10532      12.20482      12.25440      12.15524    2125.00000      36.57457       0.10037       0.11498       3.82978       2.66843       0.02431       0.09114      23.76952      63.84939     116.32166     212.56259       0.28441       1.82187       0.72451       0.44020       0.00000
    2302.50000      10.23958       9.59730       9.37570       9.33588       9.50479      12.25000      12.10532      12.21560      12.27595      12.15524    2085.00000      34.01504       0.11289       0.12132       3.87056       2.65572       0.03174       0.09891      26.31170      64.92007     117.62386     212.96143       0.28099       1.81192       0.67685       0.44621       0.00000
    2302.00000       9.37445       8.89983       8.74732       8.69125       8.81358      12.25000      12.09432      12.20851      12.27297      12.14404    2118.00000      38.21997       0.12211       0.13834       3.86664       2.65156       0.03418       0.10444      27.70695      65.68094     118.90193     213.24341       0.28048       1.81043       0.61515       0.44711       0.00000
    2301.50000       8.69066       8.31305       8.19836       8.17713       8.27241      12.25000      12.10532      12.22557      12.28385      12.16729    2092.00000      43.34354       0.13241       0.13670       3.79508       2.66769       0.02474       0.10840      30.28642      66.22641     120.10815     213.40845       0.28183       1.81433       0.56290       0.44495       0.00000
    2301.00000       7.98354       7.73500       7.66998       7.63050       7.68481      12.25000      12.14932      12.23841      12.29749      12.17933    2094.00000      45.73185       0.15320       0.15296       3.68454       2.68030       0.01737       0.11163      29.23223      66.67140     121.18033     213.49869       0.28309       1.81800       0.52030       0.42480       0.00000
    2300.50000       7.39015       7.20989       7.18264       7.15762       7.19490      12.25000      12.14932      12.23771      12.30813      12.16729    2099.00000      45.18338       0.16419       0.16913       3.58388       2.68385       0.01529       0.11477      26.23559      67.10322     122.13213     213.45657       0.28387       1.82029       0.48087       0.40451       0.00000
    2300.00000       6.81372       6.64124       6.68345       6.66834       6.71883      12.25000      12.14932      12.23089      12.29449      12.16729    2114.00000      48.45969       0.16964       0.16175       3.55927       2.66537       0.02610       0.11799      23.42443      67.54757     123.01042     213.15721       0.28422       1.82131       0.44557       0.39550       0.00000
