~VERSION
 VERS.        2.00                                                                   :CWLS LOG ASCII STANDARD
 WRAP.        NO                                                                     :NO WRAP PERFORMED
 PROD.        Schlumberger                                                           :LAS Producer
 CREA.        Thu Dec  9 10:37:48 2010                                               :LAS Creation Date and time
~Well
#MNEM.UNIT    VALUE                                                                   :DESCRIPTION
#----.----    ---------------                                                        :-------------------
 STRT.F       5250.000                                                               :START DEPTH
 STOP.F       350.000                                                                :STOP  DEPTH
 STEP.F       -0.500                                                                 :DEPTH STEP
 NULL.        -999.250                                                               :NULL VALUE
 COMP.        ADM COMPANY                                                            :COMPANY NAME
 WELL.        VERIFICATION WELL 1                                                    :WELL NAME
 FLD.         WILDCAT                                                                :FIELD NAME
 API.         121152346000                                                           :API NUMBER
 CNTY.        MACON                                                                  :COUNTY
 STAT.        ILLINOIS                                                               :STATE
 CTRY.        US                                                                     :COUNTRY
 LOC.         LAT 39* 52' 47.5" N                                                    :WELL SURFACE LOCATION LINE 1
 LOC2.        LONG 88* 53' 36.9"                                                     :WELL SURFACE LOCATION LINE 2
 LOC3.                                                                               :WELL SURFACE LOCATION LINE 3
 SECT.        5                                                                      :SECTION
 TOWN.        17 NORTH                                                               :TOWNSHIP
 RANG.        3 EAST                                                                 :RANGE
 LATI.                                                                               :Latitude
 LONG.                                                                               :Longitude
 DATE.        10/24/2010                                                             :LOGGING DATE
 SRVC.        Schlumberger                                                           :SERVICE COMPANY
~Parameter
#MNEM.UNIT    VALUE                                                                  :DESCRIPTION
#----.----    ---------------                                                        :-------------------
 APD.F        15.000                                                                 :Elevation of depth reference above permanent datum
 EDF.F        683.000                                                                :Elevation of Derrick Floor
 EGL.F        669.000                                                                :Elevation of Ground Level
 EKB.F        684.000                                                                :Elevation of Kelly Bushing
 EPD.F        669.000                                                                :Elevation of Permnaent Datum
 LMF.         Kelly Bushing                                                          :Logging Measured From
 PDAT.        Ground Level                                                           :Permanent Datum
 TDD.F        5320.000                                                               :Total Depth Driller
 TDL.F        5322.000                                                               :Total Depth Logger
 BS.IN        12.25                                                                  :Bit Size
 R1.                                                                                 :REMARK 1
 R2.                                                                                 :REMARK 2
 R3.                                                                                 :REMARK 3
 R4.                                                                                 :REMARK 4
 R5.                                                                                 :REMARK 5
 R6.                                                                                 :REMARK 6
 R7.                                                                                 :REMARK 7
 R8.                                                                                 :REMARK 8
 R9.                                                                                 :REMARK 9
 R10.                                                                                :REMARK 10
 DCS_CENTER.  Denver                                                                 :Schlumberger DCS Center
 LOG_ANALYST. Becker                                                                 :Log Analyst Name
 ENG.         DARREN HUNTER                                                          :Field Engineer Name
 GF_BASELINE. GF45LNX                                                                :GeoFrame Baseline
~Curve
#MNEM.UNIT                                                                           :DESCRIPTION
#----.----                                                                           :--------------------------------
 DEPT.F                                                                              :Depth Index
 RLA1.OHMM                                                                           : 1 Apparent Resistivity from Computed Focusing Mode 1                                        
 RLA2.OHMM                                                                           : 2 Apparent Resistivity from Computed Focusing Mode 2                                        
 RLA3.OHMM                                                                           : 3 Apparent Resistivity from Computed Focusing Mode 3                                        
 RLA4.OHMM                                                                           : 4 Apparent Resistivity from Computed Focusing Mode 4                                        
 RLA5.OHMM                                                                           : 5 Apparent Resistivity from Computed Focusing Mode 5                                        
 BS.IN                                                                               : 6 Bit Size                                                                                  
 HCAL.IN                                                                             : 7 HRCC Caliper Calibrated                                                                   
 HDAR.IN                                                                             : 8 Hole Diameter from Area                                                                   
 HD1_PPC1.IN                                                                         : 9 PPC1 Hole Diameter 1                                                                      
 HD2_PPC1.IN                                                                         :10 PPC1 Hole Diameter 2                                                                      
 TENS.LBS                                                                            :11 Cable Tension                                                                             
 GR_EDTC.GAPI                                                                        :12 Gamma Ray                                                                                 
 NPHI.CFCF                                                                           :13 Thermal Neutron Porosity (original Ratio Method) in Selected Lithology                    
 NPOR.CFCF                                                                           :14 Enhanced Thermal Neutron Porosity in Selected Lithology                                   
 PEFZ.                                                                               :15 HRDD Standard Resolution Formation Photoelectric Factor                                   
 RHOZ.G/C3                                                                           :16 HRDD Standard Resolution Formation Density                                                
 DPHZ.CFCF                                                                           :17 Standard Resolution Density Porosity                                                      
 SPHI.CFCF                                                                           :18 Sonic Porosity                                                                            
 VCL_HILT.CFCF                                                                       :19 Volume of Clay type Material relative to Total Volume                                     
 DTCO.US/FT                                                                          :20 Delta-T Compressional                                                                     
 DTSM_FAST.US/FT                                                                     :21 Shear Slowness of Fast Shear Waves                                                        
 DTST.US/FT                                                                          :22 Delta-T Stoneley - Monopole Stoneley                                                      
 PR_FAST.                                                                            :23 Poisson Ratio of Fast Shear Waves                                                         
 VPVS_FAST.                                                                          :24 Vp/Vs Ration of fast shear waves                                                          
 MAXXENE_OVERALL.                                                                    :25 Overall estimate of maximum cross energy                                                  
 MINXENE_OVERALL.                                                                    :26 Overall estimate of minimum cross energy                                                  
 FLAG.                                                                               :27 General Indicator Flag(Bad Borehole)                                                                    
~Ascii   DEPT          RLA1          RLA2          RLA3          RLA4          RLA5            BS          HCAL          HDAR      HD1_PPC1      HD2_PPC1          TENS       GR_EDTC          NPHI          NPOR          PEFZ          RHOZ          DPHZ          SPHI      VCL_HILT          DTCO     DTSM_FAST          DTST       PR_FAST     VPVS_FAST  MAXXENE_OVER  MINXENE_OVER          FLAG
# ...
    1333.50000       7.41490       6.47947       6.05430       6.03378       6.45804      12.25000      12.38035      12.15646      12.25326      12.05965    1877.00000      43.52373       0.17715       0.14147       3.56013       2.61632       0.05478       0.06747      30.84820      60.59000     116.13223     214.52707       0.31084       1.90872       0.78568       0.35598       0.00000
    1333.00000      14.10357      12.55987      12.03585      11.80259      12.62543      12.25000      12.36934      12.14612      12.22052      12.07172    1817.00000      42.24396       0.10726       0.05374       3.77144       2.67189       0.02229       0.04388      31.49433      57.34237     113.70138     212.55901       0.32818       1.97738       0.76506       0.35349       0.00000
    1332.50000      22.35491      19.69755      17.79969      17.47543      18.56600      12.25000      12.34734      12.15670      12.24168      12.07172    1899.00000      44.43978       0.04433       0.04405       3.82584       2.67407       0.02101       0.03912      27.26015      56.68638     112.55467     212.09241       0.32937       1.98250       0.73589       0.33391       0.00000
    1332.00000      22.71710      20.62057      19.43349      18.39633      18.88776      12.25000      12.36934      12.18581      12.25254      12.11907    2024.00000      42.79437       0.06232       0.06501       3.72160       2.62684       0.04863       0.04705      23.75985      57.77925     111.98082     212.49577       0.31898       1.93961       0.70579       0.31779       0.00000
    1331.50000      12.90352      11.89267      11.16253      10.36087      10.45559      12.25000      12.36934      12.22316      12.33840      12.10792    1800.00000      38.04097       0.12973       0.16043       3.53731       2.56757       0.08329       0.06333      23.88888      60.02086     111.27719     213.40669       0.29551       1.85609       0.68672       0.32098       0.00000
    1331.00000       8.59009       7.55686       6.90866       6.42269       6.53592      12.25000      12.45735      12.20105      12.30624      12.09585    1918.00000      32.18546       0.20021       0.25872       3.42601       2.52318       0.10925       0.07573      19.71553      61.72807     110.18063     213.77173       0.27158       1.78576       0.66468       0.33708       0.00000
    1330.50000       8.13589       6.97116       6.33595       5.85016       5.92851      12.25000      12.41335      12.18496      12.27407      12.09585    1927.00000      32.56223       0.24543       0.24373       3.35787       2.52362       0.10899       0.07605      19.57124      61.77241     108.92531     213.40234       0.26251       1.76220       0.61294       0.36996       0.00000
    1330.00000       9.35336       8.05245       7.24152       6.71757       6.69588      12.25000      12.36934      12.16226      12.24168      12.08284    1914.00000      35.12176       0.24235       0.25259       3.38970       2.56600       0.08421       0.06389      16.82959      60.09770     107.80719     212.46840       0.27427       1.79306       0.57950       0.40000       0.00000
    1329.50000      10.81179       9.60320       8.63292       7.98127       7.89048      12.25000      12.32534      12.14652      12.20926      12.08378    1877.00000      39.68364       0.19398       0.17936       3.54864       2.63284       0.04512       0.04413      17.99298      57.37659     106.78150     211.46417       0.29744       1.86235       0.60051       0.39300       0.00000
    1329.00000      14.43348      13.53839      12.23552      11.37897      10.82121      12.25000      12.31434      12.15256      12.20926      12.09585    1888.00000      42.06243       0.12325       0.08158       3.81845       2.70202       0.00467       0.02559      21.65452      54.82418     105.55893     210.77924       0.31577       1.92718       0.63341       0.38583       0.00000
    1328.50000      30.36722      29.23391      25.96992      24.78907      23.10621      12.25000      12.25933      12.14652      12.20926      12.08378    1864.00000      47.38011       0.05275       0.04013       4.12625       2.73775      -0.01623       0.01379      26.60346      53.19938     103.95834     210.46718       0.32311       1.95619       0.64404       0.39623       0.00000
    1328.00000      44.85802      43.92746      42.34533      39.17809      37.30131      12.25000      12.24833      12.13446      12.20926      12.05965    1853.00000      48.28070       0.01944       0.02596       4.34303       2.74027      -0.01770       0.00913      31.56566      52.55773     102.38239     210.39427       0.31946       1.94151       0.66207       0.38825       0.00000
    1327.50000      51.96254      60.35276      59.36259      56.30263      53.49303      12.25000      12.23733      12.13574      12.18770      12.08378    1868.00000      41.69326       0.01180       0.02980       4.44813       2.71923      -0.00540       0.00804      30.94544      52.40692     101.51431     210.36932       0.31766       1.93446       0.68795       0.36445       0.00000
    1327.00000      58.85210      86.44727      80.72569      77.79103      75.48257      12.25000      12.17132      12.13505      12.19838      12.07172    1835.00000      33.82493       0.00790       0.01836       4.46020       2.70786       0.00125       0.00832      26.15165      52.44548     101.27911     210.39206       0.31670       1.93073       0.68942       0.34404       0.00000
    1326.50000      65.56831     118.83749     116.96879     106.82872     107.66171      12.25000      12.21533      12.12368      12.18770      12.05965    1851.00000      29.63351       0.00758       0.01622       4.50403       2.70856       0.00084       0.01038      22.62031      52.72983     101.21971     210.46729       0.31378       1.91963       0.66477       0.33841       0.00000
    1326.00000      64.35498     106.62743      96.46222      95.98930     100.89165      12.25000      12.19333      12.13721      12.17950      12.09493    1838.00000      31.81997       0.00845       0.01726       4.63717       2.71625      -0.00366       0.01197      17.59487      52.94783     101.16994     210.60483       0.31143       1.91090       0.62870       0.34516       0.00000
    1325.50000      55.04347      68.00172      60.00750      61.72268      64.76930      12.25000      12.19333      12.14226      12.17660      12.10792    1856.00000      32.18594       0.01101       0.02714       4.84362       2.72411      -0.00825       0.01069      15.96743      52.77141     101.06496     210.72578       0.31277       1.91586       0.57960       0.35131       0.00000
    1325.00000      54.37162      65.22652      58.79730      61.74291      62.91719      12.25000      12.21533      12.13117      12.17950      12.08284    1797.00000      33.83135       0.01019       0.03168       4.94500       2.72351      -0.00790       0.00596      13.53063      52.12078     100.91330     210.74963       0.31791       1.93544       0.54919       0.35140       0.00000
    1324.50000      57.77733      79.27795      71.61469      74.90163      73.58442      12.25000      12.21533      12.13564      12.18749      12.08378    1839.00000      34.56264       0.00730       0.02093       4.93035       2.72489      -0.00871       0.00400      14.93641      51.85120     100.84550     210.67609       0.32008       1.94396       0.52712       0.35185       0.00000
    1324.00000      59.12327      83.21159      77.85273      88.52352      82.83691      12.25000      12.23733      12.14641      12.20905      12.08378    1931.00000      35.66055       0.00962       0.02518       4.83424       2.71395      -0.00231       0.00441      17.54503      51.90763     100.91029     210.53857       0.32010       1.94406       0.47194       0.34819       0.00000
    1323.50000      53.22246      63.71270      61.96249      71.98828      66.01987      12.25000      12.23733      12.14196      12.20108      12.08284    1913.00000      32.92707       0.01451       0.03944       4.75247       2.71104      -0.00061       0.00571      21.23123      52.08663     101.53781     210.40424       0.31895       1.93949       0.44637       0.33757       0.00000
