~VERSION
 VERS.        2.00                                                                   :CWLS LOG ASCII STANDARD
 WRAP.        NO                                                                     :NO WRAP PERFORMED
 PROD.        Schlumberger                                                           :LAS Producer
 CREA.        Thu Dec  9 10:37:48 2010                                               :LAS Creation Date and time
~Well
#MNEM.UNIT    VALUE                                                                   :DESCRIPTION
#----.----    ---------------                                                        :-------------------
 STRT.F       5250.000                                                               :START DEPTH
 STOP.F       350.000                                                                :STOP  DEPTH
 STEP.F       -0.500                                                                 :DEPTH STEP
 NULL.        -999.250                                                               :NULL VALUE
 COMP.        ADM COMPANY                                                            :COMPANY NAME
 WELL.        VERIFICATION WELL 1                                                    :WELL NAME
 FLD.         WILDCAT                                                                :FIELD NAME
 API.         121152346000                                                           :API NUMBER
 CNTY.        MACON                                                                  :COUNTY
 STAT.        ILLINOIS                                                               :STATE
 CTRY.        US                                                                     :COUNTRY
 LOC.         LAT 39* 52' 47.5" N                                                    :WELL SURFACE LOCATION LINE 1
 LOC2.        LONG 88* 53' 36.9"                                                     :WELL SURFACE LOCATION LINE 2
 LOC3.                                                                               :WELL SURFACE LOCATION LINE 3
 SECT.        5                                                                      :SECTION
 TOWN.        17 NORTH                                                               :TOWNSHIP
 RANG.        3 EAST                                                                 :RANGE
 LATI.                                                                               :Latitude
 LONG.                                                                               :Longitude
 DATE.        10/24/2010                                                             :LOGGING DATE
 SRVC.        Schlumberger                                                           :SERVICE COMPANY
~Parameter
#MNEM.UNIT    VALUE                                                                  :DESCRIPTION
#----.----    ---------------                                                        :-------------------
 APD.F        15.000                                                                 :Elevation of depth reference above permanent datum
 EDF.F        683.000                                                                :Elevation of Derrick Floor
 EGL.F        669.000                                                                :Elevation of Ground Level
 EKB.F        684.000                                                                :Elevation of Kelly Bushing
 EPD.F        669.000                                                                :Elevation of Permnaent Datum
 LMF.         Kelly Bushing                                                          :Logging Measured From
 PDAT.        Ground Level                                                           :Permanent Datum
 TDD.F        5320.000                                                               :Total Depth Driller
 TDL.F        5322.000                                                               :Total Depth Logger
 BS.IN        12.25                                                                  :Bit Size
 R1.                                                                                 :REMARK 1
 R2.                                                                                 :REMARK 2
 R3.                                                                                 :REMARK 3
 R4.                                                                                 :REMARK 4
 R5.                                                                                 :REMARK 5
 R6.                                                                                 :REMARK 6
 R7.                                                                                 :REMARK 7
 R8.                                                                                 :REMARK 8
 R9.                                                                                 :REMARK 9
 R10.                                                                                :REMARK 10
 DCS_CENTER.  Denver                                                                 :Schlumberger DCS Center
 LOG_ANALYST. Becker                                                                 :Log Analyst Name
 ENG.         DARREN HUNTER                                                          :Field Engineer Name
 GF_BASELINE. GF45LNX                                                                :GeoFrame Baseline
~Curve
#MNEM.UNIT                                                                           :DESCRIPTION
#----.----                                                                           :--------------------------------
 DEPT.F                                                                              :Depth Index
 RLA1.OHMM                                                                           : 1 Apparent Resistivity from Computed Focusing Mode 1                                        
 RLA2.OHMM                                                                           : 2 Apparent Resistivity from Computed Focusing Mode 2                                        
 RLA3.OHMM                                                                           : 3 Apparent Resistivity from Computed Focusing Mode 3                                        
 RLA4.OHMM                                                                           : 4 Apparent Resistivity from Computed Focusing Mode 4                                        
 RLA5.OHMM                                                                           : 5 Apparent Resistivity from Computed Focusing Mode 5                                        
 BS.IN                                                                               : 6 Bit Size                                                                                  
 HCAL.IN                                                                             : 7 HRCC Caliper Calibrated                                                                   
 HDAR.IN                                                                             : 8 Hole Diameter from Area                                                                   
 HD1_PPC1.IN                                                                         : 9 PPC1 Hole Diameter 1                                                                      
 HD2_PPC1.IN                                                                         :10 PPC1 Hole Diameter 2                                                                      
 TENS.LBS                                                                            :11 Cable Tension                                                                             
 GR_EDTC.GAPI                                                                        :12 Gamma Ray                                                                                 
 NPHI.CFCF                                                                           :13 Thermal Neutron Porosity (original Ratio Method) in Selected Lithology                    
 NPOR.CFCF                                                                           :14 Enhanced Thermal Neutron Porosity in Selected Lithology                                   
 PEFZ.                                                                               :15 HRDD Standard Resolution Formation Photoelectric Factor                                   
 RHOZ.G/C3                                                                           :16 HRDD Standard Resolution Formation Density                                                
 DPHZ.CFCF                                                                           :17 Standard Resolution Density Porosity                                                      
 SPHI.CFCF                                                                           :18 Sonic Porosity                                                                            
 VCL_HILT.CFCF                                                                       :19 Volume of Clay type Material relative to Total Volume                                     
 DTCO.US/FT                                                                          :20 Delta-T Compressional                                                                     
 DTSM_FAST.US/FT                                                                     :21 Shear Slowness of Fast Shear Waves                                                        
 DTST.US/FT                                                                          :22 Delta-T Stoneley - Monopole Stoneley                                                      
 PR_FAST.                                                                            :23 Poisson Ratio of Fast Shear Waves                                                         
 VPVS_FAST.                                                                          :24 Vp/Vs Ration of fast shear waves                                                          
 MAXXENE_OVERALL.                                                                    :25 Overall estimate of maximum cross energy                                                  
 MINXENE_OVERALL.                                                                    :26 Overall estimate of minimum cross energy                                                  
 FLAG.                                                                               :27 General Indicator Flag(Bad Borehole)                                                                    
~Ascii   DEPT          RLA1          RLA2          RLA3          RLA4          RLA5            BS          HCAL          HDAR      HD1_PPC1      HD2_PPC1          TENS       GR_EDTC          NPHI          NPOR          PEFZ          RHOZ          DPHZ          SPHI      VCL_HILT          DTCO     DTSM_FAST          DTST       PR_FAST     VPVS_FAST  MAXXENE_OVER  MINXENE_OVER          FLAG
# ...
    4599.00000      40.28580      85.19121      62.31476      55.04238      47.09241      12.25000      12.98541      13.71609      12.37242      15.05976    2611.00000      15.36186       0.28433       0.41767       2.34213       2.06985       0.37436       0.03211       5.77733      55.72144     101.57090     203.47021       0.28629       1.82745       2.47913       1.29944       1.00000
    4598.50000      45.40302     194.65115     180.54744     153.92879     134.33868      12.25000      12.85339      12.58845      12.35065      12.82625    2577.00000      15.91057       0.18007       0.18552       2.58260       2.36996       0.19885       0.01096       5.39628      52.80983      98.10243     200.95419       0.29888       1.86709       2.31417       1.26368       0.00000
    4598.00000      53.89446     378.50095    1124.33850     854.79694     743.28870      12.25000      12.82039      12.56590      12.32940      12.80239    2574.00000      18.65292       0.09814       0.08516       2.81637       2.60963       0.05870      -0.00897       2.85815      50.06432      93.62746     201.80383       0.29830       1.86519       2.40690       1.23881       0.00000
    4597.50000      60.13844     409.83679    2051.34497    1478.11377    1257.49304      12.25000      12.78739      12.57665      12.35091      12.80239    2583.00000      18.47001       0.06701       0.07240       2.97350       2.77173      -0.03610      -0.01798       3.16200      48.82413      89.92912     204.51389       0.28578       1.82594       3.68167       1.27094       0.00000
    4597.00000      64.58714     442.91354    1592.13013    1323.60461    1133.57019      12.25000      12.74338      12.59931      12.37242      12.82621    2585.00000      19.19857       0.05752       0.07107       3.04694       2.81775      -0.06301      -0.01890       3.36736      48.69732      88.40701     206.74361       0.27957       1.80785       5.56425       1.26446       0.00000
    4596.50000      65.62127     411.34140     984.77997     931.48883     831.78760      12.25000      12.65537      12.59634      12.42602      12.76667    2635.00000      17.73856       0.05059       0.07496       3.15169       2.83127      -0.07092      -0.01773       5.09468      48.85812      88.57563     207.34680       0.28011       1.80939       6.32555       1.15151       0.00000
    4596.00000      66.13078     395.66840     805.32892     813.72260     752.99646      12.25000      12.50136      12.54755      12.44775      12.64735    2582.00000      19.56462       0.04983       0.04927       3.19179       2.83834      -0.07505      -0.01781       3.56094      48.84781      89.63518     206.90900       0.28759       1.83137       6.41062       1.03395       0.00000
    4595.50000      67.64244     405.51984     723.19055     717.65436     674.00073      12.25000      12.36934      12.50184      12.51186      12.49183    2610.00000      19.38478       0.06240       0.06103       3.16991       2.82447      -0.06694      -0.01465       2.96112      49.28281      90.99075     206.95209       0.29391       1.85097       6.47623       0.93839       0.00000
    4595.00000      66.57231     366.59940     465.48743     498.72284     476.98709      12.25000      12.30334      12.40651      12.50126      12.31175    2666.00000      20.11639       0.10557       0.11795       3.12571       2.77260      -0.03661      -0.00266       1.76090      50.93347      92.39415     207.66422       0.27946       1.80752       6.48494       0.85294       0.00000
    4594.50000      65.66843     312.02686     312.32913     313.45761     303.26874      12.25000      12.30334      12.43693      12.58616      12.28770    2579.00000      19.57066       0.13222       0.15723       3.10084       2.71582      -0.00341       0.00870       3.08689      52.49819      93.90628     208.57060       0.27495       1.79491       6.48502       0.78759       0.00000
    4594.00000      61.15099     259.59857     232.56306     221.46574     214.52434      12.25000      12.41335      12.45874      12.62977      12.28770    2591.00000      20.48180       0.12816       0.11939       3.02878       2.66342       0.02724       0.00925       2.68513      52.57326      94.72319     209.09601       0.27996       1.80896       6.48864       0.76817       0.00000
    4593.50000      63.33972     310.71533     358.24548     300.12616     304.44363      12.25000      12.50136      12.39628      12.49359      12.29897    2712.00000      19.42380       0.10315       0.11154       2.88380       2.58911       0.07069       0.00096       2.68513      51.43277      94.37010     209.24358       0.28928       1.83652       6.44499       0.79840       0.00000
    4593.00000      66.28985     405.63324     907.00861     649.10309     643.08789      12.25000      13.00741      12.43711      12.49041      12.38380    2649.00000      20.33832       0.11204       0.13605       2.77288       2.53682       0.10128      -0.00234       3.09375      50.97811      93.53522     209.32069       0.28825       1.83339       6.27661       0.81996       0.00000
    4592.50000      66.81035     416.02979    1176.50647     755.55170     709.56940      12.25000      13.00741      12.79547      12.82458      12.76635    2650.00000      19.42719       0.10889       0.13137       2.81982       2.51510       0.11398      -0.00303       3.56823      50.88333      92.80931     209.58052       0.28478       1.82296       5.91344       0.79715       0.00000
    4592.00000      62.13337     365.84531     718.41418     495.36459     457.72342      12.25000      13.01841      12.79869      13.03374      12.56363    2650.00000      20.11937       0.08530       0.10702       3.00797       2.61066       0.05810      -0.00645       4.16647      50.41194      91.98068     210.02895       0.28716       1.83009       4.33105       0.81018       0.00000
    4591.50000      57.56437     299.87814     407.12012     366.10797     300.09552      12.25000      13.16142      12.81191      13.10808      12.51575    2612.00000      20.11937       0.04472       0.05204       3.20040       2.68380       0.01532      -0.01478       4.54022      49.26547      90.63621     210.02783       0.29041       1.83999       2.24708       0.92351       0.00000
    4591.00000      59.92784     307.16397     441.39590     343.87338     321.47357      12.25000      13.02941      12.82697      13.15015      12.50379    2641.00000      19.93357       0.05836       0.05580       3.41992       2.71705      -0.00412      -0.01618       5.47189      49.07214      89.23474     208.90816       0.28153       1.81346       1.52966       1.12844       0.00000
    4590.50000      59.36739     351.80835     662.25726     558.94379     506.38373      12.25000      13.01841      12.79595      13.07615      12.51575    2613.00000      18.28743       0.09579       0.11139       3.51416       2.69915       0.00634      -0.01007       8.21191      49.91315      88.56176     207.53902       0.26529       1.76927       1.95928       1.28251       0.00000
    4590.00000      52.60677     211.05222     180.29625     163.78114     142.40309      12.25000      12.91940      12.72507      12.97032      12.47983    2607.00000      16.82420       0.11333       0.12427       3.48651       2.69747       0.00733      -0.00556       6.62688      50.53428      88.65176     206.76242       0.25921       1.75399       2.64126       1.29330       0.00000
    4589.50000      51.31339     192.30385     151.21669     131.31845     117.15999      12.25000      12.88640      12.68193      12.89605      12.46782    2656.00000      14.81516       0.09553       0.09224       3.31505       2.72295      -0.00757      -0.00801       4.28963      50.19764      89.15014     206.50627       0.26692       1.77347       3.37952       1.27480       0.00000
    4589.00000      49.77128     196.67238     166.93665     177.00829     144.04091      12.25000      12.98541      12.72439      12.88527      12.56352    2673.00000      15.07829       0.05972       0.06701       3.18885       2.74331      -0.01948      -0.01715       2.96241      48.93821      89.99792     206.46857       0.28955       1.83734       4.32951       1.28632       0.00000
