~VERSION
 VERS.        2.00                                                                   :CWLS LOG ASCII STANDARD
 WRAP.        NO                                                                     :NO WRAP PERFORMED
 PROD.        Schlumberger                                                           :LAS Producer
 CREA.        Thu Dec  9 10:37:48 2010                                               :LAS Creation Date and time
~Well
#MNEM.UNIT    VALUE                                                                   :DESCRIPTION
#----.----    ---------------                                                        :-------------------
 STRT.F       5250.000                                                               :START DEPTH
 STOP.F       350.000                                                                :STOP  DEPTH
 STEP.F       -0.500                                                                 :DEPTH STEP
 NULL.        -999.250                                                               :NULL VALUE
 COMP.        ADM COMPANY                                                            :COMPANY NAME
 WELL.        VERIFICATION WELL 1                                                    :WELL NAME
 FLD.         WILDCAT                                                                :FIELD NAME
 API.         121152346000                                                           :API NUMBER
 CNTY.        MACON                                                                  :COUNTY
 STAT.        ILLINOIS                                                               :STATE
 CTRY.        US                                                                     :COUNTRY
 LOC.         LAT 39* 52' 47.5" N                                                    :WELL SURFACE LOCATION LINE 1
 LOC2.        LONG 88* 53' 36.9"                                                     :WELL SURFACE LOCATION LINE 2
 LOC3.                                                                               :WELL SURFACE LOCATION LINE 3
 SECT.        5                                                                      :SECTION
 TOWN.        17 NORTH                                                               :TOWNSHIP
 RANG.        3 EAST                                                                 :RANGE
 LATI.                                                                               :Latitude
 LONG.                                                                               :Longitude
 DATE.        10/24/2010                                                             :LOGGING DATE
 SRVC.        Schlumberger                                                           :SERVICE COMPANY
~Parameter
#MNEM.UNIT    VALUE                                                                  :DESCRIPTION
#----.----    ---------------                                                        :-------------------
 APD.F        15.000                                                                 :Elevation of depth reference above permanent datum
 EDF.F        683.000                                                                :Elevation of Derrick Floor
 EGL.F        669.000                                                                :Elevation of Ground Level
 EKB.F        684.000                                                                :Elevation of Kelly Bushing
 EPD.F        669.000                                                                :Elevation of Permnaent Datum
 LMF.         Kelly Bushing                                                          :Logging Measured From
 PDAT.        Ground Level                                                           :Permanent Datum
 TDD.F        5320.000                                                               :Total Depth Driller
 TDL.F        5322.000                                                               :Total Depth Logger
 BS.IN        12.25                                                                  :Bit Size
 R1.                                                                                 :REMARK 1
 R2.                                                                                 :REMARK 2
 R3.                                                                                 :REMARK 3
 R4.                                                                                 :REMARK 4
 R5.                                                                                 :REMARK 5
 R6.                                                                                 :REMARK 6
 R7.                                                                                 :REMARK 7
 R8.                                                                                 :REMARK 8
 R9.                                                                                 :REMARK 9
 R10.                                                                                :REMARK 10
 DCS_CENTER.  Denver                                                                 :Schlumberger DCS Center
 LOG_ANALYST. Becker                                                                 :Log Analyst Name
 ENG.         DARREN HUNTER                                                          :Field Engineer Name
 GF_BASELINE. GF45LNX                                                                :GeoFrame Baseline
~Curve
#MNEM.UNIT                                                                           :DESCRIPTION
#----.----                                                                           :--------------------------------
 DEPT.F                                                                              :Depth Index
 RLA1.OHMM                                                                           : 1 Apparent Resistivity from Computed Focusing Mode 1                                        
 RLA2.OHMM                                                                           : 2 Apparent Resistivity from Computed Focusing Mode 2                                        
 RLA3.OHMM                                                                           : 3 Apparent Resistivity from Computed Focusing Mode 3                                        
 RLA4.OHMM                                                                           : 4 Apparent Resistivity from Computed Focusing Mode 4                                        
 RLA5.OHMM                                                                           : 5 Apparent Resistivity from Computed Focusing Mode 5                                        
 BS.IN                                                                               : 6 Bit Size                                                                                  
 HCAL.IN                                                                             : 7 HRCC Caliper Calibrated                                                                   
 HDAR.IN                                                                             : 8 Hole Diameter from Area                                                                   
 HD1_PPC1.IN                                                                         : 9 PPC1 Hole Diameter 1                                                                      
 HD2_PPC1.IN                                                                         :10 PPC1 Hole Diameter 2                                                                      
 TENS.LBS                                                                            :11 Cable Tension                                                                             
 GR_EDTC.GAPI                                                                        :12 Gamma Ray                                                                                 
 NPHI.CFCF                                                                           :13 Thermal Neutron Porosity (original Ratio Method) in Selected Lithology                    
 NPOR.CFCF                                                                           :14 Enhanced Thermal Neutron Porosity in Selected Lithology                                   
 PEFZ.                                                                               :15 HRDD Standard Resolution Formation Photoelectric Factor                                   
 RHOZ.G/C3                                                                           :16 HRDD Standard Resolution Formation Density                                                
 DPHZ.CFCF                                                                           :17 Standard Resolution Density Porosity                                                      
 SPHI.CFCF                                                                           :18 Sonic Porosity                                                                            
 VCL_HILT.CFCF                                                                       :19 Volume of Clay type Material relative to Total Volume                                     
 DTCO.US/FT                                                                          :20 Delta-T Compressional                                                                     
 DTSM_FAST.US/FT                                                                     :21 Shear Slowness of Fast Shear Waves                                                        
 DTST.US/FT                                                                          :22 Delta-T Stoneley - Monopole Stoneley                                                      
 PR_FAST.                                                                            :23 Poisson Ratio of Fast Shear Waves                                                         
 VPVS_FAST.                                                                          :24 Vp/Vs Ration of fast shear waves                                                          
 MAXXENE_OVERALL.                                                                    :25 Overall estimate of maximum cross energy                                                  
 MINXENE_OVERALL.                                                                    :26 Overall estimate of minimum cross energy                                                  
 FLAG.                                                                               :27 General Indicator Flag(Bad Borehole)                                                                    
~Ascii   DEPT          RLA1          RLA2          RLA3          RLA4          RLA5            BS          HCAL          HDAR      HD1_PPC1      HD2_PPC1          TENS       GR_EDTC          NPHI          NPOR          PEFZ          RHOZ          DPHZ          SPHI      VCL_HILT          DTCO     DTSM_FAST          DTST       PR_FAST     VPVS_FAST  MAXXENE_OVER  MINXENE_OVER          FLAG
# ...
     357.00000       0.09948       0.09991       0.09987       0.09998       0.09983      12.25000      12.63337      12.60320      12.66561      12.54078    1578.00000      55.40937       0.52412       0.43192      10.00000       3.71358      -0.58689       0.02346       0.00000      54.53063     100.17918     232.24518       0.28927       1.83649       4.79537       4.04546       0.00000
     356.50000       0.09739       0.09734       0.09743       0.09730       0.09691      12.25000      12.63337      12.60448      12.66867      12.54029    1567.00000      52.84984       0.43776       0.35089      10.00000       3.72233      -0.59201       0.02179       0.00000      54.30096     108.15753     233.13828       0.32845       1.97856       5.21969       4.44827       0.00000
     356.00000       0.09801       0.09757       0.09766       0.09748       0.09621      12.25000      12.63337      12.60989      12.67948      12.54029    1572.00000      57.31781       0.42169       0.37684      10.00000       3.72550      -0.59386       0.02339       0.00000      54.52139     113.30190     234.24057       0.36314       2.15714       5.94863       4.93637       0.00000
     355.50000       0.10165       0.10183       0.10212       0.10196       0.10023      12.25000      12.63337      12.60989      12.67948      12.54029    1554.00000      54.94110       0.49615       0.44852      10.00000       3.72699      -0.59473       0.02846       0.00000      55.21944     113.28017     234.96356       0.33378       2.00199       6.88336       5.68868       0.00000
     355.00000       0.10006       0.09934       0.09934       0.09934       0.09928      12.25000      12.63337      12.60989      12.67948      12.54029    1556.00000      58.98095       0.53428       0.53681      10.00000       3.72197      -0.59180       0.03265       0.00000      55.79607     112.58023     235.39040       0.34398       2.05054       7.70052       6.75123       0.00000
     354.50000       0.10391       0.10312       0.10341       0.10338       0.10318      12.25000      12.63337      12.62184      12.67948      12.56420    1595.00000      57.60695       0.61105       0.50548      10.00000       3.71243      -0.58622       0.03299       0.00000      55.84303     113.41477     235.70515       0.33035       1.98678       8.74038       8.00847       0.00000
     354.00000       0.10453       0.10575       0.10537       0.10496       0.10339      12.25000      12.63337      12.60306      12.66534      12.54078    1571.00000      57.97260       0.55235       0.51901      10.00000       3.69577      -0.57647       0.03050       0.00000      55.49955     117.56998     235.96184       0.35595       2.11446      10.03136       9.19590       0.00000
     353.50000       0.09172       0.09291       0.09306       0.09289       0.09031      12.25000      12.64437      12.60448      12.66867      12.54029    1560.00000      58.70454       0.55795       0.44356      10.00000       3.66987      -0.56133       0.02959       0.00000      55.37466     123.82555     236.14087       0.37701       2.25065      11.87325      10.89191       0.00000
     353.00000       0.09239       0.09275       0.09245       0.09263       0.09097      12.25000      12.65537      12.60989      12.67948      12.54029    1595.00000      58.00521       0.45953       0.44989      10.00000       3.64569      -0.54719       0.02949       0.00000      55.36065     129.12047     236.17084       0.38646       2.32462      13.97480      12.95777       0.00000
     352.50000       0.10009       0.10053       0.10046       0.10049       0.09978      12.25000      12.63337      12.60448      12.66867      12.54029    1575.00000      59.46780       0.51506       0.38161      10.00000       3.63172      -0.53902       0.02942       0.00000      55.35068     132.52261     236.03204       0.39800       2.42938      15.81637      15.05198       0.00000
     352.00000       0.10454       0.10373       0.10361       0.10333       0.10187      12.25000      12.63337      12.61587      12.67948      12.55225    1592.00000      57.63795       0.51489       0.67110      10.00000       3.63158      -0.53894       0.02993       0.00000      55.42095     132.52859     235.80148       0.39390       2.39011      17.55601      17.05269       0.00000
     351.50000       0.09895       0.09967       0.09971       0.09984       0.09782      12.25000      12.65537      12.61586      12.67948      12.55224    1537.00000      59.79987       0.62288       0.48931      10.00000       3.63507      -0.54098       0.03134       0.00000      55.61588     129.85603     235.62207       0.38949       2.35044      19.21066      18.75711       0.00000
     351.00000       0.10188       0.10198       0.10194       0.10053       0.09586      12.25000      12.63337      12.61046      12.66867      12.55225    1552.00000      56.42448       0.55930       0.48777      10.00000       3.63243      -0.53943       0.03182       0.00000      55.68130     124.68958     235.58769       0.37750       2.25422      21.19757      20.51357       0.00000
     350.50000       0.09707       0.09715       0.09725       0.09451       0.08747      12.25000      12.63337      12.60448      12.66867      12.54029    1553.00000      54.21383       0.57995       0.50529      10.00000       3.62390      -0.53444       0.03122       0.00000      55.59941     117.24364     235.67612       0.35415       2.10435      23.04518      22.11556       0.00000
     350.00000       0.09804       0.09972       0.09954       0.09966       0.09487      12.25000      12.64437      12.61587      12.67948      12.55225    1541.00000      56.61069       0.55996       0.68769      10.00000       3.61784      -0.53090       0.02994       0.00000      55.42324     110.47310     235.75720       0.32760       1.97490      24.67746      23.30865       0.00000
