~VERSION
 VERS.        2.00                                                                   :CWLS LOG ASCII STANDARD
 WRAP.        NO                                                                     :NO WRAP PERFORMED
 PROD.        Schlumberger                                                           :LAS Producer
 CREA.        Thu Dec  9 10:37:48 2010                                               :LAS Creation Date and time
~Well
#MNEM.UNIT    VALUE                                                                   :DESCRIPTION
#----.----    ---------------                                                        :-------------------
 STRT.F       5250.000                                                               :START DEPTH
 STOP.F       350.000                                                                :STOP  DEPTH
 STEP.F       -0.500                                                                 :DEPTH STEP
 NULL.        -999.250                                                               :NULL VALUE
 COMP.        ADM COMPANY                                                            :COMPANY NAME
 WELL.        VERIFICATION WELL 1                                                    :WELL NAME
 FLD.         WILDCAT                                                                :FIELD NAME
 API.         121152346000                                                           :API NUMBER
 CNTY.        MACON                                                                  :COUNTY
 STAT.        ILLINOIS                                                               :STATE
 CTRY.        US                                                                     :COUNTRY
 LOC.         LAT 39* 52' 47.5" N                                                    :WELL SURFACE LOCATION LINE 1
 LOC2.        LONG 88* 53' 36.9"                                                     :WELL SURFACE LOCATION LINE 2
 LOC3.                                                                               :WELL SURFACE LOCATION LINE 3
 SECT.        5                                                                      :SECTION
 TOWN.        17 NORTH                                                               :TOWNSHIP
 RANG.        3 EAST                                                                 :RANGE
 LATI.                                                                               :Latitude
 LONG.                                                                               :Longitude
 DATE.        10/24/2010                                                             :LOGGING DATE
 SRVC.        Schlumberger                                                           :SERVICE COMPANY
~Parameter
#MNEM.UNIT    VALUE                                                                  :DESCRIPTION
#----.----    ---------------                                                        :-------------------
 APD.F        15.000                                                                 :Elevation of depth reference above permanent datum
 EDF.F        683.000                                                                :Elevation of Derrick Floor
 EGL.F        669.000                                                                :Elevation of Ground Level
 EKB.F        684.000                                                                :Elevation of Kelly Bushing
 EPD.F        669.000                                                                :Elevation of Permnaent Datum
 LMF.         Kelly Bushing                                                          :Logging Measured From
 PDAT.        Ground Level                                                           :Permanent Datum
 TDD.F        5320.000                                                               :Total Depth Driller
 TDL.F        5322.000                                                               :Total Depth Logger
 BS.IN        12.25                                                                  :Bit Size
 R1.                                                                                 :REMARK 1
 R2.                                                                                 :REMARK 2
 R3.                                                                                 :REMARK 3
 R4.                                                                                 :REMARK 4
 R5.                                                                                 :REMARK 5
 R6.                                                                                 :REMARK 6
 R7.                                                                                 :REMARK 7
 R8.                                                                                 :REMARK 8
 R9.                                                                                 :REMARK 9
 R10.                                                                                :REMARK 10
 DCS_CENTER.  Denver                                                                 :Schlumberger DCS Center
 LOG_ANALYST. Becker                                                                 :Log Analyst Name
 ENG.         DARREN HUNTER                                                          :Field Engineer Name
 GF_BASELINE. GF45LNX                                                                :GeoFrame Baseline
~Curve
#MNEM.UNIT                                                                           :DESCRIPTION
#----.----                                                                           :--------------------------------
 DEPT.F                                                                              :Depth Index
 RLA1.OHMM                                                                           : 1 Apparent Resistivity from Computed Focusing Mode 1                                        
 RLA2.OHMM                                                                           : 2 Apparent Resistivity from Computed Focusing Mode 2                                        
 RLA3.OHMM                                                                           : 3 Apparent Resistivity from Computed Focusing Mode 3                                        
 RLA4.OHMM                                                                           : 4 Apparent Resistivity from Computed Focusing Mode 4                                        
 RLA5.OHMM                                                                           : 5 Apparent Resistivity from Computed Focusing Mode 5                                        
 BS.IN                                                                               : 6 Bit Size                                                                                  
 HCAL.IN                                                                             : 7 HRCC Caliper Calibrated                                                                   
 HDAR.IN                                                                             : 8 Hole Diameter from Area                                                                   
 HD1_PPC1.IN                                                                         : 9 PPC1 Hole Diameter 1                                                                      
 HD2_PPC1.IN                                                                         :10 PPC1 Hole Diameter 2                                                                      
 TENS.LBS                                                                            :11 Cable Tension                                                                             
 GR_EDTC.GAPI                                                                        :12 Gamma Ray                                                                                 
 NPHI.CFCF                                                                           :13 Thermal Neutron Porosity (original Ratio Method) in Selected Lithology                    
 NPOR.CFCF                                                                           :14 Enhanced Thermal Neutron Porosity in Selected Lithology                                   
 PEFZ.                                                                               :15 HRDD Standard Resolution Formation Photoelectric Factor                                   
 RHOZ.G/C3                                                                           :16 HRDD Standard Resolution Formation Density                                                
 DPHZ.CFCF                                                                           :17 Standard Resolution Density Porosity                                                      
 SPHI.CFCF                                                                           :18 Sonic Porosity                                                                            
 VCL_HILT.CFCF                                                                       :19 Volume of Clay type Material relative to Total Volume                                     
 DTCO.US/FT                                                                          :20 Delta-T Compressional                                                                     
 DTSM_FAST.US/FT                                                                     :21 Shear Slowness of Fast Shear Waves                                                        
 DTST.US/FT                                                                          :22 Delta-T Stoneley - Monopole Stoneley                                                      
 PR_FAST.                                                                            :23 Poisson Ratio of Fast Shear Waves                                                         
 VPVS_FAST.                                                                          :24 Vp/Vs Ration of fast shear waves                                                          
 MAXXENE_OVERALL.                                                                    :25 Overall estimate of maximum cross energy                                                  
 MINXENE_OVERALL.                                                                    :26 Overall estimate of minimum cross energy                                                  
 FLAG.                                                                               :27 General Indicator Flag(Bad Borehole)                                                                    
~Ascii   DEPT          RLA1          RLA2          RLA3          RLA4          RLA5            BS          HCAL          HDAR      HD1_PPC1      HD2_PPC1          TENS       GR_EDTC          NPHI          NPOR          PEFZ          RHOZ          DPHZ          SPHI      VCL_HILT          DTCO     DTSM_FAST          DTST       PR_FAST     VPVS_FAST  MAXXENE_OVER  MINXENE_OVER          FLAG
# ...
    1008.00000       4.80131       4.81140       4.90102       5.04309       5.15933      12.25000      12.27033      12.40352      12.43447      12.37257    1910.05884      84.36818       0.34910       0.36434       3.20089       2.54058       0.09908       0.28881      54.99165      91.06982     172.82397     221.63585       0.30779       1.89770       7.69335       0.21267       0.00000
    1007.50000       4.91255       4.85162       4.95953       5.06259       5.21879      12.25000      12.25933      12.38814      12.41429      12.36198    1890.82349      87.37617       0.33983       0.30935       3.24314       2.54225       0.09810       0.28846      62.10729      91.02114     172.74524     221.48541       0.30798       1.89839       7.62794       0.23388       0.00000
    1007.00000       4.89119       4.85070       4.94362       5.04496       5.20718      12.25000      12.25933      12.38559      12.42049      12.35069    1875.64709      88.70988       0.33147       0.28741       3.33601       2.54472       0.09665       0.28598      59.75570      90.67966     172.53763     221.31184       0.30928       1.90307       7.61520       0.25470       0.00000
    1006.50000       4.43765       4.44943       4.50848       4.60267       4.74545      12.25000      12.25933      12.38087      12.42236      12.33939    1892.88232      86.51347       0.30088       0.32040       3.51631       2.60125       0.06360       0.28268      62.98435      90.22543     172.21628     221.10750       0.31084       1.90874       7.64967       0.27477       0.00000
    1006.00000       4.84741       4.80811       4.85646       4.94044       5.08897      12.25000      12.25933      12.37522      12.42236      12.32808    1884.88232      82.78922       0.29389       0.28908       3.66603       2.65197       0.03394       0.28038      59.77544      89.90829     171.87936     220.88078       0.31160       1.91153       7.62826       0.29525       0.00000
    1005.50000       6.01773       5.99246       6.07522       6.29897       6.47882      12.25000      12.25933      12.35568      12.39458      12.31678    1879.00000      80.48471       0.32154       0.30191       3.64206       2.67323       0.02150       0.27878      61.03572      89.68855     171.59250     220.64720       0.31201       1.91303       7.49173       0.31820       0.00000
    1005.00000       6.31582       6.18354       6.20332       6.25478       6.45269      12.25000      12.28134      12.37476      12.42992      12.31960    1870.76465      81.08656       0.33054       0.33858       3.48461       2.61839       0.05358       0.27544      61.33649      89.22793     170.92990     220.42757       0.31399       1.92041       7.33122       0.34074       0.00000
    1004.50000       5.32372       5.20129       5.22486       5.31547       5.48862      12.25000      12.28134      12.38355      12.44255      12.32455    1854.94116      82.03995       0.33401       0.26557       3.36281       2.56610       0.08415       0.26935      69.23549      88.38937     169.43723     220.17862       0.31305       1.91691       7.17975       0.35600       0.00000
    1004.00000       5.59546       5.46171       5.48251       5.57436       5.75993      12.25000      12.29234      12.36591      12.40727      12.32455    1866.70593      80.94514       0.30042       0.28802       3.33456       2.53500       0.10234       0.26454      74.06173      87.72762     168.10550     219.83977       0.31108       1.90961       6.98130       0.35944       0.00000
    1003.50000       5.95397       5.71384       5.73305       5.80633       6.00802      12.25000      12.30334      12.35248      12.39030      12.31466    1909.76465      81.04514       0.28743       0.28802       3.31420       2.53264       0.10372       0.26502      75.99259      87.79305     168.43594     219.40868       0.31196       1.91286       6.74356       0.35350       0.00000
    1003.00000       6.08571       5.82505       5.83665       5.89883       6.09167      12.25000      12.28134      12.35152      12.39404      12.30901    1904.11768      84.52876       0.27781       0.27651       3.30066       2.53568       0.10194       0.27195      72.01270      88.74688     170.64398     219.02179       0.31373       1.91946       6.53492       0.35167       0.00000
    1002.50000       6.11927       5.88794       5.85029       5.90577       6.10002      12.25000      12.30334      12.36748      12.41041      12.32455    1870.23535      88.90823       0.26489       0.25798       3.31147       2.53392       0.10297       0.28356      69.50883      90.34580     173.93243     218.89198       0.31529       1.92535       6.39107       0.36183       0.00000
    1002.00000       6.21256       5.98019       5.91666       5.97349       6.14755      12.25000      12.32534      12.37889      12.43323      12.32455    1934.70593      93.16659       0.27457       0.32156       3.29353       2.53689       0.10123       0.29381      66.45650      91.75822     177.55032     219.07770       0.31762       1.93431       6.28779       0.38441       0.00000
    1001.50000       6.39418       6.15722       6.12279       6.15911       6.30862      12.25000      12.32534      12.38267      12.44080      12.32455    1919.76465      93.01984       0.31454       0.39521       3.31357       2.53161       0.10432       0.30063      71.72561      92.69662     181.17921     219.45282       0.32297       1.95559       6.20595       0.42665       0.00000
    1001.00000       6.43752       6.18750       6.17802       6.17747       6.33533      12.25000      12.32534      12.40048      12.47649      12.32447    1900.23535      93.97881       0.34920       0.35338       3.25688       2.54517       0.09639       0.30484      68.73595      93.27649     183.82304     219.80891       0.32876       1.97986       6.09210       0.49072       0.00000
    1000.50000       6.48262       6.19616       6.16788       6.18163       6.29990      12.25000      12.33634      12.40182      12.47973      12.32390    1900.29407      95.45665       0.35895       0.30572       3.33505       2.56273       0.08612       0.30725      70.34126      93.60785     184.88522     219.98326       0.32710       1.97276       5.99158       0.57213       0.00000
    1000.00000       6.53917       6.29716       6.29799       6.31006       6.41734      12.25000      12.34734      12.40576      12.48697      12.32455    1873.00000      97.16766       0.34206       0.32674       3.58329       2.62853       0.04765       0.30776      61.32857      93.67919     185.18909     220.00943       0.32891       1.98053       5.97536       0.68402       0.00000
     999.50000       6.48324       6.24307       6.24754       6.26249       6.36334      12.25000      12.36934      12.40576      12.48697      12.32455    1917.49963      93.01485       0.34419       0.33199       3.91126       2.67372       0.02122       0.30608      61.79478      93.44772     184.82678     219.91380       0.32878       1.97995       6.05102       0.79067       0.00000
     999.00000       6.86953       6.59347       6.56993       6.58334       6.67808      12.25000      12.36934      12.41846      12.52438      12.31254    1913.00000      92.05938       0.31989       0.31585       3.99059       2.70316       0.00400       0.30143      59.73113      92.80629     183.61720     219.84256       0.32872       1.97971       6.17720       0.86861       0.00000
     998.50000       7.28916       6.97791       6.95553       6.98978       7.06153      12.25000      12.39135      12.41961      12.52968      12.30954    1925.75122      97.36172       0.31036       0.26934       3.75247       2.66377       0.02703       0.29316      70.49793      91.66772     181.81554     219.86696       0.33002       1.98531       6.22353       0.93651       0.00000
     998.00000       7.14634       6.78296       6.75932       6.80482       6.89050      12.25000      12.40235      12.42045      12.54039      12.30052    1889.00000      97.83608       0.29584       0.32048       3.47500       2.61565       0.05518       0.28186      72.61674      90.11244     179.89267     219.84683       0.33167       1.99257       6.26366       0.99143       0.00000
