~VERSION
 VERS.        2.00                                                                   :CWLS LOG ASCII STANDARD
 WRAP.        NO                                                                     :NO WRAP PERFORMED
 PROD.        Schlumberger                                                           :LAS Producer
 CREA.        Thu Dec  9 10:37:48 2010                                               :LAS Creation Date and time
~Well
#MNEM.UNIT    VALUE                                                                   :DESCRIPTION
#----.----    ---------------                                                        :-------------------
 STRT.F       5250.000                                                               :START DEPTH
 STOP.F       350.000                                                                :STOP  DEPTH
 STEP.F       -0.500                                                                 :DEPTH STEP
 NULL.        -999.250                                                               :NULL VALUE
 COMP.        ADM COMPANY                                                            :COMPANY NAME
 WELL.        VERIFICATION WELL 1                                                    :WELL NAME
 FLD.         WILDCAT                                                                :FIELD NAME
 API.         121152346000                                                           :API NUMBER
 CNTY.        MACON                                                                  :COUNTY
 STAT.        ILLINOIS                                                               :STATE
 CTRY.        US                                                                     :COUNTRY
 LOC.         LAT 39* 52' 47.5" N                                                    :WELL SURFACE LOCATION LINE 1
 LOC2.        LONG 88* 53' 36.9"                                                     :WELL SURFACE LOCATION LINE 2
 LOC3.                                                                               :WELL SURFACE LOCATION LINE 3
 SECT.        5                                                                      :SECTION
 TOWN.        17 NORTH                                                               :TOWNSHIP
 RANG.        3 EAST                                                                 :RANGE
 LATI.                                                                               :Latitude
 LONG.                                                                               :Longitude
 DATE.        10/24/2010                                                             :LOGGING DATE
 SRVC.        Schlumberger                                                           :SERVICE COMPANY
~Parameter
#MNEM.UNIT    VALUE                                                                  :DESCRIPTION
#----.----    ---------------                                                        :-------------------
 APD.F        15.000                                                                 :Elevation of depth reference above permanent datum
 EDF.F        683.000                                                                :Elevation of Derrick Floor
 EGL.F        669.000                                                                :Elevation of Ground Level
 EKB.F        684.000                                                                :Elevation of Kelly Bushing
 EPD.F        669.000                                                                :Elevation of Permnaent Datum
 LMF.         Kelly Bushing                                                          :Logging Measured From
 PDAT.        Ground Level                                                           :Permanent Datum
 TDD.F        5320.000                                                               :Total Depth Driller
 TDL.F        5322.000                                                               :Total Depth Logger
 BS.IN        12.25                                                                  :Bit Size
 R1.                                                                                 :REMARK 1
 R2.                                                                                 :REMARK 2
 R3.                                                                                 :REMARK 3
 R4.                                                                                 :REMARK 4
 R5.                                                                                 :REMARK 5
 R6.                                                                                 :REMARK 6
 R7.                                                                                 :REMARK 7
 R8.                                                                                 :REMARK 8
 R9.                                                                                 :REMARK 9
 R10.                                                                                :REMARK 10
 DCS_CENTER.  Denver                                                                 :Schlumberger DCS Center
 LOG_ANALYST. Becker                                                                 :Log Analyst Name
 ENG.         DARREN HUNTER                                                          :Field Engineer Name
 GF_BASELINE. GF45LNX                                                                :GeoFrame Baseline
~Curve
#MNEM.UNIT                                                                           :DESCRIPTION
#----.----                                                                           :--------------------------------
 DEPT.F                                                                              :Depth Index
 RLA1.OHMM                                                                           : 1 Apparent Resistivity from Computed Focusing Mode 1                                        
 RLA2.OHMM                                                                           : 2 Apparent Resistivity from Computed Focusing Mode 2                                        
 RLA3.OHMM                                                                           : 3 Apparent Resistivity from Computed Focusing Mode 3                                        
 RLA4.OHMM                                                                           : 4 Apparent Resistivity from Computed Focusing Mode 4                                        
 RLA5.OHMM                                                                           : 5 Apparent Resistivity from Computed Focusing Mode 5                                        
 BS.IN                                                                               : 6 Bit Size                                                                                  
 HCAL.IN                                                                             : 7 HRCC Caliper Calibrated                                                                   
 HDAR.IN                                                                             : 8 Hole Diameter from Area                                                                   
 HD1_PPC1.IN                                                                         : 9 PPC1 Hole Diameter 1                                                                      
 HD2_PPC1.IN                                                                         :10 PPC1 Hole Diameter 2                                                                      
 TENS.LBS                                                                            :11 Cable Tension                                                                             
 GR_EDTC.GAPI                                                                        :12 Gamma Ray                                                                                 
 NPHI.CFCF                                                                           :13 Thermal Neutron Porosity (original Ratio Method) in Selected Lithology                    
 NPOR.CFCF                                                                           :14 Enhanced Thermal Neutron Porosity in Selected Lithology                                   
 PEFZ.                                                                               :15 HRDD Standard Resolution Formation Photoelectric Factor                                   
 RHOZ.G/C3                                                                           :16 HRDD Standard Resolution Formation Density                                                
 DPHZ.CFCF                                                                           :17 Standard Resolution Density Porosity                                                      
 SPHI.CFCF                                                                           :18 Sonic Porosity                                                                            
 VCL_HILT.CFCF                                                                       :19 Volume of Clay type Material relative to Total Volume                                     
 DTCO.US/FT                                                                          :20 Delta-T Compressional                                                                     
 DTSM_FAST.US/FT                                                                     :21 Shear Slowness of Fast Shear Waves                                                        
 DTST.US/FT                                                                          :22 Delta-T Stoneley - Monopole Stoneley                                                      
 PR_FAST.                                                                            :23 Poisson Ratio of Fast Shear Waves                                                         
 VPVS_FAST.                                                                          :24 Vp/Vs Ration of fast shear waves                                                          
 MAXXENE_OVERALL.                                                                    :25 Overall estimate of maximum cross energy                                                  
 MINXENE_OVERALL.                                                                    :26 Overall estimate of minimum cross energy                                                  
 FLAG.                                                                               :27 General Indicator Flag(Bad Borehole)                                                                    
~Ascii   DEPT          RLA1          RLA2          RLA3          RLA4          RLA5            BS          HCAL          HDAR      HD1_PPC1      HD2_PPC1          TENS       GR_EDTC          NPHI          NPOR          PEFZ          RHOZ          DPHZ          SPHI      VCL_HILT          DTCO     DTSM_FAST          DTST       PR_FAST     VPVS_FAST  MAXXENE_OVER  MINXENE_OVER          FLAG
    5250.00000       8.15449       7.24849       7.01643       6.69187       6.35653      12.25000      12.25933      12.26059      12.24621      12.27498    2755.57153     196.58319       0.15234       0.17279       4.03097       2.48006       0.13447       0.09441      89.46700      64.30083     126.52495     216.81174       0.32794       1.97633       2.28529       1.11601       0.00000
    5249.50000       9.06849       7.95137       7.72308       7.61122       7.21650      12.25000      12.32534      12.26059      12.24621      12.27498    2761.00000     196.58319       0.11953       0.12305       4.42361       2.60210       0.06310       0.05454      77.89629      58.81043     120.87126     215.34125       0.34541       2.05777       2.18748       1.03453       0.00000
    5249.00000      21.48131      19.02403      17.42132      18.78465      17.14848      12.25000      12.39135      12.26059      12.24621      12.27498    2761.71436     196.58319       0.07279       0.05667       4.75116       2.70271       0.00426       0.02247      57.77450      54.39408     114.76175     212.51128       0.35384       2.10258       1.93108       0.86878       0.00000
    5248.50000      50.62671      67.68996      61.27991      62.29687      60.11921      12.25000      12.34734      12.26059      12.24621      12.27498    2732.57153     196.58319       0.03569       0.05157       4.98972       2.74355      -0.01962       0.00615      55.50489      52.14703     109.89639     209.50748       0.35262       2.09585       1.79790       0.75511       0.00000
    5248.00000      58.41223     124.68932     103.65888     109.93293     105.63747      12.25000      12.34734      12.26059      12.24621      12.27498    2724.28564     196.58319       0.01847       0.03770       5.08555       2.75670      -0.02731       0.00516      50.82188      52.01101     107.64788     207.58157       0.34391       2.05020       1.76228       0.73131       0.00000
    5247.50000      63.62130     232.25159     203.50334     201.78668     193.79706      12.25000      12.30334      12.26059      12.24621      12.27498    2777.71436     196.58319       0.01587       0.02816       5.03372       2.75523      -0.02645       0.01990      49.85995      54.04043     108.98830     206.93010       0.33314       1.99912       1.72538       0.73174       0.00000
    5247.00000      64.99523     348.67932     411.08096     372.72961     358.07779      12.25000      12.32534      12.26059      12.24621      12.27498    2752.00000     196.58319       0.01923       0.02537       4.84372       2.74740      -0.02187       0.05470      51.32604      58.83220     113.53899     207.15254       0.31521       1.92503       1.72591       0.73700       0.00000
    5246.50000      67.95097     274.59442     311.11218     349.40964     276.04153      12.25000      12.39135      12.26059      12.24621      12.27498    2739.00000     196.58319       0.08274       0.07762       4.50412       2.72723      -0.01008       0.09837      67.60510      64.84518     119.53500     208.19620       0.29190       1.84463       1.71546       0.73661       0.00000
    5246.00000      49.33923      80.53429      79.05402      86.48030      77.80061      12.25000      12.34734      12.26059      12.24621      12.27498    2718.00000     196.58319       0.18065       0.23413       4.15293       2.69044       0.01144       0.13876      99.75777      70.40660     125.11343     209.63847       0.27119       1.78471       1.69649       0.72858       0.00000
    5245.50000      38.70314      37.28920      35.93559      32.78251      31.87633      12.25000      12.24833      12.26059      12.24621      12.27498    2758.00000     196.58319       0.23826       0.27880       3.89514       2.66049       0.02896       0.15523     100.00000      72.67545     128.64954     210.43369       0.27027       1.78227       1.66375       0.69446       0.00000
    5245.00000      35.42246      32.65560      29.95419      27.40211      26.68776      12.25000      12.19333      12.26059      12.24621      12.27498    2731.00000     196.58319       0.21851       0.21433       3.72646       2.62069       0.05223       0.15098     100.00000      72.08997     130.27081     210.28949       0.27741       1.80175       1.65070       0.64939       0.00000
    5244.50000      37.70077      34.23174      30.97821      28.23211      27.48657      12.25000      12.20433      12.26059      12.24621      12.27498    2730.00000     196.58319       0.15543       0.13314       3.58136       2.60675       0.06038       0.13044     100.00000      69.26143     130.59656     209.50333       0.30916       1.90264       1.66325       0.61310       0.00000
    5244.00000      39.64725      39.48485      35.14176      32.13779      31.18894      12.25000      12.21533      12.26059      12.24621      12.27498    2739.00000     196.58319       0.11979       0.09084       3.48470       2.59915       0.06483       0.11505     100.00000      67.14252     129.00667     208.96335       0.31398       1.92037       1.78334       0.55961       0.00000
    5243.50000      41.01396      40.56779      36.22118      32.86885      31.73401      12.25000      12.23733      12.26059      12.24621      12.27498    2766.00000     196.58319       0.11807       0.12212       3.49679       2.63124       0.04606       0.10578     100.00000      65.86560     126.00208     208.70882       0.31350       1.91860       1.93106       0.49905       0.00000
    5243.00000      42.70996      39.98446      35.51165      32.29815      31.18412      12.25000      12.28134      12.26059      12.24621      12.27498    2716.00000     196.58319       0.12756       0.17681       3.65427       2.66698       0.02516       0.09139     100.00000      63.88432     122.27453     208.47421       0.31250       1.91487       1.92948       0.46936       0.00000
    5242.50000      41.82501      38.39379      34.30908      31.43000      30.06416      12.25000      12.23733      12.26059      12.24621      12.27498    2772.00000     196.58319       0.10557       0.10155       3.92787       2.68700       0.01345       0.06928     100.00000      60.83929     118.29446     208.13895       0.31924       1.94065       1.86603       0.45620       0.00000
    5242.00000      45.49846      51.71280      46.24312      42.68261      40.30346      12.25000      12.14932      12.26059      12.24621      12.27498    2761.88892     196.58319       0.07159       0.05758       4.27263       2.69439       0.00913       0.04452      93.18536      57.43095     115.05756     207.74342       0.33275       1.99739       1.78673       0.43730       0.00000
    5241.50000      55.83330     104.20846     101.37953      92.78449      86.89556      12.25000      12.22633      12.26059      12.24621      12.27498    2747.66675     196.58319       0.02511       0.03836       4.58411       2.69463       0.00899       0.02490      64.00734      54.72937     113.22960     207.41266       0.34584       2.05993       1.70486       0.41445       0.00000
    5241.00000      59.25684     168.50797     156.11377     140.57106     129.94905      12.25000      12.21533      12.26059      12.24621      12.27498    2768.00000     196.58319       0.01735       0.02866       4.82866       2.70634       0.00214       0.01387      49.96262      53.20967     112.90771     207.23280       0.35667       2.11858       1.63533       0.38816       0.00000
    5240.50000      61.98955     233.58885     218.16634     219.90001     201.24352      12.25000      12.21533      12.26339      12.23542      12.29135    2781.77783     196.58319       0.01574       0.03698       4.90804       2.71220      -0.00129       0.01075      43.98890      52.77966     113.61635     207.20958       0.36184       2.14920       1.57712       0.36252       0.00000
    5240.00000      58.40427     238.93414     205.57103     200.78406     177.51868      12.25000      12.36934      12.25500      12.21822      12.29177    2779.66675     196.58319       0.01873       0.03087       4.85485       2.70753       0.00145       0.01584      45.01282      53.48061     115.41073     207.36676       0.36162       2.14785       1.52281       0.34394       0.00000
