~VERSION
 VERS.        2.00                                                                   :CWLS LOG ASCII STANDARD
 WRAP.        NO                                                                     :NO WRAP PERFORMED
 PROD.        Schlumberger                                                           :LAS Producer
 CREA.        Thu Dec  9 10:37:48 2010                                               :LAS Creation Date and time
~Well
#MNEM.UNIT    VALUE                                                                   :DESCRIPTION
#----.----    ---------------                                                        :-------------------
 STRT.F       5250.000                                                               :START DEPTH
 STOP.F       350.000                                                                :STOP  DEPTH
 STEP.F       -0.500                                                                 :DEPTH STEP
 NULL.        -999.250                                                               :NULL VALUE
 COMP.        ADM COMPANY                                                            :COMPANY NAME
 WELL.        VERIFICATION WELL 1                                                    :WELL NAME
 FLD.         WILDCAT                                                                :FIELD NAME
 API.         121152346000                                                           :API NUMBER
 CNTY.        MACON                                                                  :COUNTY
 STAT.        ILLINOIS                                                               :STATE
 CTRY.        US                                                                     :COUNTRY
 LOC.         LAT 39* 52' 47.5" N                                                    :WELL SURFACE LOCATION LINE 1
 LOC2.        LONG 88* 53' 36.9"                                                     :WELL SURFACE LOCATION LINE 2
 LOC3.                                                                               :WELL SURFACE LOCATION LINE 3
 SECT.        5                                                                      :SECTION
 TOWN.        17 NORTH                                                               :TOWNSHIP
 RANG.        3 EAST                                                                 :RANGE
 LATI.                                                                               :Latitude
 LONG.                                                                               :Longitude
 DATE.        10/24/2010                                                             :LOGGING DATE
 SRVC.        Schlumberger                                                           :SERVICE COMPANY
~Parameter
#MNEM.UNIT    VALUE                                                                  :DESCRIPTION
#----.----    ---------------                                                        :-------------------
 APD.F        15.000                                                                 :Elevation of depth reference above permanent datum
 EDF.F        683.000                                                                :Elevation of Derrick Floor
 EGL.F        669.000                                                                :Elevation of Ground Level
 EKB.F        684.000                                                                :Elevation of Kelly Bushing
 EPD.F        669.000                                                                :Elevation of Permnaent Datum
 LMF.         Kelly Bushing                                                          :Logging Measured From
 PDAT.        Ground Level                                                           :Permanent Datum
 TDD.F        5320.000                                                               :Total Depth Driller
 TDL.F        5322.000                                                               :Total Depth Logger
 BS.IN        12.25                                                                  :Bit Size
 R1.                                                                                 :REMARK 1
 R2.                                                                                 :REMARK 2
 R3.                                                                                 :REMARK 3
 R4.                                                                                 :REMARK 4
 R5.                                                                                 :REMARK 5
 R6.                                                                                 :REMARK 6
 R7.                                                                                 :REMARK 7
 R8.                                                                                 :REMARK 8
 R9.                                                                                 :REMARK 9
 R10.                                                                                :REMARK 10
 DCS_CENTER.  Denver                                                                 :Schlumberger DCS Center
 LOG_ANALYST. Becker                                                                 :Log Analyst Name
 ENG.         DARREN HUNTER                                                          :Field Engineer Name
 GF_BASELINE. GF45LNX                                                                :GeoFrame Baseline
~Curve
#MNEM.UNIT                                                                           :DESCRIPTION
#----.----                                                                           :--------------------------------
 DEPT.F                                                                              :Depth Index
 RLA1.OHMM                                                                           : 1 Apparent Resistivity from Computed Focusing Mode 1                                        
 RLA2.OHMM                                                                           : 2 Apparent Resistivity from Computed Focusing Mode 2                                        
 RLA3.OHMM                                                                           : 3 Apparent Resistivity from Computed Focusing Mode 3                                        
 RLA4.OHMM                                                                           : 4 Apparent Resistivity from Computed Focusing Mode 4                                        
 RLA5.OHMM                                                                           : 5 Apparent Resistivity from Computed Focusing Mode 5                                        
 BS.IN                                                                               : 6 Bit Size                                                                                  
 HCAL.IN                                                                             : 7 HRCC Caliper Calibrated                                                                   
 HDAR.IN                                                                             : 8 Hole Diameter from Area                                                                   
 HD1_PPC1.IN                                                                         : 9 PPC1 Hole Diameter 1                                                                      
 HD2_PPC1.IN                                                                         :10 PPC1 Hole Diameter 2                                                                      
 TENS.LBS                                                                            :11 Cable Tension                                                                             
 GR_EDTC.GAPI                                                                        :12 Gamma Ray                                                                                 
 NPHI.CFCF                                                                           :13 Thermal Neutron Porosity (original Ratio Method) in Selected Lithology                    
 NPOR.CFCF                                                                           :14 Enhanced Thermal Neutron Porosity in Selected Lithology                                   
 PEFZ.                                                                               :15 HRDD Standard Resolution Formation Photoelectric Factor                                   
 RHOZ.G/C3                                                                           :16 HRDD Standard Resolution Formation Density                                                
 DPHZ.CFCF                                                                           :17 Standard Resolution Density Porosity                                                      
 SPHI.CFCF                                                                           :18 Sonic Porosity                                                                            
 VCL_HILT.CFCF                                                                       :19 Volume of Clay type Material relative to Total Volume                                     
 DTCO.US/FT                                                                          :20 Delta-T Compressional                                                                     
 DTSM_FAST.US/FT                                                                     :21 Shear Slowness of Fast Shear Waves                                                        
 DTST.US/FT                                                                          :22 Delta-T Stoneley - Monopole Stoneley                                                      
 PR_FAST.                                                                            :23 Poisson Ratio of Fast Shear Waves                                                         
 VPVS_FAST.                                                                          :24 Vp/Vs Ration of fast shear waves                                                          
 MAXXENE_OVERALL.                                                                    :25 Overall estimate of maximum cross energy                                                  
 MINXENE_OVERALL.                                                                    :26 Overall estimate of minimum cross energy                                                  
 FLAG.                                                                               :27 General Indicator Flag(Bad Borehole)                                                                    
~Ascii   DEPT          RLA1          RLA2          RLA3          RLA4          RLA5            BS          HCAL          HDAR      HD1_PPC1      HD2_PPC1          TENS       GR_EDTC          NPHI          NPOR          PEFZ          RHOZ          DPHZ          SPHI      VCL_HILT          DTCO     DTSM_FAST          DTST       PR_FAST     VPVS_FAST  MAXXENE_OVER  MINXENE_OVER          FLAG
# ...
    2635.50000       8.62410       8.66270       8.83010       9.03279       9.34491      12.25000      12.76538      12.75988      12.82458      12.69519    2219.55566      82.66615       0.23483       0.24277       3.72738       2.64387       0.03867       0.18603      61.00584      76.91582     143.62187     214.22752       0.29806       1.86439       1.01090       0.13343       0.00000
    2635.00000       8.75874       8.88338       9.04177       9.24948       9.49421      12.25000      12.78739      12.76681      12.84241      12.69121    2201.66675      85.52674       0.26656       0.23921       3.78308       2.63108       0.04615       0.18886      61.11558      77.30563     144.87021     214.27847       0.30241       1.87897       1.06218       0.14441       0.00000
    2634.50000       9.25923       9.35817       9.49645       9.67668       9.93570      12.25000      12.77639      12.76012      12.83691      12.68332    2207.44434      87.23459       0.27100       0.28117       3.73904       2.63168       0.04580       0.19183      56.38557      77.71453     145.37303     214.30179       0.30069       1.87315       1.10431       0.15676       0.00000
    2634.00000       8.92354       8.98128       9.08312       9.16959       9.44207      12.25000      12.78739      12.75722      12.83222      12.68223    2176.55566      88.65299       0.28106       0.26433       3.66559       2.62800       0.04796       0.19627      62.04435      78.32684     145.57890     214.35120       0.29437       1.85244       1.13502       0.17279       0.00000
    2633.50000       8.20302       8.16926       8.27403       8.27217       8.54439      12.25000      12.80939      12.81005      12.94880      12.67130    2197.00000      89.75309       0.28536       0.30106       3.56407       2.63087       0.04628       0.20305      68.08403      79.25937     146.59592     214.47108       0.29329       1.84903       1.17263       0.19326       0.00000
    2633.00000       8.11432       8.07891       8.13531       8.10921       8.35061      12.25000      12.85339      12.84445      12.98179      12.70712    2208.85718      90.09292       0.28584       0.31035       3.54604       2.62987       0.04686       0.21191      72.50061      80.47972     147.93275     214.69183       0.29081       1.84124       1.22516       0.21385       0.00000
    2632.50000       7.90959       7.90892       7.89085       7.84224       8.07977      12.25000      12.84239      12.85342      13.00996      12.69688    2211.42847      94.92915       0.29549       0.28609       3.59183       2.63280       0.04514       0.21388      68.28217      80.75101     148.54515     214.82707       0.29134       1.84287       1.27051       0.23289       0.00000
    2632.00000       8.48853       8.58724       8.50648       8.48126       8.67632      12.25000      12.80939      12.83433      12.99737      12.67130    2224.28564     100.64272       0.28250       0.28127       3.67779       2.62991       0.04684       0.21025      67.22799      80.25135     148.15700     214.79094       0.29323       1.84882       1.29808       0.24999       0.00000
    2631.50000       9.52625       9.35671       9.21795       9.21830       9.46479      12.25000      12.83139      12.77232      12.87995      12.66469    2216.28564     100.40046       0.28491       0.26094       3.71237       2.63139       0.04597       0.20428      69.91676      79.42924     146.94661     214.68144       0.29411       1.85162       1.34089       0.26034       0.00000
    2631.00000       9.47045       9.17359       9.05823       9.08428       9.32483      12.25000      12.80939      12.74963      12.83979      12.65947    2226.71436      98.33984       0.28525       0.28040       3.66056       2.64061       0.04058       0.19941      73.39595      78.75891     145.53595     214.59929       0.29185       1.84449       1.42891       0.26456       0.00000
    2630.50000       9.02182       8.78681       8.78179       8.82394       9.06974      12.25000      12.79839      12.74549      12.83162      12.65936    2214.42847     102.42474       0.27010       0.25849       3.60628       2.64251       0.03947       0.19282      70.41924      77.85194     144.05505     214.45891       0.29563       1.85649       1.53228       0.27012       0.00000
    2630.00000       8.89310       8.61502       8.64630       8.70308       8.99547      12.25000      12.74338      12.70942      12.80686      12.61199    2213.00000     100.52142       0.26150       0.27157       3.57895       2.62976       0.04692       0.18220      67.20337      76.38862     142.05696     214.18069       0.29593       1.85745       1.60943       0.28301       0.00000
    2629.50000      10.29302      10.32895      10.57744      10.79132      11.13845      12.25000      12.74338      12.67092      12.75373      12.58810    2199.00000     101.28367       0.25441       0.26634       3.47935       2.62510       0.04965       0.17170      72.12290      74.94325     140.15805     213.96515       0.29885       1.86702       1.65840       0.30186       0.00000
    2629.00000      11.17685      11.21480      11.41467      11.70297      12.01383      12.25000      12.74338      12.66552      12.74293      12.58810    2199.00000     100.40852       0.28004       0.24593       3.34710       2.62897       0.04739       0.16462      78.71775      73.96793     139.07678     213.92934       0.30209       1.87789       1.69254       0.32037       0.00000
    2628.50000      11.18790      11.00145      11.09279      11.32084      11.61215      12.25000      12.76538      12.67149      12.74293      12.60005    2227.00000     108.81098       0.27440       0.25863       3.25538       2.63178       0.04574       0.16390      80.56268      73.86925     138.57993     214.02513       0.30154       1.87602       1.71418       0.33808       0.00000
    2628.00000      11.15490      11.00742      11.09451      11.27956      11.49838      12.25000      12.75438      12.69338      12.77476      12.61199    2203.00000     111.37277       0.27368       0.24905       3.24074       2.62971       0.04695       0.16760      81.61686      74.37807     138.24663     214.18265       0.29635       1.85883       1.72609       0.36034       0.00000
    2627.50000      10.97594      10.85269      10.88916      11.01047      11.10440      12.25000      12.76538      12.69956      12.79951      12.59962    2218.00000     107.89606       0.24990       0.21333       3.23337       2.63087       0.04627       0.17134      81.86407      74.89298     138.01483     214.30196       0.29080       1.84122       1.74611       0.38125       0.00000
    2627.00000      10.35303      10.39701      10.49517      10.51425      10.66958      12.25000      12.76538      12.74628      12.89251      12.60004    2186.00000     105.70747       0.24013       0.26068       3.22895       2.62962       0.04701       0.17309      85.84364      75.13474     138.16904     214.34871       0.28940       1.83690       1.79292       0.39432       0.00000
    2626.50000      10.47437      10.65674      10.73009      10.72272      10.78592      12.25000      12.76538      12.71467      12.81736      12.61199    2182.00000     100.21793       0.24252       0.24796       3.26525       2.61521       0.05543       0.17418      82.32970      75.28470     138.77295     214.38142       0.29139       1.84303       1.80308       0.41028       0.00000
    2626.00000      10.58020      10.70536      10.83253      10.81489      10.82080      12.25000      12.77639      12.70273      12.81736      12.58810    2188.00000     104.94184       0.24778       0.21742       3.31464       2.59418       0.06773       0.17663      78.50081      75.62256     139.52785     214.43791       0.29222       1.84565       1.77452       0.43133       0.00000
    2625.50000      10.40950      10.37758      10.42577      10.41806      10.44109      12.25000      12.78739      12.71992      12.82785      12.61199    2159.00000     105.15173       0.27765       0.27236       3.30167       2.59041       0.06994       0.18049      72.14922      76.15358     140.22043     214.51707       0.29080       1.84120       1.72094       0.44955       0.00000
