~VERSION
 VERS.        2.00                                                                   :CWLS LOG ASCII STANDARD
 WRAP.        NO                                                                     :NO WRAP PERFORMED
 PROD.        Schlumberger                                                           :LAS Producer
 CREA.        Thu Dec  9 10:37:48 2010                                               :LAS Creation Date and time
~Well
#MNEM.UNIT    VALUE                                                                   :DESCRIPTION
#----.----    ---------------                                                        :-------------------
 STRT.F       5250.000                                                               :START DEPTH
 STOP.F       350.000                                                                :STOP  DEPTH
 STEP.F       -0.500                                                                 :DEPTH STEP
 NULL.        -999.250                                                               :NULL VALUE
 COMP.        ADM COMPANY                                                            :COMPANY NAME
 WELL.        VERIFICATION WELL 1                                                    :WELL NAME
 FLD.         WILDCAT                                                                :FIELD NAME
 API.         121152346000                                                           :API NUMBER
 CNTY.        MACON                                                                  :COUNTY
 STAT.        ILLINOIS                                                               :STATE
 CTRY.        US                                                                     :COUNTRY
 LOC.         LAT 39* 52' 47.5" N                                                    :WELL SURFACE LOCATION LINE 1
 LOC2.        LONG 88* 53' 36.9"                                                     :WELL SURFACE LOCATION LINE 2
 LOC3.                                                                               :WELL SURFACE LOCATION LINE 3
 SECT.        5                                                                      :SECTION
 TOWN.        17 NORTH                                                               :TOWNSHIP
 RANG.        3 EAST                                                                 :RANGE
 LATI.                                                                               :Latitude
 LONG.                                                                               :Longitude
 DATE.        10/24/2010                                                             :LOGGING DATE
 SRVC.        Schlumberger                                                           :SERVICE COMPANY
~Parameter
#MNEM.UNIT    VALUE                                                                  :DESCRIPTION
#----.----    ---------------                                                        :-------------------
 APD.F        15.000                                                                 :Elevation of depth reference above permanent datum
 EDF.F        683.000                                                                :Elevation of Derrick Floor
 EGL.F        669.000                                                                :Elevation of Ground Level
 EKB.F        684.000                                                                :Elevation of Kelly Bushing
 EPD.F        669.000                                                                :Elevation of Permnaent Datum
 LMF.         Kelly Bushing                                                          :Logging Measured From
 PDAT.        Ground Level                                                           :Permanent Datum
 TDD.F        5320.000                                                               :Total Depth Driller
 TDL.F        5322.000                                                               :Total Depth Logger
 BS.IN        12.25                                                                  :Bit Size
 R1.                                                                                 :REMARK 1
 R2.                                                                                 :REMARK 2
 R3.                                                                                 :REMARK 3
 R4.                                                                                 :REMARK 4
 R5.                                                                                 :REMARK 5
 R6.                                                                                 :REMARK 6
 R7.                                                                                 :REMARK 7
 R8.                                                                                 :REMARK 8
 R9.                                                                                 :REMARK 9
 R10.                                                                                :REMARK 10
 DCS_CENTER.  Denver                                                                 :Schlumberger DCS Center
 LOG_ANALYST. Becker                                                                 :Log Analyst Name
 ENG.         DARREN HUNTER                                                          :Field Engineer Name
 GF_BASELINE. GF45LNX                                                                :GeoFrame Baseline
~Curve
#MNEM.UNIT                                                                           :DESCRIPTION
#----.----                                                                           :--------------------------------
 DEPT.F                                                                              :Depth Index
 RLA1.OHMM                                                                           : 1 Apparent Resistivity from Computed Focusing Mode 1                                        
 RLA2.OHMM                                                                           : 2 Apparent Resistivity from Computed Focusing Mode 2                                        
 RLA3.OHMM                                                                           : 3 Apparent Resistivity from Computed Focusing Mode 3                                        
 RLA4.OHMM                                                                           : 4 Apparent Resistivity from Computed Focusing Mode 4                                        
 RLA5.OHMM                                                                           : 5 Apparent Resistivity from Computed Focusing Mode 5                                        
 BS.IN                                                                               : 6 Bit Size                                                                                  
 HCAL.IN                                                                             : 7 HRCC Caliper Calibrated                                                                   
 HDAR.IN                                                                             : 8 Hole Diameter from Area                                                                   
 HD1_PPC1.IN                                                                         : 9 PPC1 Hole Diameter 1                                                                      
 HD2_PPC1.IN                                                                         :10 PPC1 Hole Diameter 2                                                                      
 TENS.LBS                                                                            :11 Cable Tension                                                                             
 GR_EDTC.GAPI                                                                        :12 Gamma Ray                                                                                 
 NPHI.CFCF                                                                           :13 Thermal Neutron Porosity (original Ratio Method) in Selected Lithology                    
 NPOR.CFCF                                                                           :14 Enhanced Thermal Neutron Porosity in Selected Lithology                                   
 PEFZ.                                                                               :15 HRDD Standard Resolution Formation Photoelectric Factor                                   
 RHOZ.G/C3                                                                           :16 HRDD Standard Resolution Formation Density                                                
 DPHZ.CFCF                                                                           :17 Standard Resolution Density Porosity                                                      
 SPHI.CFCF                                                                           :18 Sonic Porosity                                                                            
 VCL_HILT.CFCF                                                                       :19 Volume of Clay type Material relative to Total Volume                                     
 DTCO.US/FT                                                                          :20 Delta-T Compressional                                                                     
 DTSM_FAST.US/FT                                                                     :21 Shear Slowness of Fast Shear Waves                                                        
 DTST.US/FT                                                                          :22 Delta-T Stoneley - Monopole Stoneley                                                      
 PR_FAST.                                                                            :23 Poisson Ratio of Fast Shear Waves                                                         
 VPVS_FAST.                                                                          :24 Vp/Vs Ration of fast shear waves                                                          
 MAXXENE_OVERALL.                                                                    :25 Overall estimate of maximum cross energy                                                  
 MINXENE_OVERALL.                                                                    :26 Overall estimate of minimum cross energy                                                  
 FLAG.                                                                               :27 General Indicator Flag(Bad Borehole)                                                                    
~Ascii   DEPT          RLA1          RLA2          RLA3          RLA4          RLA5            BS          HCAL          HDAR      HD1_PPC1      HD2_PPC1          TENS       GR_EDTC          NPHI          NPOR          PEFZ          RHOZ          DPHZ          SPHI      VCL_HILT          DTCO     DTSM_FAST          DTST       PR_FAST     VPVS_FAST  MAXXENE_OVER  MINXENE_OVER          FLAG
# ...
    4924.50000      49.22784      57.19684      48.09428      45.18487      45.71564      12.25000      12.30334      12.20100      12.22265      12.17936    2624.00000      19.93317       0.04950       0.06017       2.59863       2.59010       0.07012       0.01797       4.51526      53.77494      89.28079     206.16948       0.21580       1.66111       1.32097       0.27272       0.00000
    4924.00000      48.28789      54.71658      46.23055      42.49026      42.85274      12.25000      12.30334      12.17806      12.20085      12.15526    2645.00000      20.48188       0.05091       0.08381       2.61259       2.62762       0.04818       0.02058       4.41793      54.13434      89.50993     206.35811       0.21139       1.65301       1.37193       0.27845       0.00000
    4923.50000      53.40126      72.92329      60.76597      54.68441      54.92275      12.25000      12.31434      12.23403      12.27664      12.19143    2630.00000      19.93317       0.06216       0.06624       2.63204       2.68076       0.01710       0.01807       4.54745      53.78845      89.70081     206.37662       0.21969       1.66846       1.42792       0.28129       0.00000
    4923.00000      60.44229     129.52591     106.47138      98.40720      99.42695      12.25000      12.32534      12.27034      12.37338      12.16731    2624.00000      19.75357       0.05810       0.07639       2.64034       2.71426      -0.00249       0.01158       5.07454      52.89481      89.87390     206.26584       0.23463       1.69828       1.54579       0.28365       0.00000
    4922.50000      61.84057     149.21854     122.52702     114.49932     112.10230      12.25000      12.30334      12.29622      12.43805      12.15439    2657.00000      24.50408       0.06508       0.07056       2.71142       2.73014      -0.01178       0.00675       5.86904      52.22921      90.00968     206.07141       0.24688       1.72491       1.74505       0.28686       0.00000
    4922.00000      60.95727     129.96831     110.28421     106.17105     104.11005      12.25000      12.30334      12.29929      12.39509      12.20349    2663.00000      26.88183       0.06611       0.08274       2.76160       2.73400      -0.01404       0.00549       8.15649      52.05607      90.16072     205.99902       0.24886       1.72942       1.94680       0.29273       0.00000
    4921.50000      58.87931     106.99094      95.30070      93.73174      91.04526      12.25000      12.28134      12.24469      12.29796      12.19143    2710.00000      30.53990       0.07019       0.08811       2.78814       2.73316      -0.01354       0.00665      12.02184      52.21524      90.47617     205.99564       0.25049       1.73318       2.14296       0.29719       0.00000
    4921.00000      54.65903      82.42547      77.09010      79.60462      76.52659      12.25000      12.23733      12.21974      12.33339      12.10608    2688.00000      30.72780       0.06995       0.09535       2.70980       2.70506       0.00289       0.01174      14.03963      52.91616      91.04153     206.09052       0.24354       1.71745       2.38416       0.29470       0.00000
    4920.50000      47.10533      53.43935      53.78622      53.17973      50.30159      12.25000      12.21533      12.17608      12.23309      12.11907    2696.00000      34.93459       0.07362       0.08357       2.55993       2.65974       0.02939       0.02231      15.26613      54.37171      92.13269     206.39868       0.23078       1.69032       2.67913       0.28980       0.00000
    4920.00000      37.66851      33.41580      33.01461      31.96632      30.36015      12.25000      12.18233      12.19379      12.26851      12.11907    2739.00000      34.49533       0.07114       0.07770       2.35944       2.59745       0.06582       0.03853      12.95147      56.60590      94.10959     207.08911       0.21398       1.65775       2.97092       0.28657       0.00000
    4919.50000      25.53842      23.38507      23.51538      22.50836      21.40431      12.25000      12.17132      12.22057      12.29796      12.14319    2676.00000      30.28855       0.07566       0.07074       2.13285       2.53378       0.10305       0.05797       9.18233      59.28287      96.87083     208.06598       0.20047       1.63380       3.22225       0.27980       0.00000
    4919.00000      18.05491      17.04520      16.11361      15.49909      14.42451      12.25000      12.13832      12.17086      12.22265      12.11907    2672.00000      26.08176       0.07296       0.08492       1.96684       2.47062       0.13999       0.07745       4.54091      61.96437      99.71487     209.19211       0.18769       1.61275       3.43023       0.26978       0.00000
    4918.50000      14.65090      13.60004      12.78277      12.32417      11.24617      12.25000      12.14932      12.09668      12.14677      12.04659    2696.00000      23.77383       0.07472       0.09012       1.86807       2.44193       0.15676       0.09345       2.46313      64.16862     101.88263     210.50122       0.17396       1.59171       3.54377       0.26306       0.00000
    4918.00000      12.32476      11.42025      10.74716      10.30841       9.38032      12.25000      12.10532      12.05275      12.07100      12.03451    2680.00000      23.02318       0.07288       0.09683       1.85014       2.44287       0.15622       0.10240       2.20784      65.40092     102.97910     211.78711       0.16575       1.57983       3.61803       0.25625       0.00000
    4917.50000      12.57848      11.67867      10.89358      10.54064       9.43774      12.25000      12.10532      12.05868      12.07561      12.04175    2627.19995      17.35533       0.06871       0.06815       1.88025       2.46016       0.14610       0.09727       3.33531      64.69474     102.74448     212.59395       0.17561       1.59416       3.66318       0.24506       0.00000
    4917.00000      15.36748      14.32779      13.48991      13.05202      11.61189      12.25000      12.08331      12.04996      12.06057      12.03934    2668.60010      18.14513       0.06654       0.06975       1.95866       2.48317       0.13265       0.07976       2.98392      62.28295     101.20357     211.94518       0.19695       1.62785       3.54214       0.23104       0.00000
    4916.50000      19.21928      18.17274      17.66796      16.82325      15.09411      12.25000      12.12732      12.02623      12.05183      12.00064    2687.80005      23.72037       0.05812       0.07051       2.06786       2.50725       0.11857       0.06489       1.78552      60.23556      99.12750     210.88504       0.20520       1.64197       3.18210       0.22275       0.00000
    4916.00000      23.10985      22.02518      21.50331      20.60344      18.52689      12.25000      12.14932      12.03444      12.04201      12.02686    2657.39990      23.38493       0.05854       0.07077       2.18743       2.52824       0.10630       0.05709       3.06064      59.16100      97.47943     210.13647       0.20685       1.64487       2.70982       0.22290       0.00000
    4915.50000      27.68947      25.83678      26.16809      25.20192      22.97545      12.25000      12.14932      12.04752      12.06053      12.03451    2655.00000      20.51916       0.06708       0.08693       2.29385       2.53493       0.10238       0.04894       3.23634      58.03930      96.54094     209.87982       0.21560       1.66074       2.31517       0.22606       0.00000
    4915.00000      25.19844      22.43341      22.57982      21.86679      20.47013      12.25000      12.14932      12.02116      12.05082      11.99150    2651.44434      19.38109       0.07745       0.09465       2.37242       2.53952       0.09970       0.04634       8.66004      57.68126      96.14032     209.76462       0.21820       1.66562       2.04816       0.23231       0.00000
    4914.50000      28.43160      24.99463      24.40886      24.26522      23.03277      12.25000      12.14932      12.04663      12.06010      12.03315    2660.33325      18.38528       0.07898       0.09254       2.38546       2.55237       0.09218       0.04631       7.38492      57.67694      95.97298     209.62558       0.21778       1.66484       1.89099       0.23997       0.00000
