~VERSION
 VERS.        2.00                                                                   :CWLS LOG ASCII STANDARD
 WRAP.        NO                                                                     :NO WRAP PERFORMED
 PROD.        Schlumberger                                                           :LAS Producer
 CREA.        Thu Dec  9 10:37:48 2010                                               :LAS Creation Date and time
~Well
#MNEM.UNIT    VALUE                                                                   :DESCRIPTION
#----.----    ---------------                                                        :-------------------
 STRT.F       5250.000                                                               :START DEPTH
 STOP.F       350.000                                                                :STOP  DEPTH
 STEP.F       -0.500                                                                 :DEPTH STEP
 NULL.        -999.250                                                               :NULL VALUE
 COMP.        ADM COMPANY                                                            :COMPANY NAME
 WELL.        VERIFICATION WELL 1                                                    :WELL NAME
 FLD.         WILDCAT                                                                :FIELD NAME
 API.         121152346000                                                           :API NUMBER
 CNTY.        MACON                                                                  :COUNTY
 STAT.        ILLINOIS                                                               :STATE
 CTRY.        US                                                                     :COUNTRY
 LOC.         LAT 39* 52' 47.5" N                                                    :WELL SURFACE LOCATION LINE 1
 LOC2.        LONG 88* 53' 36.9"                                                     :WELL SURFACE LOCATION LINE 2
 LOC3.                                                                               :WELL SURFACE LOCATION LINE 3
 SECT.        5                                                                      :SECTION
 TOWN.        17 NORTH                                                               :TOWNSHIP
 RANG.        3 EAST                                                                 :RANGE
 LATI.                                                                               :Latitude
 LONG.                                                                               :Longitude
 DATE.        10/24/2010                                                             :LOGGING DATE
 SRVC.        Schlumberger                                                           :SERVICE COMPANY
~Parameter
#MNEM.UNIT    VALUE                                                                  :DESCRIPTION
#----.----    ---------------                                                        :-------------------
 APD.F        15.000                                                                 :Elevation of depth reference above permanent datum
 EDF.F        683.000                                                                :Elevation of Derrick Floor
 EGL.F        669.000                                                                :Elevation of Ground Level
 EKB.F        684.000                                                                :Elevation of Kelly Bushing
 EPD.F        669.000                                                                :Elevation of Permnaent Datum
 LMF.         Kelly Bushing                                                          :Logging Measured From
 PDAT.        Ground Level                                                           :Permanent Datum
 TDD.F        5320.000                                                               :Total Depth Driller
 TDL.F        5322.000                                                               :Total Depth Logger
 BS.IN        12.25                                                                  :Bit Size
 R1.                                                                                 :REMARK 1
 R2.                                                                                 :REMARK 2
 R3.                                                                                 :REMARK 3
 R4.                                                                                 :REMARK 4
 R5.                                                                                 :REMARK 5
 R6.                                                                                 :REMARK 6
 R7.                                                                                 :REMARK 7
 R8.                                                                                 :REMARK 8
 R9.                                                                                 :REMARK 9
 R10.                                                                                :REMARK 10
 DCS_CENTER.  Denver                                                                 :Schlumberger DCS Center
 LOG_ANALYST. Becker                                                                 :Log Analyst Name
 ENG.         DARREN HUNTER                                                          :Field Engineer Name
 GF_BASELINE. GF45LNX                                                                :GeoFrame Baseline
~Curve
#MNEM.UNIT                                                                           :DESCRIPTION
#----.----                                                                           :--------------------------------
 DEPT.F                                                                              :Depth Index
 RLA1.OHMM                                                                           : 1 Apparent Resistivity from Computed Focusing Mode 1                                        
 RLA2.OHMM                                                                           : 2 Apparent Resistivity from Computed Focusing Mode 2                                        
 RLA3.OHMM                                                                           : 3 Apparent Resistivity from Computed Focusing Mode 3                                        
 RLA4.OHMM                                                                           : 4 Apparent Resistivity from Computed Focusing Mode 4                                        
 RLA5.OHMM                                                                           : 5 Apparent Resistivity from Computed Focusing Mode 5                                        
 BS.IN                                                                               : 6 Bit Size                                                                                  
 HCAL.IN                                                                             : 7 HRCC Caliper Calibrated                                                                   
 HDAR.IN                                                                             : 8 Hole Diameter from Area                                                                   
 HD1_PPC1.IN                                                                         : 9 PPC1 Hole Diameter 1                                                                      
 HD2_PPC1.IN                                                                         :10 PPC1 Hole Diameter 2                                                                      
 TENS.LBS                                                                            :11 Cable Tension                                                                             
 GR_EDTC.GAPI                                                                        :12 Gamma Ray                                                                                 
 NPHI.CFCF                                                                           :13 Thermal Neutron Porosity (original Ratio Method) in Selected Lithology                    
 NPOR.CFCF                                                                           :14 Enhanced Thermal Neutron Porosity in Selected Lithology                                   
 PEFZ.                                                                               :15 HRDD Standard Resolution Formation Photoelectric Factor                                   
 RHOZ.G/C3                                                                           :16 HRDD Standard Resolution Formation Density                                                
 DPHZ.CFCF                                                                           :17 Standard Resolution Density Porosity                                                      
 SPHI.CFCF                                                                           :18 Sonic Porosity                                                                            
 VCL_HILT.CFCF                                                                       :19 Volume of Clay type Material relative to Total Volume                                     
 DTCO.US/FT                                                                          :20 Delta-T Compressional                                                                     
 DTSM_FAST.US/FT                                                                     :21 Shear Slowness of Fast Shear Waves                                                        
 DTST.US/FT                                                                          :22 Delta-T Stoneley - Monopole Stoneley                                                      
 PR_FAST.                                                                            :23 Poisson Ratio of Fast Shear Waves                                                         
 VPVS_FAST.                                                                          :24 Vp/Vs Ration of fast shear waves                                                          
 MAXXENE_OVERALL.                                                                    :25 Overall estimate of maximum cross energy                                                  
 MINXENE_OVERALL.                                                                    :26 Overall estimate of minimum cross energy                                                  
 FLAG.                                                                               :27 General Indicator Flag(Bad Borehole)                                                                    
~Ascii   DEPT          RLA1          RLA2          RLA3          RLA4          RLA5            BS          HCAL          HDAR      HD1_PPC1      HD2_PPC1          TENS       GR_EDTC          NPHI          NPOR          PEFZ          RHOZ          DPHZ          SPHI      VCL_HILT          DTCO     DTSM_FAST          DTST       PR_FAST     VPVS_FAST  MAXXENE_OVER  MINXENE_OVER          FLAG
# ...
    3948.00000      57.98741     156.58246     159.75114     155.05391     151.54135      12.25000      12.34734      12.25163      12.34809      12.15516    2406.81812      19.33997       0.13953       0.13361       3.09801       2.71963      -0.00563       0.00122       0.12377      51.46768      93.61435     208.45547       0.28324       1.81843       2.49112       0.21181       0.00000
    3947.50000      57.27092     159.05757     155.97044     155.58789     153.38928      12.25000      12.32534      12.23934      12.32201      12.15667    2395.45459      15.95387       0.14675       0.13874       3.17191       2.68365       0.01541       0.00135       0.00000      51.48599      93.65499     208.51173       0.28299       1.81771       2.44288       0.21570       0.00000
    3947.00000      57.43844     150.65297     146.05775     147.75854     144.20465      12.25000      12.32534      12.24834      12.31729      12.17939    2440.00000      16.92730       0.15281       0.15705       3.17392       2.67007       0.02335       0.00355       0.00000      51.78829      93.84415     208.67305       0.28113       1.81231       2.37989       0.21201       0.00000
    3946.50000      56.66637     145.34808     136.52481     131.08031     129.53404      12.25000      12.39135      12.23454      12.28750      12.18157    2440.78784      18.44807       0.15951       0.17219       3.15100       2.68388       0.01527       0.00494       0.00000      51.98058      94.09399     208.82347       0.28028       1.80986       2.35079       0.20377       0.00000
    3946.00000      58.85654     175.85666     163.56670     160.04057     157.96649      12.25000      12.38035      12.28014      12.30861      12.25167    2466.00000      21.71655       0.14276       0.14249       3.09986       2.71934      -0.00546       0.00440       1.47754      51.90533      94.20258     208.89542       0.28310       1.81802       2.35086       0.19162       0.00000
    3945.50000      59.10706     204.74339     197.81564     195.99176     194.32396      12.25000      12.39135      12.32068      12.34179      12.29957    2432.72803      22.51870       0.13285       0.11837       3.11617       2.73634      -0.01540       0.00135       2.88312      51.48553      93.94777     208.87573       0.28574       1.82582       2.31660       0.17903       0.00000
    3945.00000      59.00633     209.35342     200.21483     197.58580     196.32973      12.25000      12.43535      12.34515      12.40588      12.28442    2420.06177      23.53790       0.13110       0.13049       3.16751       2.73444      -0.01429      -0.00159       2.55916      51.08050      93.50239     208.69551       0.28676       1.82888       2.25937       0.17004       0.00000
    3944.50000      59.03109     224.08690     216.57881     214.75182     214.28479      12.25000      12.42435      12.31375      12.42337      12.20413    2444.17822      22.15269       0.12774       0.12808       3.25167       2.71789      -0.00461      -0.00288       2.91525      50.90325      93.10282     208.31827       0.28722       1.83027       2.23829       0.16632       0.00000
    3944.00000      59.93370     223.19342     212.34167     216.35851     210.80565      12.25000      12.43535      12.30262      12.37292      12.23232    2415.00000      20.81445       0.11723       0.10916       3.27481       2.71681      -0.00399      -0.00345       7.45185      50.82461      92.79990     207.88409       0.28482       1.82310       2.23304       0.16707       0.00000
    3943.50000      60.33525     216.37077     205.58757     208.91946     202.73972      12.25000      12.43535      12.33270      12.37292      12.29248    2413.33301      20.14082       0.09949       0.09519       3.22489       2.73040      -0.01193      -0.00365       8.47860      50.79764      92.64861     207.60715       0.28554       1.82522       2.19645       0.16987       0.00000
    3943.00000      60.63234     217.20734     203.43390     201.66768     198.48689      12.25000      12.43535      12.35817      12.38047      12.33587    2401.99609      20.11751       0.10253       0.11089       3.14389       2.74420      -0.02000      -0.00359      10.41128      50.80551      92.61673     207.55869       0.28402       1.82073       2.13434       0.17367       0.00000
    3942.50000      60.63480     215.12921     193.51158     189.79471     186.13927      12.25000      12.43535      12.38438      12.43464      12.33412    2431.17578      20.00781       0.10132       0.11536       3.10772       2.74256      -0.01904      -0.00339       4.39524      50.83298      92.71063     207.62494       0.28529       1.82449       2.10445       0.18013       0.00000
    3942.00000      60.85695     230.36853     201.92239     197.36458     193.74803      12.25000      12.49036      12.37941      12.43369      12.32513    2422.86401      20.51393       0.10656       0.11005       3.12357       2.74531      -0.02065      -0.00300       2.28687      50.88734      92.88924     207.73505       0.28534       1.82464       2.15460       0.19940       0.00000
    3941.50000      59.75938     192.71930     170.92981     173.07596     165.85117      12.25000      12.47935      12.41338      12.49938      12.32739    2411.64136      20.70805       0.10961       0.12369       3.13834       2.75837      -0.02829      -0.00205       0.00000      51.01799      93.15489     207.85197       0.28549       1.82506       2.21762       0.21515       0.00000
    3941.00000      55.20321     150.66838     134.64310     130.61752     128.88818      12.25000      12.56736      12.37372      12.45024      12.29720    2433.68530      20.71755       0.11282       0.11512       3.13119       2.75804      -0.02809       0.00049       0.02297      51.36703      93.57643     207.98318       0.28416       1.82115       2.20554       0.21913       0.00000
    3940.50000      56.50058     138.90523     129.82991     133.64206     126.52816      12.25000      12.52336      12.41791      12.49736      12.33846    2418.80322      19.77229       0.12356       0.11361       3.17045       2.73329      -0.01362       0.00441       0.19866      51.90713      94.12521     208.17717       0.28133       1.81287       2.15558       0.22472       0.00000
    3940.00000      52.00773      95.48545      85.83204      86.05650      83.13803      12.25000      12.50136      12.41152      12.47799      12.34506    2431.82520      18.34407       0.13099       0.13912       3.21425       2.70052       0.00555       0.00910       0.00337      52.55304      94.75914     208.47861       0.27785       1.80298       2.11690       0.23068       0.00000
    3939.50000      52.59002      96.67303      89.06531      87.19347      83.28852      12.25000      12.45735      12.39542      12.46416      12.32668    2441.00000      17.55100       0.14177       0.13219       3.24880       2.69002       0.01169       0.01221       0.00000      52.98131      95.37840     208.87027       0.27723       1.80123       2.09323       0.24302       0.00000
    3939.00000      53.23048     112.56629     107.22568     105.20705     100.13094      12.25000      12.41335      12.37888      12.44806      12.30969    2447.58569      16.70976       0.13418       0.12786       3.23058       2.68630       0.01386       0.01161       0.00000      52.89842      95.76775     209.25261       0.28133       1.81287       2.08956       0.27229       0.00000
    3938.50000      56.89814     150.40913     145.80144     134.29286     131.37904      12.25000      12.43535      12.38082      12.42920      12.33243    2463.52905      17.85759       0.11757       0.11862       3.21998       2.68044       0.01728       0.00790       0.00000      52.38758      95.73958     209.48534       0.28697       1.82950       2.10140       0.31573       0.00000
    3938.00000      57.53395     165.37561     161.95261     157.96715     147.98155      12.25000      12.36934      12.34462      12.38021      12.30902    2453.41138      19.31487       0.11323       0.11789       3.23293       2.67289       0.02170       0.00442       2.80962      51.90877      95.40753     209.46217       0.28955       1.83735       2.09376       0.36611       0.00000
