~VERSION
 VERS.        2.00                                                                   :CWLS LOG ASCII STANDARD
 WRAP.        NO                                                                     :NO WRAP PERFORMED
 PROD.        Schlumberger                                                           :LAS Producer
 CREA.        Thu Dec  9 10:37:48 2010                                               :LAS Creation Date and time
~Well
#MNEM.UNIT    VALUE                                                                   :DESCRIPTION
#----.----    ---------------                                                        :-------------------
 STRT.F       5250.000                                                               :START DEPTH
 STOP.F       350.000                                                                :STOP  DEPTH
 STEP.F       -0.500                                                                 :DEPTH STEP
 NULL.        -999.250                                                               :NULL VALUE
 COMP.        ADM COMPANY                                                            :COMPANY NAME
 WELL.        VERIFICATION WELL 1                                                    :WELL NAME
 FLD.         WILDCAT                                                                :FIELD NAME
 API.         121152346000                                                           :API NUMBER
 CNTY.        MACON                                                                  :COUNTY
 STAT.        ILLINOIS                                                               :STATE
 CTRY.        US                                                                     :COUNTRY
 LOC.         LAT 39* 52' 47.5" N                                                    :WELL SURFACE LOCATION LINE 1
 LOC2.        LONG 88* 53' 36.9"                                                     :WELL SURFACE LOCATION LINE 2
 LOC3.                                                                               :WELL SURFACE LOCATION LINE 3
 SECT.        5                                                                      :SECTION
 TOWN.        17 NORTH                                                               :TOWNSHIP
 RANG.        3 EAST                                                                 :RANGE
 LATI.                                                                               :Latitude
 LONG.                                                                               :Longitude
 DATE.        10/24/2010                                                             :LOGGING DATE
 SRVC.        Schlumberger                                                           :SERVICE COMPANY
~Parameter
#MNEM.UNIT    VALUE                                                                  :DESCRIPTION
#----.----    ---------------                                                        :-------------------
 APD.F        15.000                                                                 :Elevation of depth reference above permanent datum
 EDF.F        683.000                                                                :Elevation of Derrick Floor
 EGL.F        669.000                                                                :Elevation of Ground Level
 EKB.F        684.000                                                                :Elevation of Kelly Bushing
 EPD.F        669.000                                                                :Elevation of Permnaent Datum
 LMF.         Kelly Bushing                                                          :Logging Measured From
 PDAT.        Ground Level                                                           :Permanent Datum
 TDD.F        5320.000                                                               :Total Depth Driller
 TDL.F        5322.000                                                               :Total Depth Logger
 BS.IN        12.25                                                                  :Bit Size
 R1.                                                                                 :REMARK 1
 R2.                                                                                 :REMARK 2
 R3.                                                                                 :REMARK 3
 R4.                                                                                 :REMARK 4
 R5.                                                                                 :REMARK 5
 R6.                                                                                 :REMARK 6
 R7.                                                                                 :REMARK 7
 R8.                                                                                 :REMARK 8
 R9.                                                                                 :REMARK 9
 R10.                                                                                :REMARK 10
 DCS_CENTER.  Denver                                                                 :Schlumberger DCS Center
 LOG_ANALYST. Becker                                                                 :Log Analyst Name
 ENG.         DARREN HUNTER                                                          :Field Engineer Name
 GF_BASELINE. GF45LNX                                                                :GeoFrame Baseline
~Curve
#MNEM.UNIT                                                                           :DESCRIPTION
#----.----                                                                           :--------------------------------
 DEPT.F                                                                              :Depth Index
 RLA1.OHMM                                                                           : 1 Apparent Resistivity from Computed Focusing Mode 1                                        
 RLA2.OHMM                                                                           : 2 Apparent Resistivity from Computed Focusing Mode 2                                        
 RLA3.OHMM                                                                           : 3 Apparent Resistivity from Computed Focusing Mode 3                                        
 RLA4.OHMM                                                                           : 4 Apparent Resistivity from Computed Focusing Mode 4                                        
 RLA5.OHMM                                                                           : 5 Apparent Resistivity from Computed Focusing Mode 5                                        
 BS.IN                                                                               : 6 Bit Size                                                                                  
 HCAL.IN                                                                             : 7 HRCC Caliper Calibrated                                                                   
 HDAR.IN                                                                             : 8 Hole Diameter from Area                                                                   
 HD1_PPC1.IN                                                                         : 9 PPC1 Hole Diameter 1                                                                      
 HD2_PPC1.IN                                                                         :10 PPC1 Hole Diameter 2                                                                      
 TENS.LBS                                                                            :11 Cable Tension                                                                             
 GR_EDTC.GAPI                                                                        :12 Gamma Ray                                                                                 
 NPHI.CFCF                                                                           :13 Thermal Neutron Porosity (original Ratio Method) in Selected Lithology                    
 NPOR.CFCF                                                                           :14 Enhanced Thermal Neutron Porosity in Selected Lithology                                   
 PEFZ.                                                                               :15 HRDD Standard Resolution Formation Photoelectric Factor                                   
 RHOZ.G/C3                                                                           :16 HRDD Standard Resolution Formation Density                                                
 DPHZ.CFCF                                                                           :17 Standard Resolution Density Porosity                                                      
 SPHI.CFCF                                                                           :18 Sonic Porosity                                                                            
 VCL_HILT.CFCF                                                                       :19 Volume of Clay type Material relative to Total Volume                                     
 DTCO.US/FT                                                                          :20 Delta-T Compressional                                                                     
 DTSM_FAST.US/FT                                                                     :21 Shear Slowness of Fast Shear Waves                                                        
 DTST.US/FT                                                                          :22 Delta-T Stoneley - Monopole Stoneley                                                      
 PR_FAST.                                                                            :23 Poisson Ratio of Fast Shear Waves                                                         
 VPVS_FAST.                                                                          :24 Vp/Vs Ration of fast shear waves                                                          
 MAXXENE_OVERALL.                                                                    :25 Overall estimate of maximum cross energy                                                  
 MINXENE_OVERALL.                                                                    :26 Overall estimate of minimum cross energy                                                  
 FLAG.                                                                               :27 General Indicator Flag(Bad Borehole)                                                                    
~Ascii   DEPT          RLA1          RLA2          RLA3          RLA4          RLA5            BS          HCAL          HDAR      HD1_PPC1      HD2_PPC1          TENS       GR_EDTC          NPHI          NPOR          PEFZ          RHOZ          DPHZ          SPHI      VCL_HILT          DTCO     DTSM_FAST          DTST       PR_FAST     VPVS_FAST  MAXXENE_OVER  MINXENE_OVER          FLAG
# ...
    3297.00000       6.17334       6.60680       7.29532       7.97224       9.07279      12.25000      12.19333      12.19764      12.24004      12.15524    2278.00000      15.04787       0.16470       0.15173       1.71172       2.32566       0.22476       0.18593       0.00000      76.90237     141.26913     231.39677       0.28920       1.83628       1.62788       0.67526       0.00000
    3296.50000       6.52769       7.13778       7.91030       8.66004       9.86874      12.25000      12.21533      12.16389      12.20785      12.11993    2276.00000      17.73957       0.15077       0.13463       1.72001       2.33854       0.21723       0.18440       0.00000      76.69138     141.23172     231.29956       0.29080       1.84121       1.61996       0.67933       0.00000
    3296.00000       6.80155       7.40332       8.19629       8.98100      10.16769      12.25000      12.19333      12.17569      12.23234      12.11903    2264.00000      19.20490       0.15863       0.15892       1.74894       2.34555       0.21313       0.18551       0.00000      76.84470     141.27928     231.28659       0.29003       1.83882       1.61077       0.67767       0.00000
    3295.50000       6.68667       7.30947       8.13264       8.96710      10.06981      12.25000      12.21533      12.20385      12.26454      12.14317    2284.00000      21.34737       0.15936       0.17181       1.75851       2.34306       0.21458       0.18924       0.00000      77.35844     141.31766     231.34732       0.28601       1.82664       1.59666       0.67266       0.00000
    3295.00000       6.61678       7.16534       7.96269       8.82628       9.87317      12.25000      12.21533      12.17396      12.24004      12.10789    2222.00000      20.06705       0.15542       0.14260       1.75830       2.32990       0.22228       0.19251       0.00000      77.80822     141.32254     231.48822       0.28265       1.81672       1.57951       0.68600       0.00000
    3294.50000       6.63980       7.03995       7.74949       8.61957       9.51939      12.25000      12.22633      12.16229      12.25390      12.07069    2234.00000      19.20216       0.15428       0.16072       1.75406       2.32261       0.22655       0.19300       2.70652      77.87588     141.26089     231.70386       0.28174       1.81408       1.56660       0.69181       0.00000
    3294.00000       6.16719       6.53748       7.21272       8.01124       8.80267      12.25000      12.21533      12.15786      12.24594      12.06978    2272.00000      17.79129       0.15365       0.16588       1.76217       2.32356       0.22599       0.19067       3.40931      77.55551     141.04089     231.82358       0.28373       1.81988       1.53706       0.70178       0.00000
    3293.50000       6.38474       6.77117       7.47735       8.26964       9.06604      12.25000      12.21533      12.16289      12.24299      12.08279    2279.00000      17.24258       0.16490       0.14961       1.76760       2.33346       0.22020       0.18624       4.39077      76.94527     140.53215     231.68137       0.28626       1.82736       1.52776       0.68612       0.00000
    3293.00000       6.86381       7.41157       8.24335       9.04725       9.87620      12.25000      12.21533      12.13529      12.19985      12.07073    2255.00000      17.06988       0.15369       0.16289       1.76076       2.33897       0.21697       0.18085       1.23384      76.20354     139.73952     231.02487       0.28852       1.83421       1.50813       0.67093       0.00000
    3292.50000       6.96530       7.64747       8.55386       9.25365      10.16722      12.25000      12.23733      12.12867      12.21077      12.04656    2233.00000      17.06988       0.14847       0.13260       1.75453       2.33878       0.21709       0.17636       1.13023      75.58532     138.84972     230.00920       0.28924       1.83640       1.48330       0.65932       0.00000
    3292.00000       7.04095       7.80573       8.70717       9.30510      10.24216      12.25000      12.21533      12.12440      12.18920      12.05959    2212.00000      14.99605       0.13282       0.12833       1.76506       2.33579       0.21884       0.17359       1.20295      75.20364     137.99892     229.07111       0.28886       1.83523       1.49437       0.62994       0.00000
    3291.50000       6.97084       7.67126       8.46925       8.99468       9.90258      12.25000      12.21533      12.11716      12.19985      12.03446    2293.00000      16.03487       0.12958       0.14904       1.78575       2.33772       0.21771       0.17183       0.00000      74.96058     137.15463     228.54749       0.28705       1.82975       1.48008       0.61998       0.00000
    3291.00000       6.99182       7.59432       8.24343       8.74086       9.62721      12.25000      12.19333      12.11242      12.17828      12.04656    2228.00000      14.38873       0.13557       0.13904       1.79620       2.34479       0.21357       0.17113       0.00000      74.86429     136.21057     228.40097       0.28392       1.82042       1.46995       0.59778       0.00000
    3290.50000       7.14964       7.60926       8.17281       8.71727       9.56081      12.25000      12.19333      12.11371      12.15669      12.07073    2217.00000      15.94782       0.13958       0.14425       1.78664       2.34171       0.21538       0.17111       0.00000      74.86169     135.01666     228.39478       0.27852       1.80485       1.48894       0.57819       0.00000
    3290.00000       7.19781       7.57083       8.03902       8.63244       9.48730      12.25000      12.17132      11.89762      12.12468      11.67056    2250.00000      15.57822       0.15396       0.13678       1.76989       2.34406       0.21400       0.17132       0.00000      74.89124     133.51396     228.34286       0.27066       1.78330       1.50480       0.57117       0.00000
    3289.50000       7.16837       7.48967       7.99380       8.63331       9.51224      12.25000      12.17132      12.02440      12.13535      11.91345    2236.00000      18.28700       0.15941       0.16320       1.77276       2.35376       0.20833       0.17098       0.00000      74.84383     131.69398     227.91417       0.26221       1.76146       1.51319       0.56023       0.00000
    3289.00000       8.04047       8.42832       9.09623       9.87683      10.83563      12.25000      12.17132      12.02367      12.14602      11.90132    2235.00000      18.80037       0.14652       0.14271       1.79030       2.38189       0.19188       0.16849       0.00000      74.50159     129.32576     226.53250       0.25295       1.73894       1.52105       0.55512       0.00000
    3288.50000       9.30005       9.64107      10.54701      11.43903      12.73252      12.25000      12.12732      12.02900      12.15669      11.90132    2238.00000      20.44908       0.12118       0.13305       1.81026       2.40159       0.18035       0.16245       0.00000      73.66944     126.48083     224.12503       0.24254       1.71524       1.53947       0.53852       0.00000
    3288.00000      10.20549      10.62733      11.68186      12.66249      14.21814      12.25000      12.13832      12.01347      12.11348      11.91345    2200.00000      18.20673       0.09187       0.08946       1.80806       2.41054       0.17512       0.15436       0.00000      72.55476     124.07700     221.80756       0.23743       1.70419       1.55184       0.52221       0.00000
    3287.50000      11.30064      11.93836      13.08484      14.25503      16.03238      12.25000      12.12732      12.03045      12.13535      11.92555    2232.00000      16.65433       0.09804       0.09821       1.79873       2.39942       0.18163       0.14921       0.00000      71.84563     122.83459     221.02167       0.23882       1.70717       1.57997       0.50006       0.00000
    3287.00000      11.54071      12.09948      13.23020      14.36398      16.23625      12.25000      12.14932      12.02974      12.14602      11.91345    2240.00000      14.63997       0.09489       0.10538       1.77661       2.38999       0.18714       0.14982       0.00000      71.93008     122.59283     221.22212       0.23614       1.70146       1.60133       0.47465       0.00000
