~VERSION
 VERS.        2.00                                                                   :CWLS LOG ASCII STANDARD
 WRAP.        NO                                                                     :NO WRAP PERFORMED
 PROD.        Schlumberger                                                           :LAS Producer
 CREA.        Thu Dec  9 10:37:48 2010                                               :LAS Creation Date and time
~Well
#MNEM.UNIT    VALUE                                                                   :DESCRIPTION
#----.----    ---------------                                                        :-------------------
 STRT.F       5250.000                                                               :START DEPTH
 STOP.F       350.000                                                                :STOP  DEPTH
 STEP.F       -0.500                                                                 :DEPTH STEP
 NULL.        -999.250                                                               :NULL VALUE
 COMP.        ADM COMPANY                                                            :COMPANY NAME
 WELL.        VERIFICATION WELL 1                                                    :WELL NAME
 FLD.         WILDCAT                                                                :FIELD NAME
 API.         121152346000                                                           :API NUMBER
 CNTY.        MACON                                                                  :COUNTY
 STAT.        ILLINOIS                                                               :STATE
 CTRY.        US                                                                     :COUNTRY
 LOC.         LAT 39* 52' 47.5" N                                                    :WELL SURFACE LOCATION LINE 1
 LOC2.        LONG 88* 53' 36.9"                                                     :WELL SURFACE LOCATION LINE 2
 LOC3.                                                                               :WELL SURFACE LOCATION LINE 3
 SECT.        5                                                                      :SECTION
 TOWN.        17 NORTH                                                               :TOWNSHIP
 RANG.        3 EAST                                                                 :RANGE
 LATI.                                                                               :Latitude
 LONG.                                                                               :Longitude
 DATE.        10/24/2010                                                             :LOGGING DATE
 SRVC.        Schlumberger                                                           :SERVICE COMPANY
~Parameter
#MNEM.UNIT    VALUE                                                                  :DESCRIPTION
#----.----    ---------------                                                        :-------------------
 APD.F        15.000                                                                 :Elevation of depth reference above permanent datum
 EDF.F        683.000                                                                :Elevation of Derrick Floor
 EGL.F        669.000                                                                :Elevation of Ground Level
 EKB.F        684.000                                                                :Elevation of Kelly Bushing
 EPD.F        669.000                                                                :Elevation of Permnaent Datum
 LMF.         Kelly Bushing                                                          :Logging Measured From
 PDAT.        Ground Level                                                           :Permanent Datum
 TDD.F        5320.000                                                               :Total Depth Driller
 TDL.F        5322.000                                                               :Total Depth Logger
 BS.IN        12.25                                                                  :Bit Size
 R1.                                                                                 :REMARK 1
 R2.                                                                                 :REMARK 2
 R3.                                                                                 :REMARK 3
 R4.                                                                                 :REMARK 4
 R5.                                                                                 :REMARK 5
 R6.                                                                                 :REMARK 6
 R7.                                                                                 :REMARK 7
 R8.                                                                                 :REMARK 8
 R9.                                                                                 :REMARK 9
 R10.                                                                                :REMARK 10
 DCS_CENTER.  Denver                                                                 :Schlumberger DCS Center
 LOG_ANALYST. Becker                                                                 :Log Analyst Name
 ENG.         DARREN HUNTER                                                          :Field Engineer Name
 GF_BASELINE. GF45LNX                                                                :GeoFrame Baseline
~Curve
#MNEM.UNIT                                                                           :DESCRIPTION
#----.----                                                                           :--------------------------------
 DEPT.F                                                                              :Depth Index
 RLA1.OHMM                                                                           : 1 Apparent Resistivity from Computed Focusing Mode 1                                        
 RLA2.OHMM                                                                           : 2 Apparent Resistivity from Computed Focusing Mode 2                                        
 RLA3.OHMM                                                                           : 3 Apparent Resistivity from Computed Focusing Mode 3                                        
 RLA4.OHMM                                                                           : 4 Apparent Resistivity from Computed Focusing Mode 4                                        
 RLA5.OHMM                                                                           : 5 Apparent Resistivity from Computed Focusing Mode 5                                        
 BS.IN                                                                               : 6 Bit Size                                                                                  
 HCAL.IN                                                                             : 7 HRCC Caliper Calibrated                                                                   
 HDAR.IN                                                                             : 8 Hole Diameter from Area                                                                   
 HD1_PPC1.IN                                                                         : 9 PPC1 Hole Diameter 1                                                                      
 HD2_PPC1.IN                                                                         :10 PPC1 Hole Diameter 2                                                                      
 TENS.LBS                                                                            :11 Cable Tension                                                                             
 GR_EDTC.GAPI                                                                        :12 Gamma Ray                                                                                 
 NPHI.CFCF                                                                           :13 Thermal Neutron Porosity (original Ratio Method) in Selected Lithology                    
 NPOR.CFCF                                                                           :14 Enhanced Thermal Neutron Porosity in Selected Lithology                                   
 PEFZ.                                                                               :15 HRDD Standard Resolution Formation Photoelectric Factor                                   
 RHOZ.G/C3                                                                           :16 HRDD Standard Resolution Formation Density                                                
 DPHZ.CFCF                                                                           :17 Standard Resolution Density Porosity                                                      
 SPHI.CFCF                                                                           :18 Sonic Porosity                                                                            
 VCL_HILT.CFCF                                                                       :19 Volume of Clay type Material relative to Total Volume                                     
 DTCO.US/FT                                                                          :20 Delta-T Compressional                                                                     
 DTSM_FAST.US/FT                                                                     :21 Shear Slowness of Fast Shear Waves                                                        
 DTST.US/FT                                                                          :22 Delta-T Stoneley - Monopole Stoneley                                                      
 PR_FAST.                                                                            :23 Poisson Ratio of Fast Shear Waves                                                         
 VPVS_FAST.                                                                          :24 Vp/Vs Ration of fast shear waves                                                          
 MAXXENE_OVERALL.                                                                    :25 Overall estimate of maximum cross energy                                                  
 MINXENE_OVERALL.                                                                    :26 Overall estimate of minimum cross energy                                                  
 FLAG.                                                                               :27 General Indicator Flag(Bad Borehole)                                                                    
~Ascii   DEPT          RLA1          RLA2          RLA3          RLA4          RLA5            BS          HCAL          HDAR      HD1_PPC1      HD2_PPC1          TENS       GR_EDTC          NPHI          NPOR          PEFZ          RHOZ          DPHZ          SPHI      VCL_HILT          DTCO     DTSM_FAST          DTST       PR_FAST     VPVS_FAST  MAXXENE_OVER  MINXENE_OVER          FLAG
# ...
    1659.00000       6.97920       6.70104       6.67407       6.67809       6.52071      12.25000      12.36934      12.32924      12.29681      12.36168    1912.85718      83.78741       0.20383       0.21149       3.55369       2.55922       0.08818       0.20084      58.04356      78.95626     143.33669     218.82671       0.28258       1.81652       2.58728       0.17744       0.00000
    1658.50000       6.94708       6.66813       6.64746       6.64989       6.45575      12.25000      12.34734      12.33339      12.29424      12.37255    1942.00000      83.11711       0.21322       0.22238       3.52787       2.55929       0.08813       0.19980      55.20294      78.81209     142.55971     218.94443       0.27950       1.80763       2.63079       0.17604       0.00000
    1658.00000       6.73148       6.45040       6.43227       6.42540       6.20803      12.25000      12.36934      12.32910      12.29691      12.36130    1927.77783      80.82048       0.21688       0.20027       3.50448       2.55606       0.09003       0.19857      61.52806      78.64268     141.93953     219.03340       0.27828       1.80419       2.67277       0.17703       0.00000
    1657.50000       6.48253       6.27440       6.25348       6.24659       5.99726      12.25000      12.32534      12.31365      12.29491      12.33239    1891.00000      79.62900       0.20979       0.18932       3.46511       2.55662       0.08969       0.19596      60.13092      78.28327     141.57596     219.10526       0.27956       1.80781       2.70431       0.17524       0.00000
    1657.00000       6.28921       6.06519       6.02380       6.00678       5.73739      12.25000      12.34734      12.31052      12.28898      12.33206    1897.00000      75.95489       0.18892       0.18592       3.40317       2.57268       0.08030       0.19321      56.83547      77.90520     141.39697     219.21191       0.28196       1.81469       2.72244       0.17107       0.00000
    1656.50000       6.09508       5.81458       5.75232       5.71678       5.41514      12.25000      12.30334      12.30447      12.27273      12.33622    1886.11108      72.42937       0.19092       0.19250       3.35207       2.58018       0.07592       0.19211      49.98327      77.75314     141.33853     219.36687       0.28293       1.81752       2.73605       0.16576       0.00000
    1656.00000       5.88015       5.57391       5.50418       5.44024       5.15940      12.25000      12.30334      12.29681      12.25710      12.33652    1885.22217      69.10638       0.18886       0.19991       3.32610       2.57597       0.07838       0.19301      54.97730      77.87691     141.36237     219.51335       0.28205       1.81496       2.74866       0.16139       0.00000
    1655.50000       5.54974       5.26965       5.19773       5.12227       4.84653      12.25000      12.32534      12.29004      12.24756      12.33253    1890.33337      67.00708       0.20281       0.19601       3.35117       2.55277       0.09195       0.19473      56.20719      78.11369     141.44693     219.64195       0.28059       1.81075       2.76485       0.16007       0.00000
    1655.00000       5.57008       5.28742       5.20492       5.10134       4.80744      12.25000      12.34734      12.28400      12.24095      12.32704    1873.44446      68.21258       0.19869       0.19286       3.36011       2.54545       0.09623       0.19590      60.07254      78.27537     141.54976     219.80797       0.27978       1.80844       2.78882       0.15918       0.00000
    1654.50000       5.62077       5.34825       5.21575       5.09332       4.79254      12.25000      12.32534      12.29201      12.24410      12.33991    1900.00000      71.23650       0.19733       0.19162       3.39795       2.53526       0.10219       0.19644      54.87762      78.34943     141.63580     220.03444       0.27957       1.80783       2.81737       0.15879       0.00000
    1654.00000       5.81117       5.44525       5.29343       5.16032       4.85801      12.25000      12.30334      12.31174      12.25094      12.37255    1876.00000      74.93367       0.19567       0.18139       3.37826       2.52739       0.10679       0.19663      52.24215      78.37568     141.70909     220.32422       0.27962       1.80798       2.83448       0.16376       0.00000
    1653.50000       5.80231       5.39521       5.20562       5.04467       4.73679      12.25000      12.32534      12.29373      12.25094      12.33652    1879.00000      72.94244       0.19897       0.20577       3.37053       2.50857       0.11780       0.19801      51.57333      78.56618     141.78346     220.69958       0.27847       1.80473       2.85975       0.16777       0.00000
    1653.00000       5.88202       5.38498       5.18642       5.01852       4.71063      12.25000      12.32534      12.32601      12.31549      12.33652    1890.00000      67.98429       0.21076       0.21264       3.27312       2.50480       0.12000       0.19972      53.69843      78.80179     141.89252     221.00259       0.27682       1.80010       2.89143       0.17089       0.00000
    1652.50000       6.04768       5.49055       5.25099       5.07708       4.76180      12.25000      12.32534      12.32181      12.28309      12.36053    1890.00000      68.94404       0.20870       0.21482       3.14229       2.51146       0.11611       0.20043      54.22552      78.89877     142.06845     221.20746       0.27705       1.80075       2.93250       0.17229       0.00000
    1652.00000       6.32158       5.65639       5.38726       5.20261       4.88606      12.25000      12.30334      12.31636      12.27220      12.36053    1888.00000      70.04194       0.20881       0.19466       3.01194       2.52245       0.10968       0.20086      49.02867      78.95783     142.25890     221.32877       0.27744       1.80183       2.97942       0.16980       0.00000
    1651.50000       7.30758       6.40992       6.07243       5.86090       5.49601      12.25000      12.29234      12.30402      12.27220      12.33583    1885.00000      71.88936       0.19466       0.19311       2.97836       2.51953       0.11138       0.20133      45.16331      79.02381     142.45909     221.39554       0.27759       1.80226       2.99534       0.17310       0.00000
    1651.00000       8.25634       7.22377       6.81155       6.57834       6.15237      12.25000      12.30334      12.27683      12.22913      12.32453    1881.00000      70.60960       0.19723       0.19473       3.01419       2.50168       0.12182       0.20328      46.55331      79.29222     142.65576     221.45137       0.27678       1.79998       3.03696       0.17790       0.00000
    1650.50000       8.98864       7.82231       7.34387       7.04845       6.60539      12.25000      12.29234      12.25880      12.22913      12.28847    1877.00000      68.25609       0.19897       0.22036       3.05094       2.47777       0.13581       0.20592      49.93818      79.65524     142.80804     221.66505       0.27393       1.79212       3.10932       0.18003       0.00000
    1650.00000       9.10964       7.82275       7.30562       6.99363       6.56041      12.25000      12.28134      12.24311      12.18575      12.30047    1874.00000      69.53698       0.22451       0.23758       3.04617       2.46267       0.14464       0.20821      53.10075      79.97060     142.99533     222.10266       0.27249       1.78820       3.15708       0.17916       0.00000
    1649.50000       9.02595       7.65346       7.10034       6.78824       6.33380      12.25000      12.28134      12.22101      12.15354      12.28847    1941.00000      67.16028       0.23236       0.23050       2.98488       2.46794       0.14156       0.20828      49.88669      79.97985     143.29614     222.58421       0.27342       1.79073       3.19671       0.17827       0.00000
    1649.00000       9.34484       7.88964       7.31147       6.97113       6.50564      12.25000      12.25933      12.22095      12.17828      12.26363    1869.00000      69.31017       0.23504       0.22332       2.94536       2.47280       0.13871       0.20643      48.50213      79.72609     143.69873     222.83281       0.27781       1.80288       3.25667       0.18020       0.00000
