~VERSION
 VERS.        2.00                                                                   :CWLS LOG ASCII STANDARD
 WRAP.        NO                                                                     :NO WRAP PERFORMED
 PROD.        Schlumberger                                                           :LAS Producer
 CREA.        Thu Dec  9 10:37:48 2010                                               :LAS Creation Date and time
~Well
#MNEM.UNIT    VALUE                                                                   :DESCRIPTION
#----.----    ---------------                                                        :-------------------
 STRT.F       5250.000                                                               :START DEPTH
 STOP.F       350.000                                                                :STOP  DEPTH
 STEP.F       -0.500                                                                 :DEPTH STEP
 NULL.        -999.250                                                               :NULL VALUE
 COMP.        ADM COMPANY                                                            :COMPANY NAME
 WELL.        VERIFICATION WELL 1                                                    :WELL NAME
 FLD.         WILDCAT                                                                :FIELD NAME
 API.         121152346000                                                           :API NUMBER
 CNTY.        MACON                                                                  :COUNTY
 STAT.        ILLINOIS                                                               :STATE
 CTRY.        US                                                                     :COUNTRY
 LOC.         LAT 39* 52' 47.5" N                                                    :WELL SURFACE LOCATION LINE 1
 LOC2.        LONG 88* 53' 36.9"                                                     :WELL SURFACE LOCATION LINE 2
 LOC3.                                                                               :WELL SURFACE LOCATION LINE 3
 SECT.        5                                                                      :SECTION
 TOWN.        17 NORTH                                                               :TOWNSHIP
 RANG.        3 EAST                                                                 :RANGE
 LATI.                                                                               :Latitude
 LONG.                                                                               :Longitude
 DATE.        10/24/2010                                                             :LOGGING DATE
 SRVC.        Schlumberger                                                           :SERVICE COMPANY
~Parameter
#MNEM.UNIT    VALUE                                                                  :DESCRIPTION
#----.----    ---------------                                                        :-------------------
 APD.F        15.000                                                                 :Elevation of depth reference above permanent datum
 EDF.F        683.000                                                                :Elevation of Derrick Floor
 EGL.F        669.000                                                                :Elevation of Ground Level
 EKB.F        684.000                                                                :Elevation of Kelly Bushing
 EPD.F        669.000                                                                :Elevation of Permnaent Datum
 LMF.         Kelly Bushing                                                          :Logging Measured From
 PDAT.        Ground Level                                                           :Permanent Datum
 TDD.F        5320.000                                                               :Total Depth Driller
 TDL.F        5322.000                                                               :Total Depth Logger
 BS.IN        12.25                                                                  :Bit Size
 R1.                                                                                 :REMARK 1
 R2.                                                                                 :REMARK 2
 R3.                                                                                 :REMARK 3
 R4.                                                                                 :REMARK 4
 R5.                                                                                 :REMARK 5
 R6.                                                                                 :REMARK 6
 R7.                                                                                 :REMARK 7
 R8.                                                                                 :REMARK 8
 R9.                                                                                 :REMARK 9
 R10.                                                                                :REMARK 10
 DCS_CENTER.  Denver                                                                 :Schlumberger DCS Center
 LOG_ANALYST. Becker                                                                 :Log Analyst Name
 ENG.         DARREN HUNTER                                                          :Field Engineer Name
 GF_BASELINE. GF45LNX                                                                :GeoFrame Baseline
~Curve
#MNEM.UNIT                                                                           :DESCRIPTION
#----.----                                                                           :--------------------------------
 DEPT.F                                                                              :Depth Index
 RLA1.OHMM                                                                           : 1 Apparent Resistivity from Computed Focusing Mode 1                                        
 RLA2.OHMM                                                                           : 2 Apparent Resistivity from Computed Focusing Mode 2                                        
 RLA3.OHMM                                                                           : 3 Apparent Resistivity from Computed Focusing Mode 3                                        
 RLA4.OHMM                                                                           : 4 Apparent Resistivity from Computed Focusing Mode 4                                        
 RLA5.OHMM                                                                           : 5 Apparent Resistivity from Computed Focusing Mode 5                                        
 BS.IN                                                                               : 6 Bit Size                                                                                  
 HCAL.IN                                                                             : 7 HRCC Caliper Calibrated                                                                   
 HDAR.IN                                                                             : 8 Hole Diameter from Area                                                                   
 HD1_PPC1.IN                                                                         : 9 PPC1 Hole Diameter 1                                                                      
 HD2_PPC1.IN                                                                         :10 PPC1 Hole Diameter 2                                                                      
 TENS.LBS                                                                            :11 Cable Tension                                                                             
 GR_EDTC.GAPI                                                                        :12 Gamma Ray                                                                                 
 NPHI.CFCF                                                                           :13 Thermal Neutron Porosity (original Ratio Method) in Selected Lithology                    
 NPOR.CFCF                                                                           :14 Enhanced Thermal Neutron Porosity in Selected Lithology                                   
 PEFZ.                                                                               :15 HRDD Standard Resolution Formation Photoelectric Factor                                   
 RHOZ.G/C3                                                                           :16 HRDD Standard Resolution Formation Density                                                
 DPHZ.CFCF                                                                           :17 Standard Resolution Density Porosity                                                      
 SPHI.CFCF                                                                           :18 Sonic Porosity                                                                            
 VCL_HILT.CFCF                                                                       :19 Volume of Clay type Material relative to Total Volume                                     
 DTCO.US/FT                                                                          :20 Delta-T Compressional                                                                     
 DTSM_FAST.US/FT                                                                     :21 Shear Slowness of Fast Shear Waves                                                        
 DTST.US/FT                                                                          :22 Delta-T Stoneley - Monopole Stoneley                                                      
 PR_FAST.                                                                            :23 Poisson Ratio of Fast Shear Waves                                                         
 VPVS_FAST.                                                                          :24 Vp/Vs Ration of fast shear waves                                                          
 MAXXENE_OVERALL.                                                                    :25 Overall estimate of maximum cross energy                                                  
 MINXENE_OVERALL.                                                                    :26 Overall estimate of minimum cross energy                                                  
 FLAG.                                                                               :27 General Indicator Flag(Bad Borehole)                                                                    
~Ascii   DEPT          RLA1          RLA2          RLA3          RLA4          RLA5            BS          HCAL          HDAR      HD1_PPC1      HD2_PPC1          TENS       GR_EDTC          NPHI          NPOR          PEFZ          RHOZ          DPHZ          SPHI      VCL_HILT          DTCO     DTSM_FAST          DTST       PR_FAST     VPVS_FAST  MAXXENE_OVER  MINXENE_OVER          FLAG
# ...
    4273.50000      53.64229     101.68151      97.33796      99.63528      96.22267      12.25000      12.34734      12.22169      12.33775      12.10564    2463.33325      17.83547       0.10881       0.12389       3.11179       2.68278       0.01592       0.00774       0.47733      52.36583      95.74435     208.75865       0.28682       1.82905       3.19538       0.11200       0.00000
    4273.00000      52.58069      92.76104      90.06844      86.87489      84.66498      12.25000      12.34734      12.20690      12.33767      12.07613    2431.44434      17.51854       0.11445       0.12003       3.14726       2.68057       0.01721       0.00750       0.00000      52.33210      95.58001     208.89648       0.28616       1.82708       3.43256       0.11799       0.00000
    4272.50000      54.57713      98.99641      96.28307      93.88261      91.10316      12.25000      12.34734      12.20619      12.32551      12.08686    2470.33325      16.90825       0.11875       0.11818       3.10315       2.69670       0.00778       0.00901       0.00000      52.54126      95.32542     209.07457       0.28172       1.81401       3.67872       0.12315       0.00000
    4272.00000      51.50429      89.92017      88.46810      87.00105      84.38921      12.25000      12.34734      12.19995      12.31839      12.08150    2460.66675      16.66548       0.11763       0.11820       3.09395       2.69282       0.01005       0.01080       0.00000      52.78648      95.10670     209.19423       0.27712       1.80095       3.91078       0.12766       0.00000
    4271.50000      51.74374      82.79555      79.34073      78.07015      75.50069      12.25000      12.38035      12.18749      12.30421      12.07077    2429.55566      16.58557       0.11948       0.12811       3.11144       2.67676       0.01944       0.01183       0.00000      52.92943      95.01459     209.20616       0.27482       1.79456       4.12994       0.13097       0.00000
    4271.00000      51.87141      83.28304      78.80907      77.45570      75.03419      12.25000      12.36934      12.18057      12.28634      12.07479    2418.33325      17.21852       0.11384       0.12910       3.14425       2.66622       0.02560       0.01197       0.95514      52.94887      95.00327     209.07530       0.27484       1.79461       4.34932       0.13285       0.00000
    4270.50000      54.31770      99.19677      95.36974      88.65276      86.62457      12.25000      12.34734      12.18983      12.28877      12.09089    2412.55566      18.43889       0.10761       0.10027       3.19064       2.66090       0.02871       0.01126       1.35271      52.85038      94.89607     208.78326       0.27578       1.79720       4.57776       0.13372       0.00000
    4270.00000      56.60797     115.43835     108.99506     110.37891     107.31320      12.25000      12.34734      12.20688      12.29603      12.11773    2437.33325      17.56816       0.11012       0.11188       3.16292       2.67779       0.01884       0.00913       2.40689      52.55721      94.51817     208.39186       0.27674       1.79987       4.78430       0.13408       0.00000
    4269.50000      56.13863     121.68101     114.78197     114.35203     114.35615      12.25000      12.34734      12.19667      12.28634      12.10699    2480.00000      17.56816       0.10944       0.12592       3.13758       2.69532       0.00858       0.00473       1.85688      51.95063      93.92636     208.07726       0.27943       1.80743       5.03800       0.13637       0.00000
    4269.00000      58.33514     145.05014     138.78896     139.68576     142.72818      12.25000      12.36934      12.19875      12.28860      12.10889    2501.21387      14.45122       0.11236       0.11470       3.12044       2.72025      -0.00599      -0.00226       0.40512      50.98840      93.36974     208.00089       0.28717       1.83011       5.41412       0.14248       0.00000
    4268.50000      60.12567     178.19514     179.68103     178.39841     186.68466      12.25000      12.34734      12.23926      12.33280      12.14572    2485.84570      14.17965       0.09684       0.08794       3.12532       2.72009      -0.00590      -0.00675       0.00000      50.37111      92.94608     208.09944       0.29213       1.84536       5.85585       0.14726       0.00000
    4268.00000      62.42589     200.33601     194.32291     192.94229     200.26096      12.25000      12.34734      12.25806      12.35835      12.15776    2475.05029      13.66847       0.08729       0.08547       3.14489       2.71161      -0.00094      -0.00864       0.00000      50.11094      92.60867     208.12396       0.29271       1.84718       6.45775       0.14633       0.00000
    4267.50000      59.98241     167.12645     159.80191     177.71741     173.24400      12.25000      12.32534      12.21857      12.33779      12.09934    2464.52222      15.11043       0.09052       0.10764       3.14794       2.70414       0.00343      -0.01039       0.00000      49.86878      92.38531     208.09268       0.29421       1.85193       7.30575       0.14214       0.00000
    4267.00000      57.52344     138.49553     128.06573     128.12949     134.38991      12.25000      12.34734      12.19709      12.32660      12.06758    2444.52612      14.72545       0.09315       0.10915       3.14212       2.72255      -0.00734      -0.01187       0.00000      49.66574      92.31291     208.13083       0.29604       1.85782       8.24151       0.13921       0.00000
    4266.50000      58.51157     152.22960     137.11832     137.75407     144.98724      12.25000      12.39135      12.18849      12.32212      12.05487    2436.53442      15.51563       0.08917       0.07873       3.13854       2.74175      -0.01856      -0.01150       0.00000      49.71674      92.37239     208.26822       0.29600       1.85768       9.29599       0.14097       0.00000
    4266.00000      60.64198     197.60701     183.76746     180.31847     196.18805      12.25000      12.40235      12.20134      12.32940      12.07327    2405.68726      15.11571       0.08416       0.08771       3.15821       2.73849      -0.01666      -0.00939       0.00000      50.00668      92.52804     208.47568       0.29355       1.84983      10.80675       0.14567       0.00000
    4265.50000      57.43774     172.43509     161.36815     177.45924     180.52992      12.25000      12.43535      12.25107      12.34753      12.15462    2393.89917      15.07724       0.09391       0.10035       3.18891       2.71624      -0.00365      -0.00662       1.33340      50.38858      92.73786     208.64114       0.29061       1.84063      12.68623       0.15286       0.00000
    4265.00000      54.58899     147.79730     129.50491     131.82825     145.25368      12.25000      12.45735      12.30669      12.39279      12.22060    2413.84473      15.13734       0.09688       0.09761       3.19820       2.69654       0.00787      -0.00311       0.00000      50.87233      92.90250     208.67210       0.28620       1.82720      14.59470       0.16861       0.00000
    4264.50000      56.24916     168.35243     148.59283     144.82156     157.42870      12.25000      12.49036      12.34620      12.42112      12.27127    2466.99170      15.83921       0.09775       0.10153       3.16706       2.69952       0.00613       0.00162       0.00000      51.52341      93.03183     208.59894       0.27826       1.80414      16.74073       0.19156       0.00000
    4264.00000      56.19240     179.16284     162.77701     162.72667     174.61905      12.25000      12.58937      12.39398      12.43256      12.35541    2487.37720      16.94022       0.09095       0.10235       3.16925       2.70195       0.00471       0.00615       0.09879      52.14687      93.28931     208.45529       0.27258       1.78847      19.27485       0.21545       0.00000
    4263.50000      55.81239     175.54037     159.79103     164.24969     172.04799      12.25000      12.65537      12.45717      12.51842      12.39593    2475.36841      18.92365       0.09942       0.10640       3.14670       2.71501      -0.00293       0.00896       3.36489      52.53394      93.66122     208.32509       0.27060       1.78316      21.83201       0.24495       0.00000
