~VERSION
 VERS.        2.00                                                                   :CWLS LOG ASCII STANDARD
 WRAP.        NO                                                                     :NO WRAP PERFORMED
 PROD.        Schlumberger                                                           :LAS Producer
 CREA.        Thu Dec  9 10:37:48 2010                                               :LAS Creation Date and time
~Well
#MNEM.UNIT    VALUE                                                                   :DESCRIPTION
#----.----    ---------------                                                        :-------------------
 STRT.F       5250.000                                                               :START DEPTH
 STOP.F       350.000                                                                :STOP  DEPTH
 STEP.F       -0.500                                                                 :DEPTH STEP
 NULL.        -999.250                                                               :NULL VALUE
 COMP.        ADM COMPANY                                                            :COMPANY NAME
 WELL.        VERIFICATION WELL 1                                                    :WELL NAME
 FLD.         WILDCAT                                                                :FIELD NAME
 API.         121152346000                                                           :API NUMBER
 CNTY.        MACON                                                                  :COUNTY
 STAT.        ILLINOIS                                                               :STATE
 CTRY.        US                                                                     :COUNTRY
 LOC.         LAT 39* 52' 47.5" N                                                    :WELL SURFACE LOCATION LINE 1
 LOC2.        LONG 88* 53' 36.9"                                                     :WELL SURFACE LOCATION LINE 2
 LOC3.                                                                               :WELL SURFACE LOCATION LINE 3
 SECT.        5                                                                      :SECTION
 TOWN.        17 NORTH                                                               :TOWNSHIP
 RANG.        3 EAST                                                                 :RANGE
 LATI.                                                                               :Latitude
 LONG.                                                                               :Longitude
 DATE.        10/24/2010                                                             :LOGGING DATE
 SRVC.        Schlumberger                                                           :SERVICE COMPANY
~Parameter
#MNEM.UNIT    VALUE                                                                  :DESCRIPTION
#----.----    ---------------                                                        :-------------------
 APD.F        15.000                                                                 :Elevation of depth reference above permanent datum
 EDF.F        683.000                                                                :Elevation of Derrick Floor
 EGL.F        669.000                                                                :Elevation of Ground Level
 EKB.F        684.000                                                                :Elevation of Kelly Bushing
 EPD.F        669.000                                                                :Elevation of Permnaent Datum
 LMF.         Kelly Bushing                                                          :Logging Measured From
 PDAT.        Ground Level                                                           :Permanent Datum
 TDD.F        5320.000                                                               :Total Depth Driller
 TDL.F        5322.000                                                               :Total Depth Logger
 BS.IN        12.25                                                                  :Bit Size
 R1.                                                                                 :REMARK 1
 R2.                                                                                 :REMARK 2
 R3.                                                                                 :REMARK 3
 R4.                                                                                 :REMARK 4
 R5.                                                                                 :REMARK 5
 R6.                                                                                 :REMARK 6
 R7.                                                                                 :REMARK 7
 R8.                                                                                 :REMARK 8
 R9.                                                                                 :REMARK 9
 R10.                                                                                :REMARK 10
 DCS_CENTER.  Denver                                                                 :Schlumberger DCS Center
 LOG_ANALYST. Becker                                                                 :Log Analyst Name
 ENG.         DARREN HUNTER                                                          :Field Engineer Name
 GF_BASELINE. GF45LNX                                                                :GeoFrame Baseline
~Curve
#MNEM.UNIT                                                                           :DESCRIPTION
#----.----                                                                           :--------------------------------
 DEPT.F                                                                              :Depth Index
 RLA1.OHMM                                                                           : 1 Apparent Resistivity from Computed Focusing Mode 1                                        
 RLA2.OHMM                                                                           : 2 Apparent Resistivity from Computed Focusing Mode 2                                        
 RLA3.OHMM                                                                           : 3 Apparent Resistivity from Computed Focusing Mode 3                                        
 RLA4.OHMM                                                                           : 4 Apparent Resistivity from Computed Focusing Mode 4                                        
 RLA5.OHMM                                                                           : 5 Apparent Resistivity from Computed Focusing Mode 5                                        
 BS.IN                                                                               : 6 Bit Size                                                                                  
 HCAL.IN                                                                             : 7 HRCC Caliper Calibrated                                                                   
 HDAR.IN                                                                             : 8 Hole Diameter from Area                                                                   
 HD1_PPC1.IN                                                                         : 9 PPC1 Hole Diameter 1                                                                      
 HD2_PPC1.IN                                                                         :10 PPC1 Hole Diameter 2                                                                      
 TENS.LBS                                                                            :11 Cable Tension                                                                             
 GR_EDTC.GAPI                                                                        :12 Gamma Ray                                                                                 
 NPHI.CFCF                                                                           :13 Thermal Neutron Porosity (original Ratio Method) in Selected Lithology                    
 NPOR.CFCF                                                                           :14 Enhanced Thermal Neutron Porosity in Selected Lithology                                   
 PEFZ.                                                                               :15 HRDD Standard Resolution Formation Photoelectric Factor                                   
 RHOZ.G/C3                                                                           :16 HRDD Standard Resolution Formation Density                                                
 DPHZ.CFCF                                                                           :17 Standard Resolution Density Porosity                                                      
 SPHI.CFCF                                                                           :18 Sonic Porosity                                                                            
 VCL_HILT.CFCF                                                                       :19 Volume of Clay type Material relative to Total Volume                                     
 DTCO.US/FT                                                                          :20 Delta-T Compressional                                                                     
 DTSM_FAST.US/FT                                                                     :21 Shear Slowness of Fast Shear Waves                                                        
 DTST.US/FT                                                                          :22 Delta-T Stoneley - Monopole Stoneley                                                      
 PR_FAST.                                                                            :23 Poisson Ratio of Fast Shear Waves                                                         
 VPVS_FAST.                                                                          :24 Vp/Vs Ration of fast shear waves                                                          
 MAXXENE_OVERALL.                                                                    :25 Overall estimate of maximum cross energy                                                  
 MINXENE_OVERALL.                                                                    :26 Overall estimate of minimum cross energy                                                  
 FLAG.                                                                               :27 General Indicator Flag(Bad Borehole)                                                                    
~Ascii   DEPT          RLA1          RLA2          RLA3          RLA4          RLA5            BS          HCAL          HDAR      HD1_PPC1      HD2_PPC1          TENS       GR_EDTC          NPHI          NPOR          PEFZ          RHOZ          DPHZ          SPHI      VCL_HILT          DTCO     DTSM_FAST          DTST       PR_FAST     VPVS_FAST  MAXXENE_OVER  MINXENE_OVER          FLAG
# ...
    2971.50000      60.63357     183.77100     159.76945     145.38579     130.03859      12.25000      12.50136      12.37739      12.47851      12.27627    2222.42847      14.14171       0.00426       0.00757       5.15058       2.70119       0.00515      -0.01031       0.20160      49.88071      97.82234     207.88370       0.32395       1.95963       1.35004       0.12765       0.00000
    2971.00000      63.82144     257.80002     209.54674     200.67957     181.22290      12.25000      12.50136      12.37673      12.47760      12.27585    2209.57153      14.65053       0.00137       0.00312       5.11441       2.70810       0.00111      -0.01302       0.40247      49.50746      97.27794     207.70775       0.32463       1.96243       1.25583       0.12746       0.00000
    2970.50000      66.44452     295.79834     270.54834     266.21152     242.29123      12.25000      12.50136      12.37825      12.48077      12.27574    2215.00000      16.20870      -0.00086       0.00497       5.07708       2.71534      -0.00312      -0.01511       0.00000      49.21920      97.09837     207.47287       0.32689       1.97188       1.16196       0.12704       0.00000
    2970.00000      67.34260     319.05429     325.10623     314.91159     292.37988      12.25000      12.47935      12.37718      12.47795      12.27641    2223.88892      15.72096      -0.00122       0.00853       5.00900       2.71837      -0.00489      -0.01524       0.00000      49.20094      97.09043     207.29771       0.32742       1.97414       1.08687       0.12592       0.00000
    2969.50000      67.84021     331.43158     346.38339     343.52271     323.27267      12.25000      12.47935      12.37207      12.47760      12.26654    2223.44434      16.21910      -0.00202       0.00074       4.93658       2.71896      -0.00524      -0.01414       0.00000      49.35334      97.06535     207.21774       0.32558       1.96639       1.04191       0.12421       0.00000
    2969.00000      64.09174     297.66837     298.91180     297.96890     286.64182      12.25000      12.50136      12.37572      12.47971      12.27173    2204.33325      16.18145      -0.00123       0.00160       4.98334       2.70407       0.00347      -0.01267       0.02525      49.55539      97.02657     207.21477       0.32359       1.95813       1.01197       0.12268       0.00000
    2968.50000      64.00858     290.37073     278.24185     269.91647     266.25858      12.25000      12.50136      12.37524      12.47474      12.27574    2211.11108      16.28597      -0.00110       0.00666       5.02655       2.69843       0.00676      -0.01201       0.00000      49.64565      96.99451     207.25993       0.32247       1.95357       1.00310       0.12236       0.00000
    2968.00000      65.86447     304.42438     291.02115     275.26120     278.59259      12.25000      12.49036      12.37181      12.47324      12.27039    2221.33325      16.36341      -0.00019       0.00844       5.07232       2.69382       0.00946      -0.01255       0.00000      49.57152      96.97482     207.30840       0.32310       1.95615       1.01579       0.12326       0.00000
    2967.50000      65.68199     308.51138     296.02911     276.22723     283.93228      12.25000      12.50136      12.37311      12.47851      12.26772    2220.33325      16.80476      -0.00130       0.00263       5.06748       2.69449       0.00907      -0.01376       0.00000      49.40465      96.97600     207.34874       0.32474       1.96286       1.03761       0.12433       0.00000
    2967.00000      64.57365     292.33029     261.60983     243.26460     249.20848      12.25000      12.47935      12.37584      12.47595      12.27574    2231.88892      17.98160      -0.00146       0.00314       5.07739       2.69285       0.01003      -0.01465       0.00000      49.28311      97.05038     207.41209       0.32595       1.96793       1.06639       0.12508       0.00000
    2966.50000      64.47762     295.16403     275.11133     250.36974     260.99640      12.25000      12.52336      12.37077      12.46705      12.27449    2252.22217      18.39009      -0.00057       0.01081       5.12149       2.68616       0.01394      -0.01437       0.00000      49.32182      97.23825     207.52138       0.32688       1.97186       1.09407       0.12431       0.00000
    2966.00000      65.40689     328.03857     361.33112     329.94324     344.76495      12.25000      12.54536      12.39764      12.53082      12.26446    2222.00000      19.38189       0.00125       0.01000       5.11321       2.68318       0.01568      -0.01297       0.00000      49.51383      97.42673     207.63716       0.32603       1.96826       1.11720       0.12431       0.00000
    2965.50000      63.55862     308.56137     345.09326     325.09003     330.81570      12.25000      12.65537      12.42113      12.56651      12.27574    2215.00000      19.93342       0.00348       0.01279       5.00199       2.68319       0.01568      -0.01107       2.03390      49.77514      97.50242     207.68007       0.32394       1.95959       1.14101       0.12603       0.00000
    2965.00000      63.53533     302.07001     317.49307     291.54184     300.13406      12.25000      12.61137      12.42834      12.54486      12.31182    2201.00000      20.30925       0.00328       0.01262       4.85738       2.69362       0.00958      -0.00969       3.64607      49.96613      97.47324     207.65817       0.32179       1.95083       1.16650       0.12785       0.00000
    2964.50000      66.88580     360.12317     466.61099     444.29764     451.88794      12.25000      12.54536      12.40978      12.53105      12.28850    2216.00000      19.39779       0.00255       0.01080       4.81142       2.71294      -0.00172      -0.00948       3.99747      49.99475      97.37725     207.63017       0.32116       1.94826       1.19805       0.12922       0.00000
    2964.00000      66.19651     324.53204     391.69144     365.79123     364.68567      12.25000      12.57836      12.41030      12.54486      12.27574    2180.00000      19.94650       0.00119       0.00789       4.86125       2.73024      -0.01183      -0.00976       3.18773      49.95589      97.34172     207.61441       0.32066       1.94627       1.21727       0.12935       0.00000
    2963.50000      65.82796     357.26392     487.18588     464.79398     461.48669      12.25000      12.54536      12.41709      12.50963      12.32455    2191.00000      19.93366       0.00039       0.00708       4.84185       2.74135      -0.01833      -0.00926       3.38861      50.02509      97.47232     207.55673       0.32139       1.94920       1.23521       0.12993       0.00000
    2963.00000      66.23498     344.89325     421.89587     407.76389     394.85971      12.25000      12.52336      12.41327      12.50199      12.32455    2219.00000      20.89564       0.00229       0.01167       4.70697       2.73152      -0.01259      -0.00671       2.15873      50.37591      97.76135     207.48534       0.31865       1.93831       1.26755       0.13134       0.00000
    2962.50000      62.78741     283.28882     266.37756     280.49924     254.15860      12.25000      12.51236      12.40231      12.48077      12.32385    2197.00000      19.06411       0.00383       0.01420       4.53276       2.71745      -0.00436      -0.00320       0.95475      50.85976      98.06511     207.46327       0.31696       1.93175       1.29421       0.13336       0.00000
    2962.00000      56.54903     149.14978     130.90244     148.00665     137.23308      12.25000      12.50136      12.39566      12.46677      12.32455    2209.00000      17.23789       0.00716       0.02758       4.50750       2.71153      -0.00089      -0.00052       0.00000      51.22781      98.25087     207.49855       0.31264       1.91536       1.30625       0.13615       0.00000
    2961.50000      53.74729     112.65708     103.20632     101.53761      91.92583      12.25000      12.47935      12.39625      12.45594      12.33656    2217.00000      17.00752       0.00778       0.02441       4.66543       2.72315      -0.00769       0.00009       0.00000      51.31256      98.25841     207.65131       0.31386       1.91992       1.30352       0.13827       0.00000
