~VERSION
 VERS.        2.00                                                                   :CWLS LOG ASCII STANDARD
 WRAP.        NO                                                                     :NO WRAP PERFORMED
 PROD.        Schlumberger                                                           :LAS Producer
 CREA.        Thu Dec  9 10:37:48 2010                                               :LAS Creation Date and time
~Well
#MNEM.UNIT    VALUE                                                                   :DESCRIPTION
#----.----    ---------------                                                        :-------------------
 STRT.F       5250.000                                                               :START DEPTH
 STOP.F       350.000                                                                :STOP  DEPTH
 STEP.F       -0.500                                                                 :DEPTH STEP
 NULL.        -999.250                                                               :NULL VALUE
 COMP.        ADM COMPANY                                                            :COMPANY NAME
 WELL.        VERIFICATION WELL 1                                                    :WELL NAME
 FLD.         WILDCAT                                                                :FIELD NAME
 API.         121152346000                                                           :API NUMBER
 CNTY.        MACON                                                                  :COUNTY
 STAT.        ILLINOIS                                                               :STATE
 CTRY.        US                                                                     :COUNTRY
 LOC.         LAT 39* 52' 47.5" N                                                    :WELL SURFACE LOCATION LINE 1
 LOC2.        LONG 88* 53' 36.9"                                                     :WELL SURFACE LOCATION LINE 2
 LOC3.                                                                               :WELL SURFACE LOCATION LINE 3
 SECT.        5                                                                      :SECTION
 TOWN.        17 NORTH                                                               :TOWNSHIP
 RANG.        3 EAST                                                                 :RANGE
 LATI.                                                                               :Latitude
 LONG.                                                                               :Longitude
 DATE.        10/24/2010                                                             :LOGGING DATE
 SRVC.        Schlumberger                                                           :SERVICE COMPANY
~Parameter
#MNEM.UNIT    VALUE                                                                  :DESCRIPTION
#----.----    ---------------                                                        :-------------------
 APD.F        15.000                                                                 :Elevation of depth reference above permanent datum
 EDF.F        683.000                                                                :Elevation of Derrick Floor
 EGL.F        669.000                                                                :Elevation of Ground Level
 EKB.F        684.000                                                                :Elevation of Kelly Bushing
 EPD.F        669.000                                                                :Elevation of Permnaent Datum
 LMF.         Kelly Bushing                                                          :Logging Measured From
 PDAT.        Ground Level                                                           :Permanent Datum
 TDD.F        5320.000                                                               :Total Depth Driller
 TDL.F        5322.000                                                               :Total Depth Logger
 BS.IN        12.25                                                                  :Bit Size
 R1.                                                                                 :REMARK 1
 R2.                                                                                 :REMARK 2
 R3.                                                                                 :REMARK 3
 R4.                                                                                 :REMARK 4
 R5.                                                                                 :REMARK 5
 R6.                                                                                 :REMARK 6
 R7.                                                                                 :REMARK 7
 R8.                                                                                 :REMARK 8
 R9.                                                                                 :REMARK 9
 R10.                                                                                :REMARK 10
 DCS_CENTER.  Denver                                                                 :Schlumberger DCS Center
 LOG_ANALYST. Becker                                                                 :Log Analyst Name
 ENG.         DARREN HUNTER                                                          :Field Engineer Name
 GF_BASELINE. GF45LNX                                                                :GeoFrame Baseline
~Curve
#MNEM.UNIT                                                                           :DESCRIPTION
#----.----                                                                           :--------------------------------
 DEPT.F                                                                              :Depth Index
 RLA1.OHMM                                                                           : 1 Apparent Resistivity from Computed Focusing Mode 1                                        
 RLA2.OHMM                                                                           : 2 Apparent Resistivity from Computed Focusing Mode 2                                        
 RLA3.OHMM                                                                           : 3 Apparent Resistivity from Computed Focusing Mode 3                                        
 RLA4.OHMM                                                                           : 4 Apparent Resistivity from Computed Focusing Mode 4                                        
 RLA5.OHMM                                                                           : 5 Apparent Resistivity from Computed Focusing Mode 5                                        
 BS.IN                                                                               : 6 Bit Size                                                                                  
 HCAL.IN                                                                             : 7 HRCC Caliper Calibrated                                                                   
 HDAR.IN                                                                             : 8 Hole Diameter from Area                                                                   
 HD1_PPC1.IN                                                                         : 9 PPC1 Hole Diameter 1                                                                      
 HD2_PPC1.IN                                                                         :10 PPC1 Hole Diameter 2                                                                      
 TENS.LBS                                                                            :11 Cable Tension                                                                             
 GR_EDTC.GAPI                                                                        :12 Gamma Ray                                                                                 
 NPHI.CFCF                                                                           :13 Thermal Neutron Porosity (original Ratio Method) in Selected Lithology                    
 NPOR.CFCF                                                                           :14 Enhanced Thermal Neutron Porosity in Selected Lithology                                   
 PEFZ.                                                                               :15 HRDD Standard Resolution Formation Photoelectric Factor                                   
 RHOZ.G/C3                                                                           :16 HRDD Standard Resolution Formation Density                                                
 DPHZ.CFCF                                                                           :17 Standard Resolution Density Porosity                                                      
 SPHI.CFCF                                                                           :18 Sonic Porosity                                                                            
 VCL_HILT.CFCF                                                                       :19 Volume of Clay type Material relative to Total Volume                                     
 DTCO.US/FT                                                                          :20 Delta-T Compressional                                                                     
 DTSM_FAST.US/FT                                                                     :21 Shear Slowness of Fast Shear Waves                                                        
 DTST.US/FT                                                                          :22 Delta-T Stoneley - Monopole Stoneley                                                      
 PR_FAST.                                                                            :23 Poisson Ratio of Fast Shear Waves                                                         
 VPVS_FAST.                                                                          :24 Vp/Vs Ration of fast shear waves                                                          
 MAXXENE_OVERALL.                                                                    :25 Overall estimate of maximum cross energy                                                  
 MINXENE_OVERALL.                                                                    :26 Overall estimate of minimum cross energy                                                  
 FLAG.                                                                               :27 General Indicator Flag(Bad Borehole)                                                                    
~Ascii   DEPT          RLA1          RLA2          RLA3          RLA4          RLA5            BS          HCAL          HDAR      HD1_PPC1      HD2_PPC1          TENS       GR_EDTC          NPHI          NPOR          PEFZ          RHOZ          DPHZ          SPHI      VCL_HILT          DTCO     DTSM_FAST          DTST       PR_FAST     VPVS_FAST  MAXXENE_OVER  MINXENE_OVER          FLAG
# ...
    3622.50000      65.40922     194.80667     204.32007     212.58791     232.95610      12.25000      12.10532      12.16269      12.14602      12.17936    2439.00000      19.75085       0.02358       0.03936       2.30860       2.64494       0.03804       0.02307       7.20810      54.47722      96.89075     208.91190       0.26804       1.77638       2.66042       0.17431       0.00000
    3622.00000      59.54850     126.50603     126.79211     146.84135     147.48456      12.25000      12.12732      12.17430      12.15720      12.19140    2416.00000      22.51549       0.04928       0.06938       2.51951       2.66897       0.02399       0.02145      11.96845      54.25349      96.93034     209.19521       0.27123       1.78484       2.89876       0.18431       0.00000
    3621.50000      55.79821      96.61882      95.53342      97.27119     101.61248      12.25000      12.14932      12.14600      12.12468      12.16731    2389.00000      29.64874       0.07348       0.10303       2.73625       2.69358       0.00960       0.02543      20.22624      54.80220      97.31037     209.29388       0.26756       1.77514       3.13752       0.19288       0.00000
    3621.00000      55.91326      94.47480      93.99035      94.74394      97.97738      12.25000      12.14932      12.13882      12.13535      12.14229    2432.00000      36.78199       0.09595       0.09605       2.92006       2.72088      -0.00636       0.02918      24.64556      55.31750      97.80859     209.25775       0.26510       1.76878       3.43029       0.19716       0.00000
    3620.50000      55.41138      88.18264      86.66930      87.43241      89.37469      12.25000      12.17132      12.17305      12.17879      12.16731    2386.00000      38.33633       0.09457       0.10298       3.05372       2.71907      -0.00530       0.03056      23.92625      55.50848      98.25290     209.12396       0.26567       1.77025       3.78231       0.19801       0.00000
    3620.00000      54.10110      87.83937      85.08232      85.95215      86.57205      12.25000      12.17132      12.16759      12.16787      12.16731    2338.00000      35.59278       0.09791       0.10768       3.13753       2.71470      -0.00275       0.03068      22.45076      55.52476      98.68983     208.98204       0.26808       1.77650       3.97163       0.20628       0.00000
    3619.50000      55.04806      93.41016      92.24539      93.91148      92.72003      12.25000      12.14932      12.16702      12.17879      12.15524    2404.00000      34.12955       0.09236       0.12287       3.10015       2.71000       0.00000       0.03072      20.83237      55.53030      99.26277     208.91673       0.27193       1.78671       3.96428       0.22038       0.00000
    3619.00000      54.32507      91.52510      92.77811      95.31493      92.81382      12.25000      12.19333      12.16087      12.17854      12.14320    2427.00000      36.54741       0.10714       0.12108       2.99393       2.70378       0.00363       0.03136      18.54830      55.61857      99.92645     208.95654       0.27591       1.79758       3.95840       0.22980       0.00000
    3618.50000      54.09534      90.52496      96.11653     100.70811      96.35164      12.25000      12.17132      12.17838      12.18946      12.16731    2358.00000      36.73031       0.09530       0.09555       2.86411       2.70732       0.00157       0.03281      18.44250      55.81832     100.47398     209.06224       0.27716       1.80106       3.97175       0.23196       0.00000
    3618.00000      52.46983      80.62325      86.30084      91.31821      87.16118      12.25000      12.14932      12.12720      12.13535      12.11906    2314.00000      41.30291       0.10624       0.07967       2.86599       2.70979       0.00012       0.03390      23.27495      55.96850     100.85742     209.09538       0.27749       1.80196       3.91902       0.23910       0.00000
    3617.50000      52.56332      81.96358      88.48560      93.30272      87.76608      12.25000      12.13832      12.16213      12.15695      12.16731    2335.00000      43.54807       0.09801       0.12065       2.97460       2.71807      -0.00472       0.03474      28.68629      56.08344     101.24130     208.97141       0.27832       1.80430       3.82759       0.24810       0.00000
    3617.00000      52.56480      80.63020      84.75291      89.06039      83.33002      12.25000      12.17132      12.15007      12.15695      12.14319    2369.00000      48.30357       0.10413       0.11238       3.12278       2.71756      -0.00442       0.03583      29.74047      56.23399     101.71291     208.79385       0.27999       1.80904       3.79046       0.24672       0.00000
    3616.50000      52.70734      83.39522      87.42171      90.11988      84.70136      12.25000      12.17132      12.16156      12.16787      12.15524    2333.00000      45.29422       0.09319       0.10541       3.19929       2.70903       0.00056       0.03661      25.72292      56.34081     102.15691     208.78822       0.28171       1.81399       3.78566       0.24290       0.00000
    3616.00000      53.21728      82.12593      84.21310      85.41589      81.17479      12.25000      12.17132      12.16028      12.18946      12.13111    2336.00000      41.98498       0.09562       0.10775       3.15404       2.70779       0.00130       0.03683      21.36576      56.37216     102.43291     208.93849       0.28316       1.81819       3.74779       0.23812       0.00000
    3615.50000      52.29313      81.29419      82.41114      82.32707      78.93359      12.25000      12.16032      12.16632      12.18946      12.14319    2366.00000      36.25171       0.11362       0.12393       3.08424       2.69324       0.00980       0.03686      15.78774      56.37566     102.47544     208.97360       0.28339       1.81886       3.63980       0.23041       0.00000
    3615.00000      52.48672      80.15611      79.37946      79.43659      76.89854      12.25000      12.14932      12.14347      12.16787      12.11906    2370.00000      30.88262       0.13264       0.14570       3.01043       2.67577       0.02002       0.03728      13.82537      56.43312     102.30375     208.91496       0.28146       1.81325       3.49821       0.21774       0.00000
    3614.50000      54.36399      91.01126      92.08406      89.38359      87.59343      12.25000      12.12732      12.14851      12.16499      12.13202    2348.00000      34.17489       0.12994       0.11760       2.97771       2.66547       0.02604       0.03804      14.18128      56.53842     101.95776     208.85718       0.27837       1.80445       3.46961       0.20435       0.00000
    3614.00000      54.31705      86.13799      85.32064      87.71499      86.67187      12.25000      12.12732      12.10434      12.11375      12.09493    2353.00000      40.45688       0.12946       0.13574       2.95413       2.69475       0.00892       0.03877      17.40476      56.63886     101.49149     208.79675       0.27366       1.79139       3.56299       0.19685       0.00000
    3613.50000      55.03775      82.82724      81.45894      82.25155      81.88695      12.25000      12.14932      12.15077      12.18416      12.11737    2365.09082      44.95776       0.11903       0.12648       2.96975       2.73216      -0.01296       0.03753      25.13546      56.46826     100.89429     208.71385       0.27278       1.78898       3.65210       0.19344       0.00000
    3613.00000      54.50575      80.48267      79.57763      81.15598      81.56689      12.25000      12.13832      12.15426      12.18946      12.11906    2396.97876      42.14836       0.12806       0.13034       3.02022       2.75542      -0.02656       0.03158      23.31747      55.64884      99.98721     208.53554       0.27617       1.79830       3.73459       0.19430       0.00000
    3612.50000      54.85257      87.97173      85.61645      85.87846      87.79153      12.25000      12.12732      12.15426      12.18946      12.11907    2372.74609      35.98856       0.10560       0.10369       3.04510       2.76838      -0.03414       0.02041      17.76561      54.10988      98.74750     208.20670       0.28566       1.82557       3.85144       0.19401       0.00000
