~VERSION
 VERS.        2.00                                                                   :CWLS LOG ASCII STANDARD
 WRAP.        NO                                                                     :NO WRAP PERFORMED
 PROD.        Schlumberger                                                           :LAS Producer
 CREA.        Thu Dec  9 10:37:48 2010                                               :LAS Creation Date and time
~Well
#MNEM.UNIT    VALUE                                                                   :DESCRIPTION
#----.----    ---------------                                                        :-------------------
 STRT.F       5250.000                                                               :START DEPTH
 STOP.F       350.000                                                                :STOP  DEPTH
 STEP.F       -0.500                                                                 :DEPTH STEP
 NULL.        -999.250                                                               :NULL VALUE
 COMP.        ADM COMPANY                                                            :COMPANY NAME
 WELL.        VERIFICATION WELL 1                                                    :WELL NAME
 FLD.         WILDCAT                                                                :FIELD NAME
 API.         121152346000                                                           :API NUMBER
 CNTY.        MACON                                                                  :COUNTY
 STAT.        ILLINOIS                                                               :STATE
 CTRY.        US                                                                     :COUNTRY
 LOC.         LAT 39* 52' 47.5" N                                                    :WELL SURFACE LOCATION LINE 1
 LOC2.        LONG 88* 53' 36.9"                                                     :WELL SURFACE LOCATION LINE 2
 LOC3.                                                                               :WELL SURFACE LOCATION LINE 3
 SECT.        5                                                                      :SECTION
 TOWN.        17 NORTH                                                               :TOWNSHIP
 RANG.        3 EAST                                                                 :RANGE
 LATI.                                                                               :Latitude
 LONG.                                                                               :Longitude
 DATE.        10/24/2010                                                             :LOGGING DATE
 SRVC.        Schlumberger                                                           :SERVICE COMPANY
~Parameter
#MNEM.UNIT    VALUE                                                                  :DESCRIPTION
#----.----    ---------------                                                        :-------------------
 APD.F        15.000                                                                 :Elevation of depth reference above permanent datum
 EDF.F        683.000                                                                :Elevation of Derrick Floor
 EGL.F        669.000                                                                :Elevation of Ground Level
 EKB.F        684.000                                                                :Elevation of Kelly Bushing
 EPD.F        669.000                                                                :Elevation of Permnaent Datum
 LMF.         Kelly Bushing                                                          :Logging Measured From
 PDAT.        Ground Level                                                           :Permanent Datum
 TDD.F        5320.000                                                               :Total Depth Driller
 TDL.F        5322.000                                                               :Total Depth Logger
 BS.IN        12.25                                                                  :Bit Size
 R1.                                                                                 :REMARK 1
 R2.                                                                                 :REMARK 2
 R3.                                                                                 :REMARK 3
 R4.                                                                                 :REMARK 4
 R5.                                                                                 :REMARK 5
 R6.                                                                                 :REMARK 6
 R7.                                                                                 :REMARK 7
 R8.                                                                                 :REMARK 8
 R9.                                                                                 :REMARK 9
 R10.                                                                                :REMARK 10
 DCS_CENTER.  Denver                                                                 :Schlumberger DCS Center
 LOG_ANALYST. Becker                                                                 :Log Analyst Name
 ENG.         DARREN HUNTER                                                          :Field Engineer Name
 GF_BASELINE. GF45LNX                                                                :GeoFrame Baseline
~Curve
#MNEM.UNIT                                                                           :DESCRIPTION
#----.----                                                                           :--------------------------------
 DEPT.F                                                                              :Depth Index
 RLA1.OHMM                                                                           : 1 Apparent Resistivity from Computed Focusing Mode 1                                        
 RLA2.OHMM                                                                           : 2 Apparent Resistivity from Computed Focusing Mode 2                                        
 RLA3.OHMM                                                                           : 3 Apparent Resistivity from Computed Focusing Mode 3                                        
 RLA4.OHMM                                                                           : 4 Apparent Resistivity from Computed Focusing Mode 4                                        
 RLA5.OHMM                                                                           : 5 Apparent Resistivity from Computed Focusing Mode 5                                        
 BS.IN                                                                               : 6 Bit Size                                                                                  
 HCAL.IN                                                                             : 7 HRCC Caliper Calibrated                                                                   
 HDAR.IN                                                                             : 8 Hole Diameter from Area                                                                   
 HD1_PPC1.IN                                                                         : 9 PPC1 Hole Diameter 1                                                                      
 HD2_PPC1.IN                                                                         :10 PPC1 Hole Diameter 2                                                                      
 TENS.LBS                                                                            :11 Cable Tension                                                                             
 GR_EDTC.GAPI                                                                        :12 Gamma Ray                                                                                 
 NPHI.CFCF                                                                           :13 Thermal Neutron Porosity (original Ratio Method) in Selected Lithology                    
 NPOR.CFCF                                                                           :14 Enhanced Thermal Neutron Porosity in Selected Lithology                                   
 PEFZ.                                                                               :15 HRDD Standard Resolution Formation Photoelectric Factor                                   
 RHOZ.G/C3                                                                           :16 HRDD Standard Resolution Formation Density                                                
 DPHZ.CFCF                                                                           :17 Standard Resolution Density Porosity                                                      
 SPHI.CFCF                                                                           :18 Sonic Porosity                                                                            
 VCL_HILT.CFCF                                                                       :19 Volume of Clay type Material relative to Total Volume                                     
 DTCO.US/FT                                                                          :20 Delta-T Compressional                                                                     
 DTSM_FAST.US/FT                                                                     :21 Shear Slowness of Fast Shear Waves                                                        
 DTST.US/FT                                                                          :22 Delta-T Stoneley - Monopole Stoneley                                                      
 PR_FAST.                                                                            :23 Poisson Ratio of Fast Shear Waves                                                         
 VPVS_FAST.                                                                          :24 Vp/Vs Ration of fast shear waves                                                          
 MAXXENE_OVERALL.                                                                    :25 Overall estimate of maximum cross energy                                                  
 MINXENE_OVERALL.                                                                    :26 Overall estimate of minimum cross energy                                                  
 FLAG.                                                                               :27 General Indicator Flag(Bad Borehole)                                                                    
~Ascii   DEPT          RLA1          RLA2          RLA3          RLA4          RLA5            BS          HCAL          HDAR      HD1_PPC1      HD2_PPC1          TENS       GR_EDTC          NPHI          NPOR          PEFZ          RHOZ          DPHZ          SPHI      VCL_HILT          DTCO     DTSM_FAST          DTST       PR_FAST     VPVS_FAST  MAXXENE_OVER  MINXENE_OVER          FLAG
# ...
     682.50000      30.65958      24.14672      23.67507      22.32825      21.63119      12.25000      12.19333      12.23133      12.29449      12.16818    1683.00000     100.61337       0.28284       0.28079       4.11338       2.62792       0.04800       0.18574      62.35142      76.87643     210.70590     238.35614       0.42356       2.74604      11.44505       9.21640       0.00000
     682.00000      13.19927      10.70049      10.36684      10.25541       9.93799      12.25000      12.28134      12.25425      12.31623      12.19227    1736.00000     121.79990       0.40498       0.44021       4.15249       2.50439       0.12024       0.29063      90.84560      91.32031     224.88980     246.44164       0.40110       2.46085      10.81446       8.75729       0.00000
     681.50000       6.52557       5.53214       5.42685       5.43747       5.33434      12.25000      14.06351      12.70690      13.05323      12.36057    1780.00000     131.70749       0.44868       0.46068       4.03309       2.39528       0.18405       0.37895     100.00000     103.48116     237.30853     249.28871       0.38464       2.30962      10.81500       8.18085       0.00000
     681.00000       4.44965       3.85597       3.73712       3.78685       3.63566      12.25000      14.26153      13.64458      14.89260      12.39657    1736.00000     122.00140       0.44254       0.39840       3.75156       2.29110       0.24497       0.42801     100.00000     110.23651     245.55301     248.22871       0.37501       2.23614      10.94877       7.14295       1.00000
     680.50000       4.24858       3.79346       3.60789       3.65702       3.51904      12.25000      14.43755      14.19207      15.68865      12.69549    1763.00000     110.14706       0.43341       0.38951       3.50704       2.21448       0.28978       0.43697      93.62278     111.47023     250.05524     245.87509       0.37618       2.24456      11.09308       6.35409       1.00000
     680.00000       4.41617       4.06212       3.85733       3.87332       3.74846      12.25000      14.06351      13.97036      15.64019      12.30053    1698.00000     104.81006       0.40236       0.36777       3.42048       2.23227       0.27938       0.42554      84.24456     109.89696     253.10802     243.95444       0.38407       2.30501      11.16610       6.61252       1.00000
     679.50000       4.48904       4.34943       4.16510       4.09729       3.98859      12.25000      13.81049      12.96651      13.63255      12.30047    1717.00000      99.31183       0.33685       0.31270       3.50638       2.33074       0.22179       0.40470      85.04329     107.02788     255.25201     242.58818       0.39370       2.38820      11.19519       7.23463       1.00000
     679.00000       4.51059       4.50155       4.39268       4.29909       4.21230      12.25000      12.96340      12.60471      12.95701      12.25242    1704.00000     100.92806       0.29541       0.28478       3.51790       2.47578       0.13697       0.39728      85.71167     106.00542     256.07751     242.10587       0.39700       2.41957      10.14738       6.50695       0.00000
     678.50000       4.38226       4.43930       4.47878       4.36243       4.28912      12.25000      12.52336      12.60894      12.91808      12.29980    1740.00000     102.57346       0.30358       0.30572       3.38962       2.53322       0.10338       0.39884      86.58934     106.21979     255.63809     241.99037       0.39576       2.40757       9.10692       4.85518       0.00000
     678.00000       4.22463       4.24332       4.34703       4.27018       4.19533      12.25000      12.75438      12.47485      12.64926      12.30044    1744.44446     104.05318       0.32192       0.35940       3.25158       2.56322       0.08584       0.40419      79.68729     106.95686     254.57414     241.93741       0.39285       2.38042       9.30446       3.91897       0.00000
     677.50000       4.10447       4.09969       4.25199       4.23537       4.13313      12.25000      12.50136      12.42697      12.59081      12.26312    1731.77783     103.66936       0.33871       0.34128       3.19728       2.56653       0.08390       0.40746      80.27701     107.40749     253.51950     241.87090       0.39045       2.35888      10.20212       3.73260       0.00000
     677.00000       4.20932       4.12969       4.23293       4.31085       4.20409      12.25000      12.50136      12.55971      12.87501      12.24441    1703.33337     102.18647       0.35120       0.33475       3.25663       2.56713       0.08355       0.40942      81.58975     107.67709     252.83104     241.70462       0.38913       2.34733      11.31964       3.82838       0.00000
     676.50000       4.23815       4.14589       4.21213       4.35878       4.25269      12.25000      12.52336      12.49660      12.76616      12.22704    1724.88892     100.79918       0.34262       0.30176       3.32967       2.56632       0.08402       0.41095      79.42755     107.88817     252.47977     241.53017       0.38828       2.33998      11.83959       3.86568       0.00000
     676.00000       4.37455       4.24725       4.30550       4.46449       4.39795      12.25000      12.52336      12.50194      12.76616      12.23772    1733.77783      99.66154       0.33512       0.31258       3.38325       2.56105       0.08710       0.41209      76.43790     108.04431     252.26749     241.40192       0.38766       2.33472      12.07016       3.83623       0.00000
     675.50000       4.37115       4.21652       4.26048       4.40223       4.37323      12.25000      12.54536      12.56756      12.87870      12.25642    1703.66663      98.52008       0.31494       0.37141       3.37360       2.54896       0.09417       0.41228      72.82596     108.07131     252.04807     241.33647       0.38743       2.33278      12.33872       3.76253       0.00000
     675.00000       4.33142       4.20522       4.24370       4.35553       4.37952      12.25000      12.56736      12.41879      12.59718      12.24040    1691.22217      98.62303       0.32651       0.31376       3.35053       2.54425       0.09693       0.41052      75.58190     107.82890     251.52582     241.32195       0.38764       2.33449      12.75385       3.63550       0.00000
     674.50000       4.41659       4.28129       4.30522       4.38341       4.48497      12.25000      12.56736      12.42181      12.60322      12.24040    1697.22217     102.00412       0.32362       0.32808       3.33938       2.55133       0.09279       0.40560      77.38308     107.15166     250.52026     241.28999       0.38808       2.33824      13.41350       3.46983       0.00000
     674.00000       4.57735       4.38926       4.39659       4.46231       4.59192      12.25000      12.56736      12.41230      12.58421      12.24040    1683.00000     101.16592       0.33773       0.38976       3.34766       2.57541       0.07871       0.39901      80.55994     106.24309     248.75380     241.16106       0.38900       2.34617      13.91745       3.01319       0.00000
     673.50000       4.80146       4.51982       4.49388       4.55965       4.72348      12.25000      12.56736      12.40426      12.56535      12.24316    1758.28577     101.50320       0.37565       0.33235       3.33783       2.57829       0.07702       0.39638      78.80460     105.88154     245.41663     240.78220       0.38624       2.32280      13.73234       2.43452       0.00000
     673.00000       4.93645       4.66926       4.66188       4.73982       4.93513      12.25000      12.61137      12.44942      12.64469      12.25415    1749.42859      92.77155       0.37545       0.34923       3.30702       2.50142       0.12198       0.39525      76.12637     105.72574     241.17493     240.22661       0.38025       2.27494      13.47807       2.14572       0.00000
     672.50000       4.91514       4.72628       4.75175       4.85220       5.07918      12.25000      13.82149      12.81396      13.36346      12.26445    1721.28577      89.44530       0.37290       0.33770       3.34695       2.42234       0.16822       0.39415      70.73546     105.57428     237.48915     240.02965       0.37715       2.25168      13.56332       2.00044       0.42857
