~VERSION
 VERS.        2.00                                                                   :CWLS LOG ASCII STANDARD
 WRAP.        NO                                                                     :NO WRAP PERFORMED
 PROD.        Schlumberger                                                           :LAS Producer
 CREA.        Thu Dec  9 10:37:48 2010                                               :LAS Creation Date and time
~Well
#MNEM.UNIT    VALUE                                                                   :DESCRIPTION
#----.----    ---------------                                                        :-------------------
 STRT.F       5250.000                                                               :START DEPTH
 STOP.F       350.000                                                                :STOP  DEPTH
 STEP.F       -0.500                                                                 :DEPTH STEP
 NULL.        -999.250                                                               :NULL VALUE
 COMP.        ADM COMPANY                                                            :COMPANY NAME
 WELL.        VERIFICATION WELL 1                                                    :WELL NAME
 FLD.         WILDCAT                                                                :FIELD NAME
 API.         121152346000                                                           :API NUMBER
 CNTY.        MACON                                                                  :COUNTY
 STAT.        ILLINOIS                                                               :STATE
 CTRY.        US                                                                     :COUNTRY
 LOC.         LAT 39* 52' 47.5" N                                                    :WELL SURFACE LOCATION LINE 1
 LOC2.        LONG 88* 53' 36.9"                                                     :WELL SURFACE LOCATION LINE 2
 LOC3.                                                                               :WELL SURFACE LOCATION LINE 3
 SECT.        5                                                                      :SECTION
 TOWN.        17 NORTH                                                               :TOWNSHIP
 RANG.        3 EAST                                                                 :RANGE
 LATI.                                                                               :Latitude
 LONG.                                                                               :Longitude
 DATE.        10/24/2010                                                             :LOGGING DATE
 SRVC.        Schlumberger                                                           :SERVICE COMPANY
~Parameter
#MNEM.UNIT    VALUE                                                                  :DESCRIPTION
#----.----    ---------------                                                        :-------------------
 APD.F        15.000                                                                 :Elevation of depth reference above permanent datum
 EDF.F        683.000                                                                :Elevation of Derrick Floor
 EGL.F        669.000                                                                :Elevation of Ground Level
 EKB.F        684.000                                                                :Elevation of Kelly Bushing
 EPD.F        669.000                                                                :Elevation of Permnaent Datum
 LMF.         Kelly Bushing                                                          :Logging Measured From
 PDAT.        Ground Level                                                           :Permanent Datum
 TDD.F        5320.000                                                               :Total Depth Driller
 TDL.F        5322.000                                                               :Total Depth Logger
 BS.IN        12.25                                                                  :Bit Size
 R1.                                                                                 :REMARK 1
 R2.                                                                                 :REMARK 2
 R3.                                                                                 :REMARK 3
 R4.                                                                                 :REMARK 4
 R5.                                                                                 :REMARK 5
 R6.                                                                                 :REMARK 6
 R7.                                                                                 :REMARK 7
 R8.                                                                                 :REMARK 8
 R9.                                                                                 :REMARK 9
 R10.                                                                                :REMARK 10
 DCS_CENTER.  Denver                                                                 :Schlumberger DCS Center
 LOG_ANALYST. Becker                                                                 :Log Analyst Name
 ENG.         DARREN HUNTER                                                          :Field Engineer Name
 GF_BASELINE. GF45LNX                                                                :GeoFrame Baseline
~Curve
#MNEM.UNIT                                                                           :DESCRIPTION
#----.----                                                                           :--------------------------------
 DEPT.F                                                                              :Depth Index
 RLA1.OHMM                                                                           : 1 Apparent Resistivity from Computed Focusing Mode 1                                        
 RLA2.OHMM                                                                           : 2 Apparent Resistivity from Computed Focusing Mode 2                                        
 RLA3.OHMM                                                                           : 3 Apparent Resistivity from Computed Focusing Mode 3                                        
 RLA4.OHMM                                                                           : 4 Apparent Resistivity from Computed Focusing Mode 4                                        
 RLA5.OHMM                                                                           : 5 Apparent Resistivity from Computed Focusing Mode 5                                        
 BS.IN                                                                               : 6 Bit Size                                                                                  
 HCAL.IN                                                                             : 7 HRCC Caliper Calibrated                                                                   
 HDAR.IN                                                                             : 8 Hole Diameter from Area                                                                   
 HD1_PPC1.IN                                                                         : 9 PPC1 Hole Diameter 1                                                                      
 HD2_PPC1.IN                                                                         :10 PPC1 Hole Diameter 2                                                                      
 TENS.LBS                                                                            :11 Cable Tension                                                                             
 GR_EDTC.GAPI                                                                        :12 Gamma Ray                                                                                 
 NPHI.CFCF                                                                           :13 Thermal Neutron Porosity (original Ratio Method) in Selected Lithology                    
 NPOR.CFCF                                                                           :14 Enhanced Thermal Neutron Porosity in Selected Lithology                                   
 PEFZ.                                                                               :15 HRDD Standard Resolution Formation Photoelectric Factor                                   
 RHOZ.G/C3                                                                           :16 HRDD Standard Resolution Formation Density                                                
 DPHZ.CFCF                                                                           :17 Standard Resolution Density Porosity                                                      
 SPHI.CFCF                                                                           :18 Sonic Porosity                                                                            
 VCL_HILT.CFCF                                                                       :19 Volume of Clay type Material relative to Total Volume                                     
 DTCO.US/FT                                                                          :20 Delta-T Compressional                                                                     
 DTSM_FAST.US/FT                                                                     :21 Shear Slowness of Fast Shear Waves                                                        
 DTST.US/FT                                                                          :22 Delta-T Stoneley - Monopole Stoneley                                                      
 PR_FAST.                                                                            :23 Poisson Ratio of Fast Shear Waves                                                         
 VPVS_FAST.                                                                          :24 Vp/Vs Ration of fast shear waves                                                          
 MAXXENE_OVERALL.                                                                    :25 Overall estimate of maximum cross energy                                                  
 MINXENE_OVERALL.                                                                    :26 Overall estimate of minimum cross energy                                                  
 FLAG.                                                                               :27 General Indicator Flag(Bad Borehole)                                                                    
~Ascii   DEPT          RLA1          RLA2          RLA3          RLA4          RLA5            BS          HCAL          HDAR      HD1_PPC1      HD2_PPC1          TENS       GR_EDTC          NPHI          NPOR          PEFZ          RHOZ          DPHZ          SPHI      VCL_HILT          DTCO     DTSM_FAST          DTST       PR_FAST     VPVS_FAST  MAXXENE_OVER  MINXENE_OVER          FLAG
# ...
    1984.50000       8.01916       7.75449       7.81980       8.04572       8.26778      12.25000      12.28134      12.25461      12.32990      12.17933    2026.00000      66.30982       0.22158       0.21240       3.71850       2.61214       0.05723       0.23458      49.88258      83.60126     159.37479     217.57002       0.30844       1.90005       1.79982       0.26087       0.00000
    1984.00000       8.30752       7.99062       8.06761       8.26850       8.47192      12.25000      12.28134      12.24973      12.31925      12.18020    2008.00000      69.57061       0.21837       0.20665       3.69827       2.61267       0.05692       0.23303      47.77421      83.38846     158.94171     217.49820       0.30992       1.90538       1.84264       0.27270       0.00000
    1983.50000       8.13937       7.89820       7.98031       8.17197       8.35587      12.25000      12.32534      12.24147      12.32687      12.15608    2012.00000      72.31296       0.22630       0.21584       3.69958       2.60254       0.06284       0.23405      48.95651      83.52835     159.21286     217.45862       0.30990       1.90531       1.86146       0.29063       0.00000
    1983.00000       7.81882       7.60883       7.68142       7.83938       8.00808      12.25000      12.33634      12.26970      12.35923      12.18017    2004.00000      67.80467       0.23148       0.21059       3.65872       2.59968       0.06451       0.23850      54.40314      84.14169     160.28276     217.49649       0.30777       1.89763       1.87578       0.30857       0.00000
    1982.50000       7.57985       7.35302       7.41531       7.52445       7.69686      12.25000      12.34734      12.27501      12.36985      12.18017    1992.00000      67.23444       0.21585       0.19160       3.63191       2.59537       0.06704       0.24397      54.75454      84.89522     162.00244     217.62408       0.31276       1.91581       1.89090       0.32884       0.00000
    1982.00000       7.32869       7.09032       7.16048       7.23801       7.38828      12.25000      12.34734      12.26898      12.36985      12.16811    2073.00000      66.61945       0.21538       0.20701       3.57565       2.60127       0.06359       0.24882      55.07008      85.56230     163.06541     217.73148       0.31000       1.90566       1.88527       0.35395       0.00000
    1981.50000       7.20466       6.94028       7.01610       7.07590       7.21758      12.25000      12.36934      12.28204      12.37029      12.19380    2020.14282      73.01126       0.20519       0.21666       3.51203       2.61260       0.05696       0.25228      51.38889      86.03945     163.48331     217.79544       0.30855       1.90044       1.84268       0.38309       0.00000
    1981.00000       7.02109       6.80943       6.78821       6.83976       6.96911      12.25000      12.36934      12.28613      12.37204      12.20022    2080.14282      74.44558       0.20503       0.18971       3.48919       2.61885       0.05330       0.25224      49.28051      86.03332     163.43898     217.87431       0.30969       1.90456       1.78350       0.41206       0.00000
    1980.50000       7.19437       6.98384       6.96064       6.98824       7.10297      12.25000      12.39135      12.27845      12.36985      12.18704    2061.71436      74.79091       0.19084       0.19810       3.49068       2.61795       0.05383       0.24904      47.52354      85.59241     162.23456     217.95993       0.30813       1.89892       1.71397       0.43901       0.00000
    1980.00000       7.54279       7.29575       7.30009       7.30870       7.45173      12.25000      12.39135      12.28253      12.37160      12.19346    2076.57153      72.57294       0.19814       0.20016       3.58722       2.60110       0.06369       0.24417      49.50763      84.92173     160.18900     217.99158       0.30396       1.88429       1.65476       0.47085       0.00000
    1979.50000       7.64421       7.40920       7.44273       7.44488       7.63599      12.25000      12.36934      12.27310      12.34219      12.20402    2056.85718      71.79825       0.20634       0.21545       3.64181       2.59895       0.06494       0.23765      51.79170      84.02377     158.62225     217.95897       0.30349       1.88266       1.59146       0.51221       0.00000
    1979.00000       7.73869       7.53252       7.52605       7.52683       7.74022      12.25000      12.36934      12.27904      12.36414      12.19395    2061.14282      67.60290       0.21419       0.22198       3.69668       2.60970       0.05865       0.22683      51.61601      82.53499     157.18602     217.78600       0.31267       1.91549       1.50832       0.55699       0.00000
    1978.50000       8.24283       8.01123       7.99959       8.01832       8.27798      12.25000      12.34734      12.26063      12.32990      12.19136    2042.00000      62.49287       0.20279       0.18659       3.69856       2.62914       0.04729       0.21491      45.61435      80.89273     154.91858     217.33759       0.31072       1.90828       1.45300       0.60052       0.00000
    1978.00000       9.47571       9.19055       9.23259       9.33526       9.66643      12.25000      12.34734      12.23928      12.30787      12.17069    2059.77783      60.18918       0.18986       0.18725       3.69246       2.63557       0.04353       0.21158      40.69482      80.43471     153.25711     216.87108       0.30850       1.90026       1.42106       0.65117       0.00000
    1977.50000       9.93933       9.48277       9.50134       9.64050      10.06851      12.25000      12.33634      12.23855      12.29090      12.18620    2051.88892      64.02490       0.19510       0.19248       3.68494       2.62661       0.04876       0.21114      41.92470      80.37331     152.72134     216.55615       0.30932       1.90322       1.40924       0.71121       0.00000
    1977.00000       9.02907       8.46379       8.45320       8.61521       9.06398      12.25000      12.34734      12.24557      12.29919      12.19194    2052.33325      64.74236       0.20474       0.20850       3.61220       2.63450       0.04415       0.21084      46.28519      80.33282     152.06342     216.43361       0.30658       1.89341       1.46544       0.77335       0.00000
    1976.50000       8.45114       8.04013       8.02508       8.20756       8.64536      12.25000      12.32534      12.24341      12.29507      12.19175    2075.11108      62.49880       0.21812       0.20223       3.59505       2.64406       0.03856       0.20802      45.58241      79.94413     151.17911     216.39853       0.30556       1.88983       1.59698       0.83024       0.00000
    1976.00000       9.16759       8.77098       8.79428       8.98443       9.53682      12.25000      12.30334      12.22149      12.26769      12.17530    2051.55566      59.00871       0.19328       0.17921       3.62053       2.64785       0.03634       0.20270      46.77231      79.21243     150.58430     216.34140       0.30825       1.89936       1.74491       0.87881       0.00000
    1975.50000      10.24934       9.97932      10.11193      10.29966      11.09584      12.25000      12.29234      12.20473      12.24994      12.15951    2018.00000      56.48651       0.18483       0.17004       3.68520       2.63729       0.04252       0.19723      43.60975      78.45876     150.48553     216.23088       0.31289       1.91631       1.84669       0.92099       0.00000
    1975.00000       9.45509       9.22429       9.27967       9.41268      10.24071      12.25000      12.30334      12.22016      12.26953      12.17079    2047.33337      56.82797       0.17523       0.19634       3.65744       2.63831       0.04192       0.19418      43.24050      78.03798     150.84290     216.14590       0.31708       1.93222       1.89896       0.95526       0.00000
    1974.50000       9.04438       8.99785       9.05338       9.15102       9.96180      12.25000      12.29234      12.23491      12.29234      12.17749    2035.88892      59.25524       0.18051       0.17016       3.59460       2.64460       0.03825       0.19456      35.90118      78.09049     151.50008     216.22737       0.31892       1.93937       1.93513       0.98025       0.00000
