~Version
 VERS              .         3.0                           : CWLS LOG ASCII STANDARD - VERSION 3.0
 WRAP              .         NO                            : ONE LINE PER DEPTH STEP
 DLM               .         SPACE                         : DELIMITING CHARACTER(SPACE TAB OR COMMA)
~Well Information
#_______________________________________________________________________________
#
#PARAMETER_NAME    .UNIT     VALUE                         : DESCRIPTION
#_______________________________________________________________________________
STRT               .ft       4357.25000                    : First reference value
STOP               .ft       6466.75000                    : Last reference value
STEP               .ft       0.50000                       : Step increment
NULL               .         -9999                         : Missing value
COMP               .         Podolsky Oil Company          : Company
WELL               .         T_R_ McMillen #2              : Well name
FLD                .         Mount Auburn                  : Field
LOC                .                                       : Location
SRVC               .                                       : Service Company
CTRY               .         US                            : Country
STAT               .         Illinois                      : State
CNTY               .                                       : County
API                .                                       : API NUMBER
DATE               .         03-Dec-2018                   : Service Date
LATI               .         39.772784 degrees             : Latitude
LONG               .         -89.203412 degrees            : Longitude
GDAT               .                                       : Geodetic Datum
APD                .ft       15                            : Elevation of Depth Reference (LMF) Above Permanent Datum
BHS                .         OPEN                          : Borehole Status (Open or Cased Hole)
BHT                .degF     103                           : Bottom Hole Temperature
BLI                .ft       6475                          : Bottom Log Interval
BS                 .in       6.75                          : Bit Size
CBDR               .ft       4355                          : Casing Bottom of Driller
CBLO               .ft       4353                          : Logger Casing Shoe Depth
CSIZ               .in       7.625                         : Current Casing Size
CWEI               .lbm/ft   11.6                          : Casing Weight
COUNTRY            .         United States                 : Nation
DCS                .         03-Dec-2018                   : Date Circulation Stopped
DFD                .lbm/gal  9.25                          : Drilling Fluid Density
DFT                .         WATER                         : Drilling Fluid Type
DLAB               .         03-Dec-2018                   : Date Logger At Bottom
EDF                .ft       618                           : Elevation of Drill Floor
EGL                .ft       603                           : Elevation of Ground Level
EKB                .ft       618                           : Elevation of Kelly Bushing
EPD                .ft       603                           : Elevation of Permanent Datum (PDAT) above Mean Sea Level
LMF                .         KB                            : Logging Measured From (Name of Logging Elevation Reference)
LUL                .         Bradford                      : Logging Unit Location
LUN                .         3703                          : Logging Unit Number
MCST               .degF     71.2                          : Mudcake Sample Temperature
MFST               .degF     69.1                          : Mud Filtrate Sample Temperature
MRT                .degF     103                           : Maximum Recorded Temperature
MST                .degF     59.2                          : Mud Sample Temperature
PDAT               .         GL                            : Permanent Datum
PRODUCER-CODE      .         440                           : 
PRODUCER-NAME      .         Schlumberger                  : 
RMB                .ohm.m    0.835368                      : Resistivity of Mud at Bottom Hole Temperature
RMCS               .ohm.m    1.55                          : Resistivity of Mud Cake Sample
RMFS               .ohm.m    1.26                          : Resistivity of Mud Filtrate Sample
RMS                .ohm.m    1.39                          : Resistivity of Mud Sample
RUN                .         2A                            : Run Number
TCS                .         08_00_00                      : Time Circulation Stopped
TDD                .ft       6469                          : Driller Total Depth
TDL                .ft       6475                          : Logger Total Depth
TLAB               .         17_50_00                      : Time Logger At Bottom
TLI                .ft       4353                          : Top Log Interval
~Parameter Information Block
#_______________________________________________________________________________
#
#PARAMETER_NAME    .UNIT     VALUE                         : DESCRIPTION
#_______________________________________________________________________________
SET                .         01_Elan                       : 
TLFamily_Bound_Water .         Bound Water Volume Fraction   : 
TLFamily_Calcite   .         Calcite Volume Fraction       : 
TLFamily_Chlorite  .         Chlorite Volume Fraction      : 
TLFamily_Dolomite  .         Dolomite Volume Fraction      : 
TLFamily_Dry_Weight_Calcite .         Calcite Weight Fraction       : 
TLFamily_Dry_Weight_Chlorite .         Chlorite Weight Fraction      : 
TLFamily_Dry_Weight_Dolomite .         Dolomite Weight Fraction      : 
TLFamily_Dry_Weight_Hematite .         Hematite Weight Fraction      : 
TLFamily_Dry_Weight_Illite .         Illite Weight Fraction        : 
TLFamily_Dry_Weight_K-Feldspar .         Orthoclase Weight Fraction    : 
TLFamily_Dry_Weight_Kaolinite .         Kaolinite Weight Fraction     : 
TLFamily_Dry_Weight_Quartz .         Quartz Weight Fraction        : 
TLFamily_Hematite  .         Hematite Volume Fraction      : 
TLFamily_Illite    .         Illite Volume Fraction        : 
TLFamily_K-Feldspar .         Orthoclase Volume Fraction    : 
TLFamily_KINT_GEO  .         Permeability                  : 
TLFamily_KSDR_py   .         NMR Permeability              : 
TLFamily_Kaolinite .         Kaolinite Volume Fraction     : 
TLFamily_MD        .         Measured Depth                : 
TLFamily_PHIT      .         Total Porosity                : 
TLFamily_PIGE      .         Effective Porosity            : 
TLFamily_PIGN      .         Effective Porosity            : 
TLFamily_Quartz    .         Quartz Volume Fraction        : 
TLFamily_RHGA_GEO  .         Grain Density                 : 
TLFamily_SW        .         Water Saturation              : 
TLFamily_SWE       .         Water Saturation              : 
TLFamily_UWater    .         Undisturbed Zone Water Volume Fraction: 
TLFamily_VCL_GEO   .         Clay Volume Fraction          : 
~Curve Information
#_______________________________________________________________________________
#
#LOGNAME           .UNIT     LOG_ID                        : DESCRIPTION
#_______________________________________________________________________________
MD                 .ft                                     :  {F}
Bound_Water        .ft3/ft3                                : Bound Water Volume Fraction {F}
Calcite            .ft3/ft3                                : Calcite Volume Fraction {F}
Chlorite           .ft3/ft3                                : Chlorite Volume Fraction {F}
Dolomite           .ft3/ft3                                : Dolomite Volume Fraction {F}
Dry_Weight_Calcite .lbm/lbm                                : Dry Weight Fraction From Quanti.Elan {F}
Dry_Weight_Chlorite .lbm/lbm                                : Dry Weight Fraction From Quanti.Elan {F}
Dry_Weight_Dolomite .lbm/lbm                                : Dry Weight Fraction From Quanti.Elan {F}
Dry_Weight_Hematite .lbm/lbm                                : Dry Weight Fraction From Quanti.Elan {F}
Dry_Weight_Illite  .lbm/lbm                                : Dry Weight Fraction From Quanti.Elan {F}
Dry_Weight_K-Feldspar .lbm/lbm                                : Dry Weight Fraction From Quanti.Elan {F}
Dry_Weight_Kaolinite .lbm/lbm                                : Dry Weight Fraction From Quanti.Elan {F}
Dry_Weight_Quartz  .lbm/lbm                                : Dry Weight Fraction From Quanti.Elan {F}
Hematite           .ft3/ft3                                : Hematite Volume Fraction {F}
Illite             .ft3/ft3                                : Illite Volume Fraction {F}
K-Feldspar         .ft3/ft3                                : Orthoclase Volume Fraction {F}
Kaolinite          .ft3/ft3                                : Kaolinite Volume Fraction {F}
KINT_GEO           .mD                                     : Permeability (Juhasz 1979) {F}
KSDR_py            .mD                                     :  {F}
PHIT               .ft3/ft3                                : Total Porosity {F}
PIGE               .ft3/ft3                                : Effective Porosity {F}
PIGN               .ft3/ft3                                : Effective porosity (with irreducible water) {F}
Quartz             .ft3/ft3                                : Quartz Volume Fraction {F}
RHGA_GEO           .g/cm3                                  : Apparent grain density {F}
SW                 .ft3/ft3                                : Undisturbed Zone Water Saturation {F}
SWE                .ft3/ft3                                : Undisturbed Zone Effective Water Saturation {F}
UWater             .ft3/ft3                                : Undisturbed Zone Water Volume Fraction {F}
VCL_GEO            .ft3/ft3                                : Clay fraction {F}
~Ascii
# ...
4773.25000 0.00548    0.90432    0.04661    0.00000    0.91214    0.04701    0.00000    0.00000    0.00000    0.04085    0.00000    0.00000    0.00000    0.00000    0.04358    0.00000    0.00000    0.00082    0.00549    0.00010    0.00010    0.00000    2.70160    1.00000    1.00000    0.00001    0.05209   
4773.75000 0.00590    0.90417    0.05017    0.00000    0.91212    0.05061    0.00000    0.00000    0.00000    0.03727    0.00000    0.00000    0.00000    0.00000    0.03976    0.00000    0.00000    0.00141    0.00591    0.00010    0.00010    0.00000    2.70233    1.00000    1.00000    0.00001    0.05606   
4774.25000 0.00635    0.90219    0.05405    0.00000    0.91039    0.05454    0.00000    0.00000    0.00000    0.03507    0.00000    0.00000    0.00000    0.00000    0.03740    0.00000    0.00000    0.00151    0.00636    0.00010    0.00010    0.00000    2.70278    1.00000    1.00000    0.00001    0.06040   
4774.75000 0.00666    0.89885    0.05667    0.00000    0.90733    0.05721    0.00000    0.00000    0.00000    0.03547    0.00000    0.00000    0.00000    0.00000    0.03781    0.00000    0.00000    0.00154    0.00667    0.00010    0.00010    0.00000    2.70270    1.00000    1.00000    0.00001    0.06334   
4775.25000 0.00662    0.89773    0.05631    0.00000    0.90626    0.05685    0.00000    0.00000    0.00000    0.03690    0.00000    0.00000    0.00000    0.00000    0.03933    0.00000    0.00000    0.00159    0.00663    0.00010    0.00010    0.00000    2.70241    1.00000    1.00000    0.00001    0.06293   
4775.75000 0.00599    0.90346    0.05100    0.00000    0.91148    0.05145    0.00000    0.00000    0.00000    0.03707    0.00000    0.00000    0.00000    0.00000    0.03954    0.00000    0.00000    0.00173    0.00600    0.00010    0.00010    0.00000    2.70237    1.00000    1.00000    0.00001    0.05699   
4776.25000 0.00488    0.91284    0.04151    0.00000    0.92154    0.04190    0.00000    0.00000    0.00000    0.03655    0.00000    0.00000    0.00000    0.00000    0.03896    0.00000    0.00000    0.00217    0.00668    0.00180    0.00180    0.00000    2.70248    1.00000    1.00000    0.00180    0.04639   
4776.75000 0.00363    0.91840    0.03090    0.00000    0.92936    0.03127    0.00000    0.00000    0.00000    0.03937    0.00000    0.00000    0.00000    0.00000    0.04186    0.00000    0.00000    0.00169    0.00883    0.00520    0.00520    0.00000    2.70190    1.00000    1.00000    0.00520    0.03453   
4777.25000 0.00299    0.91959    0.02232    0.00000    0.92990    0.02257    0.00000    0.00000    0.00298    0.04455    0.00000    0.00000    0.00000    0.00294    0.04741    0.00000    0.00000    0.00106    0.00774    0.00474    0.00474    0.00000    2.70086    1.00000    1.00000    0.00474    0.02825   
4777.75000 0.00321    0.91535    0.01784    0.00000    0.92475    0.01803    0.00000    0.00000    0.00900    0.04823    0.00000    0.00000    0.00000    0.00888    0.05138    0.00000    0.00000    0.00072    0.00655    0.00334    0.00334    0.00000    2.70015    1.00000    1.00000    0.00334    0.02994   
4778.25000 0.00340    0.91605    0.01772    0.00000    0.92380    0.01787    0.00000    0.00000    0.01061    0.04773    0.00000    0.00000    0.00000    0.01049    0.05093    0.00000    0.00000    0.00129    0.00482    0.00142    0.00142    0.00000    2.70026    1.00000    1.00000    0.00142    0.03161   
4778.75000 0.00299    0.92274    0.01944    0.00000    0.92981    0.01959    0.00000    0.00000    0.00563    0.04496    0.00000    0.00000    0.00000    0.00558    0.04802    0.00000    0.00000    0.00132    0.00422    0.00124    0.00124    0.00000    2.70079    1.00000    1.00000    0.00124    0.02801   
4779.25000 0.00238    0.93200    0.02025    0.00000    0.93771    0.02037    0.00000    0.00000    0.00000    0.04192    0.00000    0.00000    0.00000    0.00000    0.04483    0.00000    0.00000    0.00102    0.00292    0.00054    0.00054    0.00000    2.70138    1.00000    1.00000    0.00054    0.02263   
4779.75000 0.00250    0.93366    0.02126    0.00000    0.93920    0.02138    0.00000    0.00000    0.00000    0.03942    0.00000    0.00000    0.00000    0.00000    0.04217    0.00000    0.00000    0.00082    0.00291    0.00041    0.00041    0.00000    2.70189    1.00000    1.00000    0.00041    0.02376   
4780.25000 0.00351    0.92582    0.02453    0.00000    0.93180    0.02469    0.00000    0.00000    0.00501    0.03850    0.00000    0.00000    0.00000    0.00497    0.04117    0.00000    0.00000    0.00082    0.00352    0.00010    0.00010    0.00000    2.70211    1.00000    1.00000    0.00001    0.03300   
4780.75000 0.00501    0.91197    0.02935    0.00000    0.91924    0.02959    0.00000    0.00000    0.01255    0.03863    0.00000    0.00000    0.00000    0.01242    0.04124    0.00000    0.00000    0.00082    0.00502    0.00010    0.00010    0.00000    2.70214    1.00000    1.00000    0.00001    0.04678   
4781.25000 0.00644    0.89792    0.03379    0.00000    0.90643    0.03411    0.00000    0.00000    0.01992    0.03954    0.00000    0.00000    0.00000    0.01968    0.04215    0.00000    0.00000    0.00100    0.00645    0.00010    0.00010    0.00000    2.70200    1.00000    1.00000    0.00001    0.05991   
4781.75000 0.00741    0.88576    0.03603    0.00000    0.89500    0.03641    0.00000    0.00000    0.02563    0.03792    0.00000    0.00505    0.00000    0.02530    0.04038    0.00000    0.00000    0.00148    0.00742    0.00010    0.00010    0.00511    2.70207    1.00000    1.00000    0.00001    0.06874   
4782.25000 0.00786    0.87661    0.03627    0.00000    0.88609    0.03666    0.00000    0.00000    0.02904    0.03437    0.00000    0.01384    0.00000    0.02866    0.03659    0.00000    0.00000    0.00239    0.00787    0.00010    0.00010    0.01400    2.70228    1.00000    1.00000    0.00001    0.07279   
4782.75000 0.00842    0.87162    0.03654    0.00000    0.88138    0.03695    0.00000    0.00000    0.03313    0.03095    0.00023    0.01735    0.00000    0.03268    0.03294    0.00024    0.00000    0.00344    0.00843    0.00010    0.00010    0.01755    2.70277    1.00000    1.00000    0.00001    0.07788   
4783.25000 0.00925    0.87165    0.04001    0.00000    0.88189    0.04048    0.00000    0.00000    0.03606    0.02847    0.00110    0.01200    0.00000    0.03556    0.03029    0.00112    0.00000    0.00313    0.00926    0.00010    0.00010    0.01213    2.70356    1.00000    1.00000    0.00001    0.08592   
4783.75000 0.01011    0.87424    0.04774    0.00000    0.88488    0.04832    0.00000    0.00000    0.03631    0.02501    0.00000    0.00548    0.00000    0.03578    0.02659    0.00000    0.00000    0.00169    0.01012    0.00010    0.00010    0.00554    2.70476    1.00000    1.00000    0.00001    0.09363   
4784.25000 0.00995    0.87471    0.05731    0.00000    0.88540    0.05801    0.00000    0.00000    0.02595    0.02835    0.00000    0.00228    0.00000    0.02557    0.03014    0.00000    0.00000    0.00072    0.00996    0.00010    0.00010    0.00230    2.70420    1.00000    1.00000    0.00001    0.09284   
4784.75000 0.00992    0.86917    0.06026    0.00000    0.87991    0.06100    0.00000    0.00000    0.02295    0.02882    0.00000    0.00732    0.00000    0.02261    0.03064    0.00000    0.00000    0.00031    0.00993    0.00010    0.00010    0.00739    2.70378    1.00000    1.00000    0.00001    0.09279   
4785.25000 0.00955    0.86572    0.05700    0.00000    0.87600    0.05768    0.00000    0.00000    0.02302    0.02397    0.00000    0.01934    0.00000    0.02269    0.02549    0.00000    0.00000    0.00022    0.00956    0.00010    0.00010    0.01954    2.70404    1.00000    1.00000    0.00001    0.08924   
4785.75000 0.00852    0.87036    0.04852    0.00000    0.87997    0.04905    0.00000    0.00000    0.02272    0.02595    0.00000    0.02230    0.00000    0.02241    0.02762    0.00000    0.00000    0.00031    0.00853    0.00010    0.00010    0.02256    2.70345    1.00000    1.00000    0.00001    0.07945   
