~Version
 VERS              .         3.0                           : CWLS LOG ASCII STANDARD - VERSION 3.0
 WRAP              .         NO                            : ONE LINE PER DEPTH STEP
 DLM               .         SPACE                         : DELIMITING CHARACTER(SPACE TAB OR COMMA)
~Well Information
#_______________________________________________________________________________
#
#PARAMETER_NAME    .UNIT     VALUE                         : DESCRIPTION
#_______________________________________________________________________________
STRT               .ft       4357.25000                    : First reference value
STOP               .ft       6466.75000                    : Last reference value
STEP               .ft       0.50000                       : Step increment
NULL               .         -9999                         : Missing value
COMP               .         Podolsky Oil Company          : Company
WELL               .         T_R_ McMillen #2              : Well name
FLD                .         Mount Auburn                  : Field
LOC                .                                       : Location
SRVC               .                                       : Service Company
CTRY               .         US                            : Country
STAT               .         Illinois                      : State
CNTY               .                                       : County
API                .                                       : API NUMBER
DATE               .         03-Dec-2018                   : Service Date
LATI               .         39.772784 degrees             : Latitude
LONG               .         -89.203412 degrees            : Longitude
GDAT               .                                       : Geodetic Datum
APD                .ft       15                            : Elevation of Depth Reference (LMF) Above Permanent Datum
BHS                .         OPEN                          : Borehole Status (Open or Cased Hole)
BHT                .degF     103                           : Bottom Hole Temperature
BLI                .ft       6475                          : Bottom Log Interval
BS                 .in       6.75                          : Bit Size
CBDR               .ft       4355                          : Casing Bottom of Driller
CBLO               .ft       4353                          : Logger Casing Shoe Depth
CSIZ               .in       7.625                         : Current Casing Size
CWEI               .lbm/ft   11.6                          : Casing Weight
COUNTRY            .         United States                 : Nation
DCS                .         03-Dec-2018                   : Date Circulation Stopped
DFD                .lbm/gal  9.25                          : Drilling Fluid Density
DFT                .         WATER                         : Drilling Fluid Type
DLAB               .         03-Dec-2018                   : Date Logger At Bottom
EDF                .ft       618                           : Elevation of Drill Floor
EGL                .ft       603                           : Elevation of Ground Level
EKB                .ft       618                           : Elevation of Kelly Bushing
EPD                .ft       603                           : Elevation of Permanent Datum (PDAT) above Mean Sea Level
LMF                .         KB                            : Logging Measured From (Name of Logging Elevation Reference)
LUL                .         Bradford                      : Logging Unit Location
LUN                .         3703                          : Logging Unit Number
MCST               .degF     71.2                          : Mudcake Sample Temperature
MFST               .degF     69.1                          : Mud Filtrate Sample Temperature
MRT                .degF     103                           : Maximum Recorded Temperature
MST                .degF     59.2                          : Mud Sample Temperature
PDAT               .         GL                            : Permanent Datum
PRODUCER-CODE      .         440                           : 
PRODUCER-NAME      .         Schlumberger                  : 
RMB                .ohm.m    0.835368                      : Resistivity of Mud at Bottom Hole Temperature
RMCS               .ohm.m    1.55                          : Resistivity of Mud Cake Sample
RMFS               .ohm.m    1.26                          : Resistivity of Mud Filtrate Sample
RMS                .ohm.m    1.39                          : Resistivity of Mud Sample
RUN                .         2A                            : Run Number
TCS                .         08_00_00                      : Time Circulation Stopped
TDD                .ft       6469                          : Driller Total Depth
TDL                .ft       6475                          : Logger Total Depth
TLAB               .         17_50_00                      : Time Logger At Bottom
TLI                .ft       4353                          : Top Log Interval
~Parameter Information Block
#_______________________________________________________________________________
#
#PARAMETER_NAME    .UNIT     VALUE                         : DESCRIPTION
#_______________________________________________________________________________
SET                .         01_Elan                       : 
TLFamily_Bound_Water .         Bound Water Volume Fraction   : 
TLFamily_Calcite   .         Calcite Volume Fraction       : 
TLFamily_Chlorite  .         Chlorite Volume Fraction      : 
TLFamily_Dolomite  .         Dolomite Volume Fraction      : 
TLFamily_Dry_Weight_Calcite .         Calcite Weight Fraction       : 
TLFamily_Dry_Weight_Chlorite .         Chlorite Weight Fraction      : 
TLFamily_Dry_Weight_Dolomite .         Dolomite Weight Fraction      : 
TLFamily_Dry_Weight_Hematite .         Hematite Weight Fraction      : 
TLFamily_Dry_Weight_Illite .         Illite Weight Fraction        : 
TLFamily_Dry_Weight_K-Feldspar .         Orthoclase Weight Fraction    : 
TLFamily_Dry_Weight_Kaolinite .         Kaolinite Weight Fraction     : 
TLFamily_Dry_Weight_Quartz .         Quartz Weight Fraction        : 
TLFamily_Hematite  .         Hematite Volume Fraction      : 
TLFamily_Illite    .         Illite Volume Fraction        : 
TLFamily_K-Feldspar .         Orthoclase Volume Fraction    : 
TLFamily_KINT_GEO  .         Permeability                  : 
TLFamily_KSDR_py   .         NMR Permeability              : 
TLFamily_Kaolinite .         Kaolinite Volume Fraction     : 
TLFamily_MD        .         Measured Depth                : 
TLFamily_PHIT      .         Total Porosity                : 
TLFamily_PIGE      .         Effective Porosity            : 
TLFamily_PIGN      .         Effective Porosity            : 
TLFamily_Quartz    .         Quartz Volume Fraction        : 
TLFamily_RHGA_GEO  .         Grain Density                 : 
TLFamily_SW        .         Water Saturation              : 
TLFamily_SWE       .         Water Saturation              : 
TLFamily_UWater    .         Undisturbed Zone Water Volume Fraction: 
TLFamily_VCL_GEO   .         Clay Volume Fraction          : 
~Curve Information
#_______________________________________________________________________________
#
#LOGNAME           .UNIT     LOG_ID                        : DESCRIPTION
#_______________________________________________________________________________
MD                 .ft                                     :  {F}
Bound_Water        .ft3/ft3                                : Bound Water Volume Fraction {F}
Calcite            .ft3/ft3                                : Calcite Volume Fraction {F}
Chlorite           .ft3/ft3                                : Chlorite Volume Fraction {F}
Dolomite           .ft3/ft3                                : Dolomite Volume Fraction {F}
Dry_Weight_Calcite .lbm/lbm                                : Dry Weight Fraction From Quanti.Elan {F}
Dry_Weight_Chlorite .lbm/lbm                                : Dry Weight Fraction From Quanti.Elan {F}
Dry_Weight_Dolomite .lbm/lbm                                : Dry Weight Fraction From Quanti.Elan {F}
Dry_Weight_Hematite .lbm/lbm                                : Dry Weight Fraction From Quanti.Elan {F}
Dry_Weight_Illite  .lbm/lbm                                : Dry Weight Fraction From Quanti.Elan {F}
Dry_Weight_K-Feldspar .lbm/lbm                                : Dry Weight Fraction From Quanti.Elan {F}
Dry_Weight_Kaolinite .lbm/lbm                                : Dry Weight Fraction From Quanti.Elan {F}
Dry_Weight_Quartz  .lbm/lbm                                : Dry Weight Fraction From Quanti.Elan {F}
Hematite           .ft3/ft3                                : Hematite Volume Fraction {F}
Illite             .ft3/ft3                                : Illite Volume Fraction {F}
K-Feldspar         .ft3/ft3                                : Orthoclase Volume Fraction {F}
Kaolinite          .ft3/ft3                                : Kaolinite Volume Fraction {F}
KINT_GEO           .mD                                     : Permeability (Juhasz 1979) {F}
KSDR_py            .mD                                     :  {F}
PHIT               .ft3/ft3                                : Total Porosity {F}
PIGE               .ft3/ft3                                : Effective Porosity {F}
PIGN               .ft3/ft3                                : Effective porosity (with irreducible water) {F}
Quartz             .ft3/ft3                                : Quartz Volume Fraction {F}
RHGA_GEO           .g/cm3                                  : Apparent grain density {F}
SW                 .ft3/ft3                                : Undisturbed Zone Water Saturation {F}
SWE                .ft3/ft3                                : Undisturbed Zone Effective Water Saturation {F}
UWater             .ft3/ft3                                : Undisturbed Zone Water Volume Fraction {F}
VCL_GEO            .ft3/ft3                                : Clay fraction {F}
~Ascii
# ...
6294.25000 0.01354    0.00833    0.01560    0.00000    0.01053    0.01972    0.00000    0.00000    0.11971    0.19599    0.00000    0.65405    0.00000    0.09444    0.16680    0.00000    65.53479   84.23565   0.18585    0.17232    0.17232    0.52898    2.63253    1.00000    1.00000    0.17232    0.12357   
6294.75000 0.01365    0.00673    0.01291    0.00000    0.00850    0.01630    0.00000    0.00000    0.11898    0.20490    0.00863    0.64269    0.00000    0.09402    0.17467    0.00705    63.11496   74.14764   0.18398    0.17034    0.17034    0.52064    2.63078    1.00000    1.00000    0.17034    0.12762   
6295.25000 0.01409    0.00382    0.01187    0.00000    0.00482    0.01496    0.00000    0.00000    0.11859    0.21595    0.01929    0.62640    0.00000    0.09384    0.18436    0.01577    58.12959   67.67776   0.18214    0.16805    0.16805    0.50819    2.62874    1.00000    1.00000    0.16805    0.13558   
6295.75000 0.01461    0.00414    0.01326    0.00000    0.00520    0.01667    0.00000    0.00000    0.11983    0.22317    0.02286    0.61226    0.00000    0.09508    0.19102    0.01873    51.61365   62.14346   0.17976    0.16515    0.16515    0.49802    2.62789    1.00000    1.00000    0.16515    0.14168   
6296.25000 0.01502    0.00843    0.01693    0.00000    0.01057    0.02124    0.00000    0.00000    0.11951    0.22464    0.02265    0.60138    0.00000    0.09503    0.19271    0.01861    45.39328   62.14346   0.17805    0.16302    0.16302    0.49025    2.62824    1.00000    1.00000    0.16302    0.14559   
6296.75000 0.01418    0.01665    0.02201    0.00000    0.02084    0.02754    0.00000    0.00000    0.11700    0.22282    0.00082    0.61099    0.00000    0.09328    0.19166    0.00067    51.67620   49.71908   0.17631    0.16213    0.16213    0.49942    2.62972    1.00000    1.00000    0.16213    0.13015   
6297.25000 0.01363    0.02258    0.02524    0.00000    0.02816    0.03147    0.00000    0.00000    0.10774    0.21847    0.00000    0.61415    0.00000    0.08617    0.18851    0.00000    50.81621   42.44960   0.17389    0.16027    0.16027    0.50360    2.63039    1.00000    1.00000    0.16027    0.12504   
6297.75000 0.01325    0.02119    0.02318    0.00000    0.02646    0.02895    0.00000    0.00000    0.10642    0.20961    0.00000    0.62857    0.00000    0.08502    0.18066    0.00000    53.75398   46.51681   0.17510    0.16186    0.16186    0.51484    2.63127    1.00000    1.00000    0.16186    0.12145   
6298.25000 0.01247    0.01900    0.01943    0.00000    0.02389    0.02443    0.00000    0.00000    0.10374    0.19909    0.00000    0.64885    0.00000    0.08229    0.17038    0.00000    67.33646   70.81195   0.18119    0.16872    0.16872    0.52770    2.63212    1.00000    1.00000    0.16872    0.11419   
6298.75000 0.01175    0.01756    0.01671    0.00000    0.02212    0.02104    0.00000    0.00000    0.09982    0.19584    0.00000    0.66118    0.00000    0.07905    0.16731    0.00000    77.86662   128.63640  0.18256    0.17081    0.17081    0.53680    2.63202    1.00000    1.00000    0.17081    0.10751   
6299.25000 0.01100    0.01248    0.01372    0.00000    0.01562    0.01716    0.00000    0.00000    0.09503    0.20156    0.00000    0.67063    0.00000    0.07578    0.17341    0.00000    82.60467   134.61435  0.17632    0.16532    0.16532    0.54828    2.63033    1.00000    1.00000    0.16532    0.10050   
6299.75000 0.01095    0.01162    0.01322    0.00000    0.01429    0.01626    0.00000    0.00000    0.09350    0.21522    0.00000    0.66074    0.00000    0.07585    0.18835    0.00000    63.72054   132.45250  0.16143    0.15048    0.15048    0.54953    2.62824    1.00000    1.00000    0.15048    0.10002   
6300.25000 0.01224    0.00000    0.00000    0.01653    0.00000    0.00000    0.02120    0.00257    0.11966    0.21076    0.00000    0.64581    0.00110    0.09860    0.18735    0.00000    39.81258   90.74002   0.15085    0.13861    0.13861    0.54556    2.63631    1.00000    1.00000    0.13861    0.11084   
6300.75000 0.00749    0.00000    0.00000    0.01524    0.00000    0.00000    0.01926    0.00898    0.01852    0.23811    0.09536    0.61977    0.00391    0.01547    0.21466    0.08232    44.83852   29.27524   0.13742    0.12994    0.12994    0.53097    2.63202    1.00000    1.00000    0.12994    0.10528   
6301.25000 0.00577    0.00000    0.00000    0.01983    0.00000    0.00000    0.02488    0.01110    0.00000    0.23586    0.09811    0.63004    0.00487    0.00000    0.21424    0.08533    48.48047   8.31560    0.13189    0.12612    0.12612    0.54384    2.63494    1.00000    1.00000    0.12612    0.09110   
6301.75000 0.00638    0.01691    0.02498    0.00000    0.02001    0.02957    0.00000    0.00548    0.00000    0.23100    0.05904    0.65490    0.00241    0.00000    0.21005    0.05140    43.81765   5.47894    0.12834    0.12196    0.12196    0.56591    2.62704    1.00000    1.00000    0.12196    0.08276   
6302.25000 0.00732    0.02203    0.05034    0.00000    0.02605    0.05954    0.00000    0.00000    0.00000    0.23354    0.02514    0.65573    0.00000    0.00000    0.21249    0.02190    42.65058   5.51192    0.12626    0.11893    0.11893    0.56698    2.62244    1.00000    1.00000    0.11893    0.07956   
6302.75000 0.00709    0.02231    0.05371    0.00000    0.02642    0.06362    0.00000    0.00000    0.00000    0.24032    0.01452    0.65512    0.00000    0.00000    0.21835    0.01264    49.58976   5.91731    0.12735    0.12026    0.12026    0.56564    2.62198    1.00000    1.00000    0.12026    0.07344   
6303.25000 0.00633    0.01865    0.05453    0.00000    0.02217    0.06482    0.00000    0.00000    0.00000    0.24335    0.00000    0.66966    0.00000    0.00000    0.22031    0.00000    68.36163   5.53845    0.13041    0.12408    0.12408    0.57610    2.62168    1.00000    1.00000    0.12408    0.06086   
6303.75000 0.00608    0.01378    0.05237    0.00000    0.01641    0.06237    0.00000    0.00006    0.00000    0.23876    0.00000    0.68239    0.00003    0.00000    0.21573    0.00000    75.73964   4.70609    0.13215    0.12607    0.12607    0.58593    2.62192    1.00000    1.00000    0.12607    0.05845   
6304.25000 0.00532    0.00646    0.04584    0.00000    0.00767    0.05446    0.00000    0.00208    0.00000    0.22815    0.00000    0.70764    0.00091    0.00000    0.20666    0.00000    80.39271   5.79000    0.13099    0.12567    0.12567    0.60914    2.62497    1.00000    1.00000    0.12567    0.05116   
6304.75000 0.00565    0.00381    0.04870    0.00000    0.00450    0.05764    0.00000    0.00009    0.00000    0.21832    0.00000    0.71944    0.00004    0.00000    0.19850    0.00000    67.72891   7.62859    0.12736    0.12170    0.12170    0.62160    2.62377    1.00000    1.00000    0.12170    0.05436   
6305.25000 0.00573    0.00524    0.04474    0.00000    0.00620    0.05296    0.00000    0.00013    0.00000    0.21116    0.00913    0.72041    0.00006    0.00000    0.19193    0.00795    62.22855   9.77618    0.12781    0.12208    0.12208    0.62228    2.62444    1.00000    1.00000    0.12208    0.05842   
6305.75000 0.00535    0.00860    0.04226    0.00000    0.01023    0.05032    0.00000    0.00014    0.00000    0.20312    0.00757    0.72862    0.00006    0.00000    0.18360    0.00655    73.24171   10.63056   0.13303    0.12769    0.12769    0.62589    2.62566    1.00000    1.00000    0.12769    0.05416   
6306.25000 0.00539    0.00415    0.04024    0.01477    0.00494    0.04786    0.01861    0.00052    0.00000    0.19636    0.01222    0.71949    0.00023    0.00000    0.17763    0.01058    72.11798   8.25265    0.13385    0.12846    0.12846    0.61854    2.63024    1.00000    1.00000    0.12846    0.05621   
6306.75000 0.00419    0.00000    0.00000    0.03301    0.00000    0.00000    0.04143    0.01406    0.00000    0.19884    0.07129    0.67437    0.00617    0.00000    0.18054    0.06198    63.66992   5.42174    0.13643    0.13224    0.13224    0.58187    2.64774    1.00000    1.00000    0.13224    0.06617   
