~Version
 VERS              .         3.0                           : CWLS LOG ASCII STANDARD - VERSION 3.0
 WRAP              .         NO                            : ONE LINE PER DEPTH STEP
 DLM               .         SPACE                         : DELIMITING CHARACTER(SPACE TAB OR COMMA)
~Well Information
#_______________________________________________________________________________
#
#PARAMETER_NAME    .UNIT     VALUE                         : DESCRIPTION
#_______________________________________________________________________________
STRT               .ft       4357.25000                    : First reference value
STOP               .ft       6466.75000                    : Last reference value
STEP               .ft       0.50000                       : Step increment
NULL               .         -9999                         : Missing value
COMP               .         Podolsky Oil Company          : Company
WELL               .         T_R_ McMillen #2              : Well name
FLD                .         Mount Auburn                  : Field
LOC                .                                       : Location
SRVC               .                                       : Service Company
CTRY               .         US                            : Country
STAT               .         Illinois                      : State
CNTY               .                                       : County
API                .                                       : API NUMBER
DATE               .         03-Dec-2018                   : Service Date
LATI               .         39.772784 degrees             : Latitude
LONG               .         -89.203412 degrees            : Longitude
GDAT               .                                       : Geodetic Datum
APD                .ft       15                            : Elevation of Depth Reference (LMF) Above Permanent Datum
BHS                .         OPEN                          : Borehole Status (Open or Cased Hole)
BHT                .degF     103                           : Bottom Hole Temperature
BLI                .ft       6475                          : Bottom Log Interval
BS                 .in       6.75                          : Bit Size
CBDR               .ft       4355                          : Casing Bottom of Driller
CBLO               .ft       4353                          : Logger Casing Shoe Depth
CSIZ               .in       7.625                         : Current Casing Size
CWEI               .lbm/ft   11.6                          : Casing Weight
COUNTRY            .         United States                 : Nation
DCS                .         03-Dec-2018                   : Date Circulation Stopped
DFD                .lbm/gal  9.25                          : Drilling Fluid Density
DFT                .         WATER                         : Drilling Fluid Type
DLAB               .         03-Dec-2018                   : Date Logger At Bottom
EDF                .ft       618                           : Elevation of Drill Floor
EGL                .ft       603                           : Elevation of Ground Level
EKB                .ft       618                           : Elevation of Kelly Bushing
EPD                .ft       603                           : Elevation of Permanent Datum (PDAT) above Mean Sea Level
LMF                .         KB                            : Logging Measured From (Name of Logging Elevation Reference)
LUL                .         Bradford                      : Logging Unit Location
LUN                .         3703                          : Logging Unit Number
MCST               .degF     71.2                          : Mudcake Sample Temperature
MFST               .degF     69.1                          : Mud Filtrate Sample Temperature
MRT                .degF     103                           : Maximum Recorded Temperature
MST                .degF     59.2                          : Mud Sample Temperature
PDAT               .         GL                            : Permanent Datum
PRODUCER-CODE      .         440                           : 
PRODUCER-NAME      .         Schlumberger                  : 
RMB                .ohm.m    0.835368                      : Resistivity of Mud at Bottom Hole Temperature
RMCS               .ohm.m    1.55                          : Resistivity of Mud Cake Sample
RMFS               .ohm.m    1.26                          : Resistivity of Mud Filtrate Sample
RMS                .ohm.m    1.39                          : Resistivity of Mud Sample
RUN                .         2A                            : Run Number
TCS                .         08_00_00                      : Time Circulation Stopped
TDD                .ft       6469                          : Driller Total Depth
TDL                .ft       6475                          : Logger Total Depth
TLAB               .         17_50_00                      : Time Logger At Bottom
TLI                .ft       4353                          : Top Log Interval
~Parameter Information Block
#_______________________________________________________________________________
#
#PARAMETER_NAME    .UNIT     VALUE                         : DESCRIPTION
#_______________________________________________________________________________
SET                .         01_Elan                       : 
TLFamily_Bound_Water .         Bound Water Volume Fraction   : 
TLFamily_Calcite   .         Calcite Volume Fraction       : 
TLFamily_Chlorite  .         Chlorite Volume Fraction      : 
TLFamily_Dolomite  .         Dolomite Volume Fraction      : 
TLFamily_Dry_Weight_Calcite .         Calcite Weight Fraction       : 
TLFamily_Dry_Weight_Chlorite .         Chlorite Weight Fraction      : 
TLFamily_Dry_Weight_Dolomite .         Dolomite Weight Fraction      : 
TLFamily_Dry_Weight_Hematite .         Hematite Weight Fraction      : 
TLFamily_Dry_Weight_Illite .         Illite Weight Fraction        : 
TLFamily_Dry_Weight_K-Feldspar .         Orthoclase Weight Fraction    : 
TLFamily_Dry_Weight_Kaolinite .         Kaolinite Weight Fraction     : 
TLFamily_Dry_Weight_Quartz .         Quartz Weight Fraction        : 
TLFamily_Hematite  .         Hematite Volume Fraction      : 
TLFamily_Illite    .         Illite Volume Fraction        : 
TLFamily_K-Feldspar .         Orthoclase Volume Fraction    : 
TLFamily_KINT_GEO  .         Permeability                  : 
TLFamily_KSDR_py   .         NMR Permeability              : 
TLFamily_Kaolinite .         Kaolinite Volume Fraction     : 
TLFamily_MD        .         Measured Depth                : 
TLFamily_PHIT      .         Total Porosity                : 
TLFamily_PIGE      .         Effective Porosity            : 
TLFamily_PIGN      .         Effective Porosity            : 
TLFamily_Quartz    .         Quartz Volume Fraction        : 
TLFamily_RHGA_GEO  .         Grain Density                 : 
TLFamily_SW        .         Water Saturation              : 
TLFamily_SWE       .         Water Saturation              : 
TLFamily_UWater    .         Undisturbed Zone Water Volume Fraction: 
TLFamily_VCL_GEO   .         Clay Volume Fraction          : 
~Curve Information
#_______________________________________________________________________________
#
#LOGNAME           .UNIT     LOG_ID                        : DESCRIPTION
#_______________________________________________________________________________
MD                 .ft                                     :  {F}
Bound_Water        .ft3/ft3                                : Bound Water Volume Fraction {F}
Calcite            .ft3/ft3                                : Calcite Volume Fraction {F}
Chlorite           .ft3/ft3                                : Chlorite Volume Fraction {F}
Dolomite           .ft3/ft3                                : Dolomite Volume Fraction {F}
Dry_Weight_Calcite .lbm/lbm                                : Dry Weight Fraction From Quanti.Elan {F}
Dry_Weight_Chlorite .lbm/lbm                                : Dry Weight Fraction From Quanti.Elan {F}
Dry_Weight_Dolomite .lbm/lbm                                : Dry Weight Fraction From Quanti.Elan {F}
Dry_Weight_Hematite .lbm/lbm                                : Dry Weight Fraction From Quanti.Elan {F}
Dry_Weight_Illite  .lbm/lbm                                : Dry Weight Fraction From Quanti.Elan {F}
Dry_Weight_K-Feldspar .lbm/lbm                                : Dry Weight Fraction From Quanti.Elan {F}
Dry_Weight_Kaolinite .lbm/lbm                                : Dry Weight Fraction From Quanti.Elan {F}
Dry_Weight_Quartz  .lbm/lbm                                : Dry Weight Fraction From Quanti.Elan {F}
Hematite           .ft3/ft3                                : Hematite Volume Fraction {F}
Illite             .ft3/ft3                                : Illite Volume Fraction {F}
K-Feldspar         .ft3/ft3                                : Orthoclase Volume Fraction {F}
Kaolinite          .ft3/ft3                                : Kaolinite Volume Fraction {F}
KINT_GEO           .mD                                     : Permeability (Juhasz 1979) {F}
KSDR_py            .mD                                     :  {F}
PHIT               .ft3/ft3                                : Total Porosity {F}
PIGE               .ft3/ft3                                : Effective Porosity {F}
PIGN               .ft3/ft3                                : Effective porosity (with irreducible water) {F}
Quartz             .ft3/ft3                                : Quartz Volume Fraction {F}
RHGA_GEO           .g/cm3                                  : Apparent grain density {F}
SW                 .ft3/ft3                                : Undisturbed Zone Water Saturation {F}
SWE                .ft3/ft3                                : Undisturbed Zone Effective Water Saturation {F}
UWater             .ft3/ft3                                : Undisturbed Zone Water Volume Fraction {F}
VCL_GEO            .ft3/ft3                                : Clay fraction {F}
~Ascii
# ...
5046.25000 0.02826    0.01301    0.08048    0.00000    0.01507    0.09324    0.00000    0.00000    0.17431    0.36300    0.00000    0.35439    0.00000    0.15009    0.33721    0.00000    1.29421    22.61723   0.10637    0.07810    0.07810    0.31284    2.61780    1.00000    1.00000    0.07810    0.25884   
5046.75000 0.02621    0.00606    0.07052    0.00000    0.00723    0.08424    0.00000    0.00000    0.17131    0.36583    0.00000    0.37138    0.00000    0.14305    0.32955    0.00000    5.05432    90.21931   0.13290    0.10669    0.10669    0.31793    2.61627    1.00000    1.00000    0.10669    0.23978   
5047.25000 0.02484    0.00507    0.06730    0.00000    0.00614    0.08147    0.00000    0.00000    0.16399    0.36370    0.00000    0.38470    0.00000    0.13513    0.32333    0.00000    8.82899    137.80698  0.14416    0.11932    0.11932    0.32500    2.61587    1.00000    1.00000    0.11932    0.22728   
5047.75000 0.02372    0.00876    0.06890    0.00000    0.01059    0.08328    0.00000    0.00000    0.15109    0.36285    0.00000    0.39219    0.00000    0.12469    0.32304    0.00000    10.02449   167.91519  0.14280    0.11908    0.11908    0.33181    2.61552    1.00000    1.00000    0.11908    0.21731   
5048.25000 0.02336    0.00825    0.07205    0.00000    0.00992    0.08663    0.00000    0.00000    0.14330    0.36213    0.00000    0.39802    0.00000    0.11888    0.32409    0.00000    9.38192    235.12132  0.13823    0.11487    0.11487    0.33850    2.61528    1.00000    1.00000    0.11487    0.21428   
5048.75000 0.02387    0.00249    0.07542    0.00000    0.00298    0.09040    0.00000    0.00000    0.14393    0.36714    0.00000    0.39554    0.00000    0.11978    0.32961    0.00000    8.40546    221.94777  0.13523    0.11136    0.11136    0.33747    2.61446    1.00000    1.00000    0.11136    0.21907   
5049.25000 0.02533    0.00000    0.07977    0.00000    0.00000    0.09495    0.00000    0.00000    0.15202    0.37473    0.00000    0.37831    0.00000    0.12740    0.33879    0.00000    5.69968    159.03006  0.12900    0.10367    0.10367    0.32503    2.61404    1.00000    1.00000    0.10367    0.23250   
5049.75000 0.02799    0.00065    0.09035    0.00000    0.00076    0.10591    0.00000    0.00000    0.16299    0.38594    0.00000    0.34440    0.00000    0.13870    0.35431    0.00000    2.38219    65.11211   0.11552    0.08753    0.08753    0.30046    2.61389    1.00000    1.00000    0.08753    0.25705   
5050.25000 0.03139    0.00346    0.10500    0.00000    0.00398    0.12083    0.00000    0.00000    0.17546    0.39465    0.00000    0.30508    0.00000    0.15209    0.36905    0.00000    0.67474    18.97343   0.09928    0.06790    0.06790    0.27112    2.61454    1.00000    1.00000    0.06790    0.28848   
5050.75000 0.03410    0.00870    0.11718    0.00000    0.00990    0.13331    0.00000    0.00000    0.18516    0.39959    0.00000    0.27203    0.00000    0.16234    0.37797    0.00000    0.23910    5.74757    0.08929    0.05519    0.05519    0.24452    2.61554    1.00000    1.00000    0.05519    0.31362   
5051.25000 0.03563    0.01419    0.12141    0.00000    0.01607    0.13747    0.00000    0.00000    0.19362    0.40031    0.00000    0.25253    0.00000    0.17057    0.38044    0.00000    0.13527    2.76862    0.08532    0.04969    0.04969    0.22807    2.61657    1.00000    1.00000    0.04969    0.32761   
5051.75000 0.03698    0.01789    0.12418    0.00000    0.02007    0.13928    0.00000    0.00000    0.20101    0.39208    0.00000    0.24756    0.00000    0.17878    0.37618    0.00000    0.05435    2.14060    0.07724    0.04026    0.04026    0.22572    2.61849    1.00000    1.00000    0.04026    0.33994   
5052.25000 0.03986    0.02490    0.13250    0.00000    0.02740    0.14583    0.00000    0.00000    0.21398    0.37644    0.00000    0.23635    0.00000    0.19393    0.36807    0.00000    0.00439    2.05262    0.06101    0.02115    0.02115    0.21960    2.62223    1.00000    1.00000    0.02115    0.36629   
5052.75000 0.04307    0.04340    0.14397    0.00000    0.04690    0.15559    0.00000    0.00000    0.22621    0.36368    0.00000    0.20762    0.00000    0.20880    0.36215    0.00000    0.00000    1.61057    0.04520    0.00213    0.00213    0.19647    2.62643    1.00000    1.00000    0.00213    0.39584   
5053.25000 0.04325    0.06900    0.15023    0.00000    0.07437    0.16192    0.00000    0.00000    0.22088    0.36380    0.00000    0.17903    0.00000    0.20442    0.36322    0.00000    0.00000    0.92926    0.04326    0.00010    0.00010    0.16987    2.62802    1.00000    1.00000    0.00001    0.39790   
5053.75000 0.04124    0.08012    0.14851    0.00000    0.08625    0.15986    0.00000    0.00000    0.20505    0.37682    0.00000    0.17203    0.00000    0.19000    0.37670    0.00000    0.00000    0.46850    0.04125    0.00010    0.00010    0.16342    2.62580    1.00000    1.00000    0.00001    0.37975   
5054.25000 0.03924    0.06414    0.13599    0.00000    0.06901    0.14633    0.00000    0.00000    0.20033    0.39385    0.00000    0.19047    0.00000    0.18571    0.39389    0.00000    0.00000    0.46612    0.03925    0.00010    0.00010    0.18102    2.62142    1.00000    1.00000    0.00001    0.36095   
5054.75000 0.03601    0.03349    0.11475    0.00000    0.03652    0.12513    0.00000    0.00000    0.19662    0.41267    0.00000    0.22905    0.00000    0.17986    0.40725    0.00000    0.00212    0.76782    0.04984    0.01383    0.01383    0.21481    2.61556    1.00000    1.00000    0.01383    0.33062   
5055.25000 0.03150    0.01178    0.09496    0.00000    0.01311    0.10571    0.00000    0.00000    0.18124    0.43138    0.00000    0.26855    0.00000    0.16239    0.41699    0.00000    0.09417    1.23988    0.06720    0.03570    0.03570    0.24669    2.60962    1.00000    1.00000    0.03570    0.28885   
5055.75000 0.02827    0.00164    0.08520    0.00000    0.00185    0.09589    0.00000    0.00000    0.16445    0.44623    0.00000    0.29158    0.00000    0.14575    0.42666    0.00000    0.41543    1.47902    0.07581    0.04754    0.04754    0.26494    2.60537    1.00000    1.00000    0.04754    0.25922   
5056.25000 0.02869    0.00000    0.08709    0.00000    0.00000    0.09762    0.00000    0.00000    0.16560    0.45173    0.00000    0.28505    0.00000    0.14737    0.43368    0.00000    0.29639    1.30988    0.07179    0.04310    0.04310    0.26007    2.60470    1.00000    1.00000    0.04310    0.26315   
5056.75000 0.03146    0.00000    0.09856    0.00000    0.00000    0.10891    0.00000    0.00000    0.17587    0.45175    0.00000    0.26347    0.00000    0.15875    0.43992    0.00000    0.04872    0.65066    0.05896    0.02749    0.02749    0.24382    2.60599    1.00000    1.00000    0.02749    0.28877   
5057.25000 0.03427    0.00236    0.11178    0.00000    0.00257    0.12174    0.00000    0.00000    0.18421    0.45042    0.00000    0.24105    0.00000    0.16872    0.44505    0.00000    0.00214    0.33904    0.04574    0.01148    0.01148    0.22634    2.60756    1.00000    1.00000    0.01148    0.31477   
5057.75000 0.03538    0.00878    0.11777    0.00000    0.00948    0.12724    0.00000    0.00000    0.18631    0.44705    0.00000    0.22992    0.00000    0.17202    0.44529    0.00000    0.00003    0.21103    0.03850    0.00312    0.00312    0.21764    2.60886    1.00000    1.00000    0.00312    0.32518   
5058.25000 0.03531    0.01726    0.11606    0.00000    0.01858    0.12495    0.00000    0.00000    0.18676    0.44554    0.00000    0.22418    0.00000    0.17305    0.44536    0.00000    0.00000    0.15656    0.03532    0.00010    0.00010    0.21295    2.60947    1.00000    1.00000    0.00001    0.32442   
5058.75000 0.03448    0.02361    0.11286    0.00000    0.02552    0.12199    0.00000    0.00000    0.18359    0.45390    0.00000    0.21500    0.00000    0.16941    0.45186    0.00000    0.00010    0.12612    0.03887    0.00439    0.00439    0.20339    2.60838    1.00000    1.00000    0.00439    0.31674   
