~Version
 VERS              .         3.0                           : CWLS LOG ASCII STANDARD - VERSION 3.0
 WRAP              .         NO                            : ONE LINE PER DEPTH STEP
 DLM               .         SPACE                         : DELIMITING CHARACTER(SPACE TAB OR COMMA)
~Well Information
#_______________________________________________________________________________
#
#PARAMETER_NAME    .UNIT     VALUE                         : DESCRIPTION
#_______________________________________________________________________________
STRT               .ft       4357.25000                    : First reference value
STOP               .ft       6466.75000                    : Last reference value
STEP               .ft       0.50000                       : Step increment
NULL               .         -9999                         : Missing value
COMP               .         Podolsky Oil Company          : Company
WELL               .         T_R_ McMillen #2              : Well name
FLD                .         Mount Auburn                  : Field
LOC                .                                       : Location
SRVC               .                                       : Service Company
CTRY               .         US                            : Country
STAT               .         Illinois                      : State
CNTY               .                                       : County
API                .                                       : API NUMBER
DATE               .         03-Dec-2018                   : Service Date
LATI               .         39.772784 degrees             : Latitude
LONG               .         -89.203412 degrees            : Longitude
GDAT               .                                       : Geodetic Datum
APD                .ft       15                            : Elevation of Depth Reference (LMF) Above Permanent Datum
BHS                .         OPEN                          : Borehole Status (Open or Cased Hole)
BHT                .degF     103                           : Bottom Hole Temperature
BLI                .ft       6475                          : Bottom Log Interval
BS                 .in       6.75                          : Bit Size
CBDR               .ft       4355                          : Casing Bottom of Driller
CBLO               .ft       4353                          : Logger Casing Shoe Depth
CSIZ               .in       7.625                         : Current Casing Size
CWEI               .lbm/ft   11.6                          : Casing Weight
COUNTRY            .         United States                 : Nation
DCS                .         03-Dec-2018                   : Date Circulation Stopped
DFD                .lbm/gal  9.25                          : Drilling Fluid Density
DFT                .         WATER                         : Drilling Fluid Type
DLAB               .         03-Dec-2018                   : Date Logger At Bottom
EDF                .ft       618                           : Elevation of Drill Floor
EGL                .ft       603                           : Elevation of Ground Level
EKB                .ft       618                           : Elevation of Kelly Bushing
EPD                .ft       603                           : Elevation of Permanent Datum (PDAT) above Mean Sea Level
LMF                .         KB                            : Logging Measured From (Name of Logging Elevation Reference)
LUL                .         Bradford                      : Logging Unit Location
LUN                .         3703                          : Logging Unit Number
MCST               .degF     71.2                          : Mudcake Sample Temperature
MFST               .degF     69.1                          : Mud Filtrate Sample Temperature
MRT                .degF     103                           : Maximum Recorded Temperature
MST                .degF     59.2                          : Mud Sample Temperature
PDAT               .         GL                            : Permanent Datum
PRODUCER-CODE      .         440                           : 
PRODUCER-NAME      .         Schlumberger                  : 
RMB                .ohm.m    0.835368                      : Resistivity of Mud at Bottom Hole Temperature
RMCS               .ohm.m    1.55                          : Resistivity of Mud Cake Sample
RMFS               .ohm.m    1.26                          : Resistivity of Mud Filtrate Sample
RMS                .ohm.m    1.39                          : Resistivity of Mud Sample
RUN                .         2A                            : Run Number
TCS                .         08_00_00                      : Time Circulation Stopped
TDD                .ft       6469                          : Driller Total Depth
TDL                .ft       6475                          : Logger Total Depth
TLAB               .         17_50_00                      : Time Logger At Bottom
TLI                .ft       4353                          : Top Log Interval
~Parameter Information Block
#_______________________________________________________________________________
#
#PARAMETER_NAME    .UNIT     VALUE                         : DESCRIPTION
#_______________________________________________________________________________
SET                .         01_Elan                       : 
TLFamily_Bound_Water .         Bound Water Volume Fraction   : 
TLFamily_Calcite   .         Calcite Volume Fraction       : 
TLFamily_Chlorite  .         Chlorite Volume Fraction      : 
TLFamily_Dolomite  .         Dolomite Volume Fraction      : 
TLFamily_Dry_Weight_Calcite .         Calcite Weight Fraction       : 
TLFamily_Dry_Weight_Chlorite .         Chlorite Weight Fraction      : 
TLFamily_Dry_Weight_Dolomite .         Dolomite Weight Fraction      : 
TLFamily_Dry_Weight_Hematite .         Hematite Weight Fraction      : 
TLFamily_Dry_Weight_Illite .         Illite Weight Fraction        : 
TLFamily_Dry_Weight_K-Feldspar .         Orthoclase Weight Fraction    : 
TLFamily_Dry_Weight_Kaolinite .         Kaolinite Weight Fraction     : 
TLFamily_Dry_Weight_Quartz .         Quartz Weight Fraction        : 
TLFamily_Hematite  .         Hematite Volume Fraction      : 
TLFamily_Illite    .         Illite Volume Fraction        : 
TLFamily_K-Feldspar .         Orthoclase Volume Fraction    : 
TLFamily_KINT_GEO  .         Permeability                  : 
TLFamily_KSDR_py   .         NMR Permeability              : 
TLFamily_Kaolinite .         Kaolinite Volume Fraction     : 
TLFamily_MD        .         Measured Depth                : 
TLFamily_PHIT      .         Total Porosity                : 
TLFamily_PIGE      .         Effective Porosity            : 
TLFamily_PIGN      .         Effective Porosity            : 
TLFamily_Quartz    .         Quartz Volume Fraction        : 
TLFamily_RHGA_GEO  .         Grain Density                 : 
TLFamily_SW        .         Water Saturation              : 
TLFamily_SWE       .         Water Saturation              : 
TLFamily_UWater    .         Undisturbed Zone Water Volume Fraction: 
TLFamily_VCL_GEO   .         Clay Volume Fraction          : 
~Curve Information
#_______________________________________________________________________________
#
#LOGNAME           .UNIT     LOG_ID                        : DESCRIPTION
#_______________________________________________________________________________
MD                 .ft                                     :  {F}
Bound_Water        .ft3/ft3                                : Bound Water Volume Fraction {F}
Calcite            .ft3/ft3                                : Calcite Volume Fraction {F}
Chlorite           .ft3/ft3                                : Chlorite Volume Fraction {F}
Dolomite           .ft3/ft3                                : Dolomite Volume Fraction {F}
Dry_Weight_Calcite .lbm/lbm                                : Dry Weight Fraction From Quanti.Elan {F}
Dry_Weight_Chlorite .lbm/lbm                                : Dry Weight Fraction From Quanti.Elan {F}
Dry_Weight_Dolomite .lbm/lbm                                : Dry Weight Fraction From Quanti.Elan {F}
Dry_Weight_Hematite .lbm/lbm                                : Dry Weight Fraction From Quanti.Elan {F}
Dry_Weight_Illite  .lbm/lbm                                : Dry Weight Fraction From Quanti.Elan {F}
Dry_Weight_K-Feldspar .lbm/lbm                                : Dry Weight Fraction From Quanti.Elan {F}
Dry_Weight_Kaolinite .lbm/lbm                                : Dry Weight Fraction From Quanti.Elan {F}
Dry_Weight_Quartz  .lbm/lbm                                : Dry Weight Fraction From Quanti.Elan {F}
Hematite           .ft3/ft3                                : Hematite Volume Fraction {F}
Illite             .ft3/ft3                                : Illite Volume Fraction {F}
K-Feldspar         .ft3/ft3                                : Orthoclase Volume Fraction {F}
Kaolinite          .ft3/ft3                                : Kaolinite Volume Fraction {F}
KINT_GEO           .mD                                     : Permeability (Juhasz 1979) {F}
KSDR_py            .mD                                     :  {F}
PHIT               .ft3/ft3                                : Total Porosity {F}
PIGE               .ft3/ft3                                : Effective Porosity {F}
PIGN               .ft3/ft3                                : Effective porosity (with irreducible water) {F}
Quartz             .ft3/ft3                                : Quartz Volume Fraction {F}
RHGA_GEO           .g/cm3                                  : Apparent grain density {F}
SW                 .ft3/ft3                                : Undisturbed Zone Water Saturation {F}
SWE                .ft3/ft3                                : Undisturbed Zone Effective Water Saturation {F}
UWater             .ft3/ft3                                : Undisturbed Zone Water Volume Fraction {F}
VCL_GEO            .ft3/ft3                                : Clay fraction {F}
~Ascii
# ...
4630.25000 0.02510    0.52757    0.10456    0.00000    0.54996    0.10900    0.00000    0.00000    0.10631    0.20964    0.00000    0.02508    0.00000    0.10172    0.21642    0.00000    0.00000    0.00491    0.02511    0.00010    0.00010    0.02461    2.66664    1.00000    1.00000    0.00001    0.23139   
4630.75000 0.02563    0.48755    0.10430    0.00000    0.50941    0.10897    0.00000    0.00000    0.11116    0.22825    0.00000    0.04221    0.00000    0.10612    0.23508    0.00000    0.00000    0.00322    0.02564    0.00010    0.00010    0.04131    2.66195    1.00000    1.00000    0.00001    0.23605   
4631.25000 0.02469    0.46151    0.10709    0.00000    0.48256    0.11197    0.00000    0.00000    0.10073    0.24550    0.00000    0.05924    0.00000    0.09609    0.25267    0.00000    0.00000    0.00235    0.02470    0.00010    0.00010    0.05794    2.65744    1.00000    1.00000    0.00001    0.22787   
4631.75000 0.02477    0.44629    0.10592    0.00000    0.46699    0.11083    0.00000    0.00000    0.10261    0.25159    0.00000    0.06799    0.00000    0.09781    0.25874    0.00000    0.00000    0.00269    0.02478    0.00010    0.00010    0.06645    2.65573    1.00000    1.00000    0.00001    0.22850   
4632.25000 0.02503    0.43634    0.10647    0.00000    0.45677    0.11145    0.00000    0.00000    0.10423    0.25168    0.00000    0.07586    0.00000    0.09932    0.25872    0.00000    0.00000    0.00364    0.02504    0.00010    0.00010    0.07411    2.65526    1.00000    1.00000    0.00001    0.23082   
4632.75000 0.02480    0.43493    0.10359    0.00000    0.45507    0.10839    0.00000    0.00000    0.10508    0.24511    0.00000    0.08635    0.00000    0.10018    0.25210    0.00000    0.00000    0.00268    0.02481    0.00010    0.00010    0.08440    2.65595    1.00000    1.00000    0.00001    0.22857   
4633.25000 0.02376    0.43748    0.09575    0.00000    0.45740    0.10011    0.00000    0.00000    0.10405    0.24841    0.00000    0.09003    0.00000    0.09927    0.25568    0.00000    0.00000    0.00133    0.02377    0.00010    0.00010    0.08805    2.65507    1.00000    1.00000    0.00001    0.21878   
4633.75000 0.02125    0.44978    0.08434    0.00000    0.46949    0.08804    0.00000    0.00000    0.09419    0.26143    0.00000    0.08685    0.00000    0.09000    0.26952    0.00000    0.00000    0.00051    0.02126    0.00010    0.00010    0.08509    2.65262    1.00000    1.00000    0.00001    0.19560   
4634.25000 0.01862    0.47383    0.06922    0.00000    0.49350    0.07209    0.00000    0.00000    0.08692    0.27036    0.00000    0.07713    0.00000    0.08325    0.27934    0.00000    0.00000    0.00019    0.01863    0.00010    0.00010    0.07573    2.65138    1.00000    1.00000    0.00001    0.17109   
4634.75000 0.01641    0.50634    0.05678    0.00000    0.52600    0.05899    0.00000    0.00000    0.08048    0.26924    0.00000    0.06529    0.00000    0.07728    0.27891    0.00000    0.00000    0.00010    0.01642    0.00010    0.00010    0.06428    2.65225    1.00000    1.00000    0.00001    0.15047   
4635.25000 0.01447    0.53796    0.04877    0.00000    0.55735    0.05053    0.00000    0.00000    0.07210    0.26145    0.00000    0.05857    0.00000    0.06941    0.27156    0.00000    0.00000    0.00023    0.01448    0.00010    0.00010    0.05781    2.65414    1.00000    1.00000    0.00001    0.13266   
4635.75000 0.01309    0.56675    0.04460    0.00000    0.58583    0.04610    0.00000    0.00000    0.06457    0.25079    0.00000    0.05271    0.00000    0.06231    0.26109    0.00000    0.00000    0.00020    0.01310    0.00010    0.00010    0.05214    2.65654    1.00000    1.00000    0.00001    0.12000   
4636.25000 0.01235    0.59454    0.04266    0.00000    0.61345    0.04402    0.00000    0.00000    0.06024    0.23942    0.00000    0.04287    0.00000    0.05824    0.24971    0.00000    0.00000    0.00011    0.01236    0.00010    0.00010    0.04249    2.65935    1.00000    1.00000    0.00001    0.11325   
4636.75000 0.01210    0.61300    0.04251    0.00000    0.63185    0.04381    0.00000    0.00000    0.05827    0.23177    0.00000    0.03430    0.00000    0.05639    0.24198    0.00000    0.00000    0.00006    0.01211    0.00010    0.00010    0.03403    2.66137    1.00000    1.00000    0.00001    0.11099   
4637.25000 0.01275    0.60500    0.04480    0.00000    0.62416    0.04622    0.00000    0.00000    0.06145    0.23533    0.00000    0.03284    0.00000    0.05942    0.24547    0.00000    0.00000    0.00006    0.01276    0.00010    0.00010    0.03256    2.66077    1.00000    1.00000    0.00001    0.11696   
4637.75000 0.01454    0.56561    0.04943    0.00000    0.58545    0.05117    0.00000    0.00000    0.07193    0.25451    0.00000    0.03694    0.00000    0.06932    0.26460    0.00000    0.00000    0.00011    0.01455    0.00010    0.00010    0.03649    2.65678    1.00000    1.00000    0.00001    0.13329   
4638.25000 0.01672    0.50470    0.05659    0.00000    0.52730    0.05913    0.00000    0.00000    0.08373    0.28663    0.00000    0.04322    0.00000    0.07994    0.29523    0.00000    0.00002    0.00024    0.02124    0.00452    0.00452    0.04230    2.65014    1.00000    1.00000    0.00452    0.15325   
4638.75000 0.01910    0.43996    0.06529    0.00000    0.46385    0.06884    0.00000    0.00000    0.09589    0.32166    0.00000    0.04975    0.00000    0.09073    0.32831    0.00000    0.00017    0.00046    0.02744    0.00834    0.00834    0.04826    2.64294    1.00000    1.00000    0.00834    0.17512   
4639.25000 0.02138    0.38330    0.07411    0.00000    0.40725    0.07874    0.00000    0.00000    0.10715    0.35169    0.00000    0.05517    0.00000    0.10060    0.35621    0.00000    0.00057    0.00097    0.03269    0.01131    0.01131    0.05310    2.63682    1.00000    1.00000    0.01131    0.19608   
4639.75000 0.02335    0.34326    0.08223    0.00000    0.36652    0.08780    0.00000    0.00000    0.11637    0.37078    0.00000    0.05853    0.00000    0.10871    0.37369    0.00000    0.00093    0.00256    0.03606    0.01271    0.01271    0.05605    2.63296    1.00000    1.00000    0.01271    0.21429   
4640.25000 0.02486    0.32336    0.09012    0.00000    0.34435    0.09597    0.00000    0.00000    0.12092    0.37489    0.00000    0.06387    0.00000    0.11326    0.37884    0.00000    0.00023    0.00360    0.03308    0.00822    0.00822    0.06134    2.63188    1.00000    1.00000    0.00822    0.22824   
4640.75000 0.02611    0.30948    0.09667    0.00000    0.32716    0.10219    0.00000    0.00000    0.12413    0.36795    0.00000    0.07857    0.00000    0.11713    0.37457    0.00000    0.00000    0.00283    0.02614    0.00010    0.00010    0.07601    2.63240    1.00000    1.00000    0.00003    0.23990   
4641.25000 0.02769    0.27928    0.09985    0.00000    0.29573    0.10573    0.00000    0.00000    0.13450    0.36312    0.00000    0.10091    0.00000    0.12670    0.36902    0.00000    0.00000    0.00241    0.02770    0.00010    0.00010    0.09745    2.63212    1.00000    1.00000    0.00001    0.25424   
4641.75000 0.02989    0.23194    0.10096    0.00000    0.24759    0.10777    0.00000    0.00000    0.15321    0.36472    0.00000    0.12671    0.00000    0.14317    0.36768    0.00000    0.00004    0.00321    0.03486    0.00497    0.00497    0.12139    2.63043    1.00000    1.00000    0.00497    0.27402   
4642.25000 0.03377    0.18296    0.10105    0.00000    0.19743    0.10904    0.00000    0.00000    0.17704    0.35996    0.01960    0.13693    0.00000    0.16366    0.35898    0.01872    0.00041    0.00446    0.04485    0.01108    0.01108    0.12977    2.62940    1.00000    1.00000    0.01108    0.31720   
4642.75000 0.03671    0.15446    0.10624    0.00000    0.16801    0.11556    0.00000    0.00000    0.19868    0.34719    0.01976    0.15080    0.00000    0.18219    0.34348    0.01872    0.00108    0.00466    0.05315    0.01644    0.01644    0.14177    2.63120    1.00000    1.00000    0.01644    0.34385   
