~Version
 VERS              .         3.0                           : CWLS LOG ASCII STANDARD - VERSION 3.0
 WRAP              .         NO                            : ONE LINE PER DEPTH STEP
 DLM               .         SPACE                         : DELIMITING CHARACTER(SPACE TAB OR COMMA)
~Well Information
#_______________________________________________________________________________
#
#PARAMETER_NAME    .UNIT     VALUE                         : DESCRIPTION
#_______________________________________________________________________________
STRT               .ft       4357.25000                    : First reference value
STOP               .ft       6466.75000                    : Last reference value
STEP               .ft       0.50000                       : Step increment
NULL               .         -9999                         : Missing value
COMP               .         Podolsky Oil Company          : Company
WELL               .         T_R_ McMillen #2              : Well name
FLD                .         Mount Auburn                  : Field
LOC                .                                       : Location
SRVC               .                                       : Service Company
CTRY               .         US                            : Country
STAT               .         Illinois                      : State
CNTY               .                                       : County
API                .                                       : API NUMBER
DATE               .         03-Dec-2018                   : Service Date
LATI               .         39.772784 degrees             : Latitude
LONG               .         -89.203412 degrees            : Longitude
GDAT               .                                       : Geodetic Datum
APD                .ft       15                            : Elevation of Depth Reference (LMF) Above Permanent Datum
BHS                .         OPEN                          : Borehole Status (Open or Cased Hole)
BHT                .degF     103                           : Bottom Hole Temperature
BLI                .ft       6475                          : Bottom Log Interval
BS                 .in       6.75                          : Bit Size
CBDR               .ft       4355                          : Casing Bottom of Driller
CBLO               .ft       4353                          : Logger Casing Shoe Depth
CSIZ               .in       7.625                         : Current Casing Size
CWEI               .lbm/ft   11.6                          : Casing Weight
COUNTRY            .         United States                 : Nation
DCS                .         03-Dec-2018                   : Date Circulation Stopped
DFD                .lbm/gal  9.25                          : Drilling Fluid Density
DFT                .         WATER                         : Drilling Fluid Type
DLAB               .         03-Dec-2018                   : Date Logger At Bottom
EDF                .ft       618                           : Elevation of Drill Floor
EGL                .ft       603                           : Elevation of Ground Level
EKB                .ft       618                           : Elevation of Kelly Bushing
EPD                .ft       603                           : Elevation of Permanent Datum (PDAT) above Mean Sea Level
LMF                .         KB                            : Logging Measured From (Name of Logging Elevation Reference)
LUL                .         Bradford                      : Logging Unit Location
LUN                .         3703                          : Logging Unit Number
MCST               .degF     71.2                          : Mudcake Sample Temperature
MFST               .degF     69.1                          : Mud Filtrate Sample Temperature
MRT                .degF     103                           : Maximum Recorded Temperature
MST                .degF     59.2                          : Mud Sample Temperature
PDAT               .         GL                            : Permanent Datum
PRODUCER-CODE      .         440                           : 
PRODUCER-NAME      .         Schlumberger                  : 
RMB                .ohm.m    0.835368                      : Resistivity of Mud at Bottom Hole Temperature
RMCS               .ohm.m    1.55                          : Resistivity of Mud Cake Sample
RMFS               .ohm.m    1.26                          : Resistivity of Mud Filtrate Sample
RMS                .ohm.m    1.39                          : Resistivity of Mud Sample
RUN                .         2A                            : Run Number
TCS                .         08_00_00                      : Time Circulation Stopped
TDD                .ft       6469                          : Driller Total Depth
TDL                .ft       6475                          : Logger Total Depth
TLAB               .         17_50_00                      : Time Logger At Bottom
TLI                .ft       4353                          : Top Log Interval
~Parameter Information Block
#_______________________________________________________________________________
#
#PARAMETER_NAME    .UNIT     VALUE                         : DESCRIPTION
#_______________________________________________________________________________
SET                .         01_Elan                       : 
TLFamily_Bound_Water .         Bound Water Volume Fraction   : 
TLFamily_Calcite   .         Calcite Volume Fraction       : 
TLFamily_Chlorite  .         Chlorite Volume Fraction      : 
TLFamily_Dolomite  .         Dolomite Volume Fraction      : 
TLFamily_Dry_Weight_Calcite .         Calcite Weight Fraction       : 
TLFamily_Dry_Weight_Chlorite .         Chlorite Weight Fraction      : 
TLFamily_Dry_Weight_Dolomite .         Dolomite Weight Fraction      : 
TLFamily_Dry_Weight_Hematite .         Hematite Weight Fraction      : 
TLFamily_Dry_Weight_Illite .         Illite Weight Fraction        : 
TLFamily_Dry_Weight_K-Feldspar .         Orthoclase Weight Fraction    : 
TLFamily_Dry_Weight_Kaolinite .         Kaolinite Weight Fraction     : 
TLFamily_Dry_Weight_Quartz .         Quartz Weight Fraction        : 
TLFamily_Hematite  .         Hematite Volume Fraction      : 
TLFamily_Illite    .         Illite Volume Fraction        : 
TLFamily_K-Feldspar .         Orthoclase Volume Fraction    : 
TLFamily_KINT_GEO  .         Permeability                  : 
TLFamily_KSDR_py   .         NMR Permeability              : 
TLFamily_Kaolinite .         Kaolinite Volume Fraction     : 
TLFamily_MD        .         Measured Depth                : 
TLFamily_PHIT      .         Total Porosity                : 
TLFamily_PIGE      .         Effective Porosity            : 
TLFamily_PIGN      .         Effective Porosity            : 
TLFamily_Quartz    .         Quartz Volume Fraction        : 
TLFamily_RHGA_GEO  .         Grain Density                 : 
TLFamily_SW        .         Water Saturation              : 
TLFamily_SWE       .         Water Saturation              : 
TLFamily_UWater    .         Undisturbed Zone Water Volume Fraction: 
TLFamily_VCL_GEO   .         Clay Volume Fraction          : 
~Curve Information
#_______________________________________________________________________________
#
#LOGNAME           .UNIT     LOG_ID                        : DESCRIPTION
#_______________________________________________________________________________
MD                 .ft                                     :  {F}
Bound_Water        .ft3/ft3                                : Bound Water Volume Fraction {F}
Calcite            .ft3/ft3                                : Calcite Volume Fraction {F}
Chlorite           .ft3/ft3                                : Chlorite Volume Fraction {F}
Dolomite           .ft3/ft3                                : Dolomite Volume Fraction {F}
Dry_Weight_Calcite .lbm/lbm                                : Dry Weight Fraction From Quanti.Elan {F}
Dry_Weight_Chlorite .lbm/lbm                                : Dry Weight Fraction From Quanti.Elan {F}
Dry_Weight_Dolomite .lbm/lbm                                : Dry Weight Fraction From Quanti.Elan {F}
Dry_Weight_Hematite .lbm/lbm                                : Dry Weight Fraction From Quanti.Elan {F}
Dry_Weight_Illite  .lbm/lbm                                : Dry Weight Fraction From Quanti.Elan {F}
Dry_Weight_K-Feldspar .lbm/lbm                                : Dry Weight Fraction From Quanti.Elan {F}
Dry_Weight_Kaolinite .lbm/lbm                                : Dry Weight Fraction From Quanti.Elan {F}
Dry_Weight_Quartz  .lbm/lbm                                : Dry Weight Fraction From Quanti.Elan {F}
Hematite           .ft3/ft3                                : Hematite Volume Fraction {F}
Illite             .ft3/ft3                                : Illite Volume Fraction {F}
K-Feldspar         .ft3/ft3                                : Orthoclase Volume Fraction {F}
Kaolinite          .ft3/ft3                                : Kaolinite Volume Fraction {F}
KINT_GEO           .mD                                     : Permeability (Juhasz 1979) {F}
KSDR_py            .mD                                     :  {F}
PHIT               .ft3/ft3                                : Total Porosity {F}
PIGE               .ft3/ft3                                : Effective Porosity {F}
PIGN               .ft3/ft3                                : Effective porosity (with irreducible water) {F}
Quartz             .ft3/ft3                                : Quartz Volume Fraction {F}
RHGA_GEO           .g/cm3                                  : Apparent grain density {F}
SW                 .ft3/ft3                                : Undisturbed Zone Water Saturation {F}
SWE                .ft3/ft3                                : Undisturbed Zone Effective Water Saturation {F}
UWater             .ft3/ft3                                : Undisturbed Zone Water Volume Fraction {F}
VCL_GEO            .ft3/ft3                                : Clay fraction {F}
~Ascii
# ...
5332.25000 0.00204    0.00000    0.00360    0.00000    0.00000    0.00421    0.00000    0.00000    0.01514    0.01327    0.00000    0.96737    0.00000    0.01292    0.01221    0.00000    41.10341   74.61842   0.12534    0.12330    0.12330    0.84593    2.64939    1.00000    1.00000    0.12330    0.01856   
5332.75000 0.00138    0.00000    0.00335    0.00000    0.00000    0.00398    0.00000    0.00000    0.00941    0.01519    0.00000    0.97142    0.00000    0.00792    0.01379    0.00000    65.83684   69.74701   0.13711    0.13573    0.13573    0.83783    2.64874    1.00000    1.00000    0.13573    0.01266   
5333.25000 0.00105    0.00000    0.00177    0.00000    0.00000    0.00211    0.00000    0.00000    0.00810    0.01471    0.00000    0.97509    0.00000    0.00677    0.01327    0.00000    79.64760   60.98186   0.14202    0.14097    0.14097    0.83617    2.64861    1.00000    1.00000    0.14097    0.00959   
5333.75000 0.00127    0.00000    0.00160    0.00000    0.00000    0.00190    0.00000    0.00000    0.01032    0.01342    0.00000    0.97436    0.00000    0.00869    0.01218    0.00000    66.00291   56.28831   0.13692    0.13564    0.13564    0.84061    2.64893    1.00000    1.00000    0.13564    0.01156   
5334.25000 0.00183    0.00166    0.00245    0.00000    0.00194    0.00288    0.00000    0.00000    0.01450    0.01103    0.00000    0.96965    0.00000    0.01232    0.01011    0.00000    46.39509   45.17241   0.12890    0.12707    0.12707    0.84457    2.64970    1.00000    1.00000    0.12707    0.01660   
5334.75000 0.00242    0.00855    0.00408    0.00000    0.00995    0.00474    0.00000    0.00000    0.01811    0.00886    0.00000    0.95833    0.00000    0.01552    0.00820    0.00000    31.80450   35.59998   0.12176    0.11934    0.11934    0.84190    2.65081    1.00000    1.00000    0.11934    0.02201   
5335.25000 0.00276    0.01629    0.00589    0.00000    0.01884    0.00681    0.00000    0.00000    0.01919    0.00812    0.00000    0.94704    0.00000    0.01655    0.00755    0.00000    23.82038   33.89361   0.11633    0.11357    0.11357    0.83738    2.65163    1.00000    1.00000    0.11357    0.02520   
5335.75000 0.00285    0.02087    0.00668    0.00000    0.02404    0.00769    0.00000    0.00000    0.01909    0.00759    0.00000    0.94160    0.00000    0.01654    0.00709    0.00000    19.97732   42.04306   0.11255    0.10970    0.10970    0.83627    2.65206    1.00000    1.00000    0.10970    0.02607   
5336.25000 0.00278    0.02009    0.00679    0.00000    0.02317    0.00783    0.00000    0.00000    0.01834    0.00774    0.00000    0.94292    0.00000    0.01586    0.00722    0.00000    21.48241   56.15322   0.11414    0.11137    0.11137    0.83590    2.65194    1.00000    1.00000    0.11137    0.02543   
5336.75000 0.00289    0.01599    0.00647    0.00000    0.01851    0.00749    0.00000    0.00000    0.01976    0.00732    0.00000    0.94691    0.00000    0.01703    0.00681    0.00000    24.03058   70.00072   0.11730    0.11441    0.11441    0.83640    2.65180    1.00000    1.00000    0.11441    0.02639   
5337.25000 0.00305    0.01211    0.00644    0.00000    0.01406    0.00748    0.00000    0.00000    0.02136    0.00683    0.00000    0.95028    0.00000    0.01836    0.00634    0.00000    25.50506   74.76855   0.11924    0.11619    0.11619    0.83751    2.65171    1.00000    1.00000    0.11619    0.02785   
5337.75000 0.00341    0.00930    0.00632    0.00000    0.01077    0.00731    0.00000    0.00000    0.02475    0.00566    0.00000    0.95152    0.00000    0.02133    0.00526    0.00000    22.69501   71.64709   0.11713    0.11372    0.11372    0.84067    2.65189    1.00000    1.00000    0.11372    0.03105   
5338.25000 0.00361    0.00695    0.00642    0.00000    0.00801    0.00741    0.00000    0.00000    0.02640    0.00512    0.00000    0.95306    0.00000    0.02284    0.00478    0.00000    19.82686   77.76383   0.11375    0.11014    0.11014    0.84526    2.65192    1.00000    1.00000    0.11014    0.03287   
5338.75000 0.00369    0.00545    0.00623    0.00000    0.00627    0.00716    0.00000    0.00000    0.02730    0.00438    0.00000    0.95489    0.00000    0.02369    0.00410    0.00000    17.89982   87.47004   0.11103    0.10734    0.10734    0.84950    2.65196    1.00000    1.00000    0.10734    0.03361   
5339.25000 0.00352    0.00402    0.00601    0.00000    0.00464    0.00694    0.00000    0.00000    0.02602    0.00551    0.00000    0.95690    0.00000    0.02249    0.00513    0.00000    21.12797   95.07547   0.11454    0.11102    0.11102    0.84781    2.65161    1.00000    1.00000    0.11102    0.03202   
5339.75000 0.00335    0.00261    0.00567    0.00000    0.00304    0.00659    0.00000    0.00000    0.02506    0.00607    0.00000    0.95924    0.00000    0.02151    0.00562    0.00000    26.71490   89.25043   0.12043    0.11707    0.11707    0.84416    2.65136    1.00000    1.00000    0.11707    0.03054   
5340.25000 0.00312    0.00069    0.00495    0.00000    0.00081    0.00576    0.00000    0.00000    0.02370    0.00689    0.00000    0.96284    0.00000    0.02030    0.00637    0.00000    30.08551   45.72523   0.12237    0.11925    0.11925    0.84533    2.65098    1.00000    1.00000    0.11925    0.02837   
5340.75000 0.00288    0.00004    0.00429    0.00000    0.00005    0.00495    0.00000    0.00000    0.02202    0.00764    0.00000    0.96534    0.00000    0.01902    0.00713    0.00000    24.29704   18.17247   0.11443    0.11155    0.11155    0.85509    2.65067    1.00000    1.00000    0.11155    0.02619   
5341.25000 0.00288    0.00000    0.00276    0.00000    0.00000    0.00313    0.00000    0.00000    0.02325    0.00734    0.00000    0.96628    0.00000    0.02045    0.00697    0.00000    13.63428   6.44151    0.09863    0.09575    0.09575    0.87120    2.65068    1.00000    1.00000    0.09575    0.02609   
5341.75000 0.00287    0.00000    0.00190    0.00000    0.00000    0.00213    0.00000    0.00000    0.02279    0.00877    0.00162    0.96469    0.00000    0.02032    0.00843    0.00149    8.11169    2.33651    0.08613    0.08327    0.08327    0.88172    2.65036    1.00000    1.00000    0.08327    0.02658   
5342.25000 0.00280    0.00005    0.00204    0.00000    0.00006    0.00227    0.00000    0.00000    0.02286    0.00980    0.00000    0.96502    0.00000    0.02049    0.00948    0.00000    6.60686    2.02480    0.08118    0.07837    0.07837    0.88677    2.65027    1.00000    1.00000    0.07837    0.02533   
5342.75000 0.00277    0.00000    0.00312    0.00000    0.00000    0.00348    0.00000    0.00000    0.02147    0.01105    0.00000    0.96400    0.00000    0.01922    0.01068    0.00000    7.00424    2.50810    0.08214    0.07937    0.07937    0.88484    2.65007    1.00000    1.00000    0.07937    0.02511   
5343.25000 0.00291    0.00000    0.00389    0.00000    0.00000    0.00434    0.00000    0.00000    0.02193    0.00979    0.00000    0.96394    0.00000    0.01961    0.00944    0.00000    7.16415    3.65096    0.08328    0.08038    0.08038    0.88377    2.65033    1.00000    1.00000    0.08038    0.02641   
5343.75000 0.00283    0.00000    0.00448    0.00000    0.00000    0.00502    0.00000    0.00000    0.02072    0.00849    0.00000    0.96577    0.00000    0.01843    0.00814    0.00000    9.05651    5.81336    0.08835    0.08552    0.08552    0.88060    2.65047    1.00000    1.00000    0.08552    0.02574   
5344.25000 0.00270    0.00000    0.00490    0.00000    0.00000    0.00556    0.00000    0.00000    0.01936    0.00869    0.00000    0.96638    0.00000    0.01702    0.00824    0.00000    14.29905   15.17712   0.09887    0.09617    0.09617    0.87096    2.65038    1.00000    1.00000    0.09617    0.02463   
5344.75000 0.00240    0.00214    0.00478    0.00000    0.00248    0.00554    0.00000    0.00000    0.01709    0.01001    0.00000    0.96490    0.00000    0.01472    0.00930    0.00000    28.67342   44.00604   0.11699    0.11459    0.11459    0.85207    2.65020    1.00000    1.00000    0.11459    0.02190   
