~Version
 VERS              .         3.0                           : CWLS LOG ASCII STANDARD - VERSION 3.0
 WRAP              .         NO                            : ONE LINE PER DEPTH STEP
 DLM               .         SPACE                         : DELIMITING CHARACTER(SPACE TAB OR COMMA)
~Well Information
#_______________________________________________________________________________
#
#PARAMETER_NAME    .UNIT     VALUE                         : DESCRIPTION
#_______________________________________________________________________________
STRT               .ft       4357.25000                    : First reference value
STOP               .ft       6466.75000                    : Last reference value
STEP               .ft       0.50000                       : Step increment
NULL               .         -9999                         : Missing value
COMP               .         Podolsky Oil Company          : Company
WELL               .         T_R_ McMillen #2              : Well name
FLD                .         Mount Auburn                  : Field
LOC                .                                       : Location
SRVC               .                                       : Service Company
CTRY               .         US                            : Country
STAT               .         Illinois                      : State
CNTY               .                                       : County
API                .                                       : API NUMBER
DATE               .         03-Dec-2018                   : Service Date
LATI               .         39.772784 degrees             : Latitude
LONG               .         -89.203412 degrees            : Longitude
GDAT               .                                       : Geodetic Datum
APD                .ft       15                            : Elevation of Depth Reference (LMF) Above Permanent Datum
BHS                .         OPEN                          : Borehole Status (Open or Cased Hole)
BHT                .degF     103                           : Bottom Hole Temperature
BLI                .ft       6475                          : Bottom Log Interval
BS                 .in       6.75                          : Bit Size
CBDR               .ft       4355                          : Casing Bottom of Driller
CBLO               .ft       4353                          : Logger Casing Shoe Depth
CSIZ               .in       7.625                         : Current Casing Size
CWEI               .lbm/ft   11.6                          : Casing Weight
COUNTRY            .         United States                 : Nation
DCS                .         03-Dec-2018                   : Date Circulation Stopped
DFD                .lbm/gal  9.25                          : Drilling Fluid Density
DFT                .         WATER                         : Drilling Fluid Type
DLAB               .         03-Dec-2018                   : Date Logger At Bottom
EDF                .ft       618                           : Elevation of Drill Floor
EGL                .ft       603                           : Elevation of Ground Level
EKB                .ft       618                           : Elevation of Kelly Bushing
EPD                .ft       603                           : Elevation of Permanent Datum (PDAT) above Mean Sea Level
LMF                .         KB                            : Logging Measured From (Name of Logging Elevation Reference)
LUL                .         Bradford                      : Logging Unit Location
LUN                .         3703                          : Logging Unit Number
MCST               .degF     71.2                          : Mudcake Sample Temperature
MFST               .degF     69.1                          : Mud Filtrate Sample Temperature
MRT                .degF     103                           : Maximum Recorded Temperature
MST                .degF     59.2                          : Mud Sample Temperature
PDAT               .         GL                            : Permanent Datum
PRODUCER-CODE      .         440                           : 
PRODUCER-NAME      .         Schlumberger                  : 
RMB                .ohm.m    0.835368                      : Resistivity of Mud at Bottom Hole Temperature
RMCS               .ohm.m    1.55                          : Resistivity of Mud Cake Sample
RMFS               .ohm.m    1.26                          : Resistivity of Mud Filtrate Sample
RMS                .ohm.m    1.39                          : Resistivity of Mud Sample
RUN                .         2A                            : Run Number
TCS                .         08_00_00                      : Time Circulation Stopped
TDD                .ft       6469                          : Driller Total Depth
TDL                .ft       6475                          : Logger Total Depth
TLAB               .         17_50_00                      : Time Logger At Bottom
TLI                .ft       4353                          : Top Log Interval
~Parameter Information Block
#_______________________________________________________________________________
#
#PARAMETER_NAME    .UNIT     VALUE                         : DESCRIPTION
#_______________________________________________________________________________
SET                .         01_Elan                       : 
TLFamily_Bound_Water .         Bound Water Volume Fraction   : 
TLFamily_Calcite   .         Calcite Volume Fraction       : 
TLFamily_Chlorite  .         Chlorite Volume Fraction      : 
TLFamily_Dolomite  .         Dolomite Volume Fraction      : 
TLFamily_Dry_Weight_Calcite .         Calcite Weight Fraction       : 
TLFamily_Dry_Weight_Chlorite .         Chlorite Weight Fraction      : 
TLFamily_Dry_Weight_Dolomite .         Dolomite Weight Fraction      : 
TLFamily_Dry_Weight_Hematite .         Hematite Weight Fraction      : 
TLFamily_Dry_Weight_Illite .         Illite Weight Fraction        : 
TLFamily_Dry_Weight_K-Feldspar .         Orthoclase Weight Fraction    : 
TLFamily_Dry_Weight_Kaolinite .         Kaolinite Weight Fraction     : 
TLFamily_Dry_Weight_Quartz .         Quartz Weight Fraction        : 
TLFamily_Hematite  .         Hematite Volume Fraction      : 
TLFamily_Illite    .         Illite Volume Fraction        : 
TLFamily_K-Feldspar .         Orthoclase Volume Fraction    : 
TLFamily_KINT_GEO  .         Permeability                  : 
TLFamily_KSDR_py   .         NMR Permeability              : 
TLFamily_Kaolinite .         Kaolinite Volume Fraction     : 
TLFamily_MD        .         Measured Depth                : 
TLFamily_PHIT      .         Total Porosity                : 
TLFamily_PIGE      .         Effective Porosity            : 
TLFamily_PIGN      .         Effective Porosity            : 
TLFamily_Quartz    .         Quartz Volume Fraction        : 
TLFamily_RHGA_GEO  .         Grain Density                 : 
TLFamily_SW        .         Water Saturation              : 
TLFamily_SWE       .         Water Saturation              : 
TLFamily_UWater    .         Undisturbed Zone Water Volume Fraction: 
TLFamily_VCL_GEO   .         Clay Volume Fraction          : 
~Curve Information
#_______________________________________________________________________________
#
#LOGNAME           .UNIT     LOG_ID                        : DESCRIPTION
#_______________________________________________________________________________
MD                 .ft                                     :  {F}
Bound_Water        .ft3/ft3                                : Bound Water Volume Fraction {F}
Calcite            .ft3/ft3                                : Calcite Volume Fraction {F}
Chlorite           .ft3/ft3                                : Chlorite Volume Fraction {F}
Dolomite           .ft3/ft3                                : Dolomite Volume Fraction {F}
Dry_Weight_Calcite .lbm/lbm                                : Dry Weight Fraction From Quanti.Elan {F}
Dry_Weight_Chlorite .lbm/lbm                                : Dry Weight Fraction From Quanti.Elan {F}
Dry_Weight_Dolomite .lbm/lbm                                : Dry Weight Fraction From Quanti.Elan {F}
Dry_Weight_Hematite .lbm/lbm                                : Dry Weight Fraction From Quanti.Elan {F}
Dry_Weight_Illite  .lbm/lbm                                : Dry Weight Fraction From Quanti.Elan {F}
Dry_Weight_K-Feldspar .lbm/lbm                                : Dry Weight Fraction From Quanti.Elan {F}
Dry_Weight_Kaolinite .lbm/lbm                                : Dry Weight Fraction From Quanti.Elan {F}
Dry_Weight_Quartz  .lbm/lbm                                : Dry Weight Fraction From Quanti.Elan {F}
Hematite           .ft3/ft3                                : Hematite Volume Fraction {F}
Illite             .ft3/ft3                                : Illite Volume Fraction {F}
K-Feldspar         .ft3/ft3                                : Orthoclase Volume Fraction {F}
Kaolinite          .ft3/ft3                                : Kaolinite Volume Fraction {F}
KINT_GEO           .mD                                     : Permeability (Juhasz 1979) {F}
KSDR_py            .mD                                     :  {F}
PHIT               .ft3/ft3                                : Total Porosity {F}
PIGE               .ft3/ft3                                : Effective Porosity {F}
PIGN               .ft3/ft3                                : Effective porosity (with irreducible water) {F}
Quartz             .ft3/ft3                                : Quartz Volume Fraction {F}
RHGA_GEO           .g/cm3                                  : Apparent grain density {F}
SW                 .ft3/ft3                                : Undisturbed Zone Water Saturation {F}
SWE                .ft3/ft3                                : Undisturbed Zone Effective Water Saturation {F}
UWater             .ft3/ft3                                : Undisturbed Zone Water Volume Fraction {F}
VCL_GEO            .ft3/ft3                                : Clay fraction {F}
~Ascii
# ...
4916.25000 0.04438    0.42505    0.18433    0.00000    0.44947    0.19492    0.00000    0.00000    0.19200    0.13617    0.00000    0.02744    0.00000    0.18112    0.13858    0.00000    0.00000    0.17532    0.04439    0.00010    0.00010    0.02654    2.68182    1.00000    1.00000    0.00001    0.40982   
4916.75000 0.04331    0.42799    0.18336    0.00000    0.45175    0.19354    0.00000    0.00000    0.18362    0.11906    0.00000    0.05203    0.00000    0.17353    0.12139    0.00000    0.00000    0.37234    0.04332    0.00010    0.00010    0.05041    2.68375    1.00000    1.00000    0.00001    0.40020   
4917.25000 0.04110    0.38459    0.18175    0.00000    0.40598    0.19186    0.00000    0.00000    0.16658    0.13680    0.00000    0.09878    0.00000    0.15741    0.13945    0.00000    0.00000    0.61781    0.04111    0.00010    0.00010    0.09570    2.67725    1.00000    1.00000    0.00001    0.38025   
4917.75000 0.04013    0.31082    0.17445    0.00000    0.32889    0.18459    0.00000    0.00000    0.16604    0.16454    0.00000    0.15594    0.00000    0.15653    0.16734    0.00000    0.00000    0.64379    0.04014    0.00010    0.00010    0.15072    2.66827    1.00000    1.00000    0.00001    0.37111   
4918.25000 0.03886    0.23527    0.16404    0.00000    0.24942    0.17391    0.00000    0.00000    0.16595    0.18793    0.00000    0.22279    0.00000    0.15615    0.19076    0.00000    0.00000    1.18839    0.03887    0.00010    0.00010    0.21491    2.65964    1.00000    1.00000    0.00001    0.35905   
4918.75000 0.03716    0.17599    0.14714    0.00000    0.18772    0.15694    0.00000    0.00000    0.16940    0.20945    0.00000    0.27648    0.00000    0.15842    0.21132    0.00000    0.00001    2.86695    0.04205    0.00489    0.00489    0.26508    2.65223    1.00000    1.00000    0.00489    0.34272   
4919.25000 0.03419    0.14331    0.12841    0.00000    0.15510    0.13898    0.00000    0.00000    0.16521    0.22897    0.00000    0.31174    0.00000    0.15227    0.22767    0.00000    0.00165    6.25080    0.05377    0.01958    0.01958    0.29456    2.64629    1.00000    1.00000    0.01958    0.31488   
4919.75000 0.03135    0.12089    0.11428    0.00000    0.13308    0.12581    0.00000    0.00000    0.15768    0.24944    0.00000    0.33400    0.00000    0.14288    0.24384    0.00000    0.02145    9.79676    0.06784    0.03648    0.03648    0.31028    2.64093    1.00000    1.00000    0.03648    0.28852   
4920.25000 0.03022    0.11296    0.10986    0.00000    0.12514    0.12169    0.00000    0.00000    0.15326    0.26704    0.00000    0.33287    0.00000    0.13801    0.25941    0.00000    0.04541    10.17220   0.07246    0.04224    0.04224    0.30729    2.63752    1.00000    1.00000    0.04224    0.27809   
4920.75000 0.03128    0.12638    0.11515    0.00000    0.13905    0.12669    0.00000    0.00000    0.15602    0.27701    0.00000    0.30123    0.00000    0.14145    0.27094    0.00000    0.02064    6.21262    0.06608    0.03481    0.03481    0.27999    2.63743    1.00000    1.00000    0.03481    0.28788   
4921.25000 0.03380    0.15949    0.12488    0.00000    0.17189    0.13459    0.00000    0.00000    0.16474    0.26956    0.00000    0.25922    0.00000    0.15246    0.26914    0.00000    0.00071    2.39489    0.04807    0.01427    0.01427    0.24596    2.64139    1.00000    1.00000    0.01427    0.31114   
4921.75000 0.03577    0.20909    0.13895    0.00000    0.22187    0.14745    0.00000    0.00000    0.16485    0.24347    0.00000    0.22235    0.00000    0.15497    0.24692    0.00000    0.00000    0.66568    0.03578    0.00010    0.00010    0.21429    2.64867    1.00000    1.00000    0.00001    0.32969   
4922.25000 0.03641    0.25382    0.15521    0.00000    0.26885    0.16440    0.00000    0.00000    0.15384    0.21817    0.00000    0.19474    0.00000    0.14488    0.22165    0.00000    0.00000    0.19051    0.03642    0.00010    0.00010    0.18801    2.65522    1.00000    1.00000    0.00001    0.33650   
4922.75000 0.03648    0.25880    0.16487    0.00000    0.27406    0.17458    0.00000    0.00000    0.14486    0.21390    0.00000    0.19260    0.00000    0.13646    0.21737    0.00000    0.00000    0.15383    0.03649    0.00010    0.00010    0.18600    2.65613    1.00000    1.00000    0.00001    0.33781   
4923.25000 0.03684    0.22609    0.16074    0.00000    0.23987    0.17054    0.00000    0.00000    0.15222    0.23057    0.00000    0.20680    0.00000    0.14312    0.23387    0.00000    0.00000    0.30017    0.03685    0.00010    0.00010    0.19933    2.65204    1.00000    1.00000    0.00001    0.34069   
4923.75000 0.03643    0.19495    0.16184    0.00000    0.20701    0.17186    0.00000    0.00000    0.14778    0.24003    0.00000    0.23332    0.00000    0.13882    0.24325    0.00000    0.00000    0.62242    0.03644    0.00010    0.00010    0.22470    2.64859    1.00000    1.00000    0.00001    0.33709   
4924.25000 0.03702    0.19329    0.17033    0.00000    0.20516    0.18079    0.00000    0.00000    0.14435    0.22154    0.00000    0.24816    0.00000    0.13565    0.22460    0.00000    0.00000    0.66327    0.03703    0.00010    0.00010    0.23909    2.65135    1.00000    1.00000    0.00001    0.34301   
4924.75000 0.03959    0.22510    0.19344    0.00000    0.23868    0.20512    0.00000    0.00000    0.14297    0.17537    0.00000    0.23785    0.00000    0.13450    0.17798    0.00000    0.00000    0.24652    0.03960    0.00010    0.00010    0.22939    2.66110    1.00000    1.00000    0.00001    0.36753   
4925.25000 0.04502    0.27655    0.22846    0.00000    0.29336    0.24235    0.00000    0.00000    0.15416    0.11897    0.00000    0.19117    0.00000    0.14497    0.12069    0.00000    0.00000    0.04516    0.04503    0.00010    0.00010    0.18430    2.67523    1.00000    1.00000    0.00001    0.41845   
4925.75000 0.04747    0.33709    0.28776    0.00000    0.35705    0.30480    0.00000    0.00000    0.11584    0.07812    0.00000    0.14420    0.00000    0.10909    0.07936    0.00000    0.00000    0.00648    0.04748    0.00010    0.00010    0.13922    2.68604    1.00000    1.00000    0.00001    0.44432   
4926.25000 0.04321    0.38614    0.36806    0.00000    0.40705    0.38799    0.00000    0.00000    0.00000    0.07392    0.00000    0.13104    0.00000    0.00000    0.07546    0.00000    0.00000    0.00137    0.04322    0.00010    0.00010    0.12713    2.68691    1.00000    1.00000    0.00001    0.41127   
4926.75000 0.04490    0.39841    0.38249    0.00000    0.41998    0.40319    0.00000    0.00000    0.00000    0.05226    0.00000    0.12457    0.00000    0.00000    0.05335    0.00000    0.00000    0.00118    0.04491    0.00010    0.00010    0.12085    2.69170    1.00000    1.00000    0.00001    0.42739   
4927.25000 0.04608    0.36257    0.39251    0.00000    0.38250    0.41409    0.00000    0.00000    0.00000    0.03272    0.00000    0.17068    0.00000    0.00000    0.03338    0.00000    0.00000    0.00164    0.04609    0.00010    0.00010    0.16545    2.69289    1.00000    1.00000    0.00001    0.43859   
4927.75000 0.04874    0.31031    0.38557    0.00000    0.32811    0.40768    0.00000    0.00000    0.02941    0.01056    0.00000    0.22423    0.00000    0.02775    0.01075    0.00000    0.00000    0.00289    0.04875    0.00010    0.00010    0.21687    2.69435    1.00000    1.00000    0.00001    0.46206   
4928.25000 0.05004    0.26767    0.38077    0.00000    0.28345    0.40322    0.00000    0.00000    0.04521    0.00000    0.00000    0.26812    0.00000    0.04259    0.00000    0.00000    0.00000    0.00434    0.05005    0.00010    0.00010    0.25892    2.69395    1.00000    1.00000    0.00001    0.47340   
4928.75000 0.05194    0.22855    0.38280    0.00000    0.24262    0.40639    0.00000    0.00000    0.05938    0.00000    0.00000    0.29161    0.00000    0.05579    0.00000    0.00000    0.00000    0.00519    0.05195    0.00010    0.00010    0.28091    2.69262    1.00000    1.00000    0.00001    0.49053   
