~Version
 VERS              .         3.0                           : CWLS LOG ASCII STANDARD - VERSION 3.0
 WRAP              .         NO                            : ONE LINE PER DEPTH STEP
 DLM               .         SPACE                         : DELIMITING CHARACTER(SPACE TAB OR COMMA)
~Well Information
#_______________________________________________________________________________
#
#PARAMETER_NAME    .UNIT     VALUE                         : DESCRIPTION
#_______________________________________________________________________________
STRT               .ft       4357.25000                    : First reference value
STOP               .ft       6466.75000                    : Last reference value
STEP               .ft       0.50000                       : Step increment
NULL               .         -9999                         : Missing value
COMP               .         Podolsky Oil Company          : Company
WELL               .         T_R_ McMillen #2              : Well name
FLD                .         Mount Auburn                  : Field
LOC                .                                       : Location
SRVC               .                                       : Service Company
CTRY               .         US                            : Country
STAT               .         Illinois                      : State
CNTY               .                                       : County
API                .                                       : API NUMBER
DATE               .         03-Dec-2018                   : Service Date
LATI               .         39.772784 degrees             : Latitude
LONG               .         -89.203412 degrees            : Longitude
GDAT               .                                       : Geodetic Datum
APD                .ft       15                            : Elevation of Depth Reference (LMF) Above Permanent Datum
BHS                .         OPEN                          : Borehole Status (Open or Cased Hole)
BHT                .degF     103                           : Bottom Hole Temperature
BLI                .ft       6475                          : Bottom Log Interval
BS                 .in       6.75                          : Bit Size
CBDR               .ft       4355                          : Casing Bottom of Driller
CBLO               .ft       4353                          : Logger Casing Shoe Depth
CSIZ               .in       7.625                         : Current Casing Size
CWEI               .lbm/ft   11.6                          : Casing Weight
COUNTRY            .         United States                 : Nation
DCS                .         03-Dec-2018                   : Date Circulation Stopped
DFD                .lbm/gal  9.25                          : Drilling Fluid Density
DFT                .         WATER                         : Drilling Fluid Type
DLAB               .         03-Dec-2018                   : Date Logger At Bottom
EDF                .ft       618                           : Elevation of Drill Floor
EGL                .ft       603                           : Elevation of Ground Level
EKB                .ft       618                           : Elevation of Kelly Bushing
EPD                .ft       603                           : Elevation of Permanent Datum (PDAT) above Mean Sea Level
LMF                .         KB                            : Logging Measured From (Name of Logging Elevation Reference)
LUL                .         Bradford                      : Logging Unit Location
LUN                .         3703                          : Logging Unit Number
MCST               .degF     71.2                          : Mudcake Sample Temperature
MFST               .degF     69.1                          : Mud Filtrate Sample Temperature
MRT                .degF     103                           : Maximum Recorded Temperature
MST                .degF     59.2                          : Mud Sample Temperature
PDAT               .         GL                            : Permanent Datum
PRODUCER-CODE      .         440                           : 
PRODUCER-NAME      .         Schlumberger                  : 
RMB                .ohm.m    0.835368                      : Resistivity of Mud at Bottom Hole Temperature
RMCS               .ohm.m    1.55                          : Resistivity of Mud Cake Sample
RMFS               .ohm.m    1.26                          : Resistivity of Mud Filtrate Sample
RMS                .ohm.m    1.39                          : Resistivity of Mud Sample
RUN                .         2A                            : Run Number
TCS                .         08_00_00                      : Time Circulation Stopped
TDD                .ft       6469                          : Driller Total Depth
TDL                .ft       6475                          : Logger Total Depth
TLAB               .         17_50_00                      : Time Logger At Bottom
TLI                .ft       4353                          : Top Log Interval
~Parameter Information Block
#_______________________________________________________________________________
#
#PARAMETER_NAME    .UNIT     VALUE                         : DESCRIPTION
#_______________________________________________________________________________
SET                .         01_Elan                       : 
TLFamily_Bound_Water .         Bound Water Volume Fraction   : 
TLFamily_Calcite   .         Calcite Volume Fraction       : 
TLFamily_Chlorite  .         Chlorite Volume Fraction      : 
TLFamily_Dolomite  .         Dolomite Volume Fraction      : 
TLFamily_Dry_Weight_Calcite .         Calcite Weight Fraction       : 
TLFamily_Dry_Weight_Chlorite .         Chlorite Weight Fraction      : 
TLFamily_Dry_Weight_Dolomite .         Dolomite Weight Fraction      : 
TLFamily_Dry_Weight_Hematite .         Hematite Weight Fraction      : 
TLFamily_Dry_Weight_Illite .         Illite Weight Fraction        : 
TLFamily_Dry_Weight_K-Feldspar .         Orthoclase Weight Fraction    : 
TLFamily_Dry_Weight_Kaolinite .         Kaolinite Weight Fraction     : 
TLFamily_Dry_Weight_Quartz .         Quartz Weight Fraction        : 
TLFamily_Hematite  .         Hematite Volume Fraction      : 
TLFamily_Illite    .         Illite Volume Fraction        : 
TLFamily_K-Feldspar .         Orthoclase Volume Fraction    : 
TLFamily_KINT_GEO  .         Permeability                  : 
TLFamily_KSDR_py   .         NMR Permeability              : 
TLFamily_Kaolinite .         Kaolinite Volume Fraction     : 
TLFamily_MD        .         Measured Depth                : 
TLFamily_PHIT      .         Total Porosity                : 
TLFamily_PIGE      .         Effective Porosity            : 
TLFamily_PIGN      .         Effective Porosity            : 
TLFamily_Quartz    .         Quartz Volume Fraction        : 
TLFamily_RHGA_GEO  .         Grain Density                 : 
TLFamily_SW        .         Water Saturation              : 
TLFamily_SWE       .         Water Saturation              : 
TLFamily_UWater    .         Undisturbed Zone Water Volume Fraction: 
TLFamily_VCL_GEO   .         Clay Volume Fraction          : 
~Curve Information
#_______________________________________________________________________________
#
#LOGNAME           .UNIT     LOG_ID                        : DESCRIPTION
#_______________________________________________________________________________
MD                 .ft                                     :  {F}
Bound_Water        .ft3/ft3                                : Bound Water Volume Fraction {F}
Calcite            .ft3/ft3                                : Calcite Volume Fraction {F}
Chlorite           .ft3/ft3                                : Chlorite Volume Fraction {F}
Dolomite           .ft3/ft3                                : Dolomite Volume Fraction {F}
Dry_Weight_Calcite .lbm/lbm                                : Dry Weight Fraction From Quanti.Elan {F}
Dry_Weight_Chlorite .lbm/lbm                                : Dry Weight Fraction From Quanti.Elan {F}
Dry_Weight_Dolomite .lbm/lbm                                : Dry Weight Fraction From Quanti.Elan {F}
Dry_Weight_Hematite .lbm/lbm                                : Dry Weight Fraction From Quanti.Elan {F}
Dry_Weight_Illite  .lbm/lbm                                : Dry Weight Fraction From Quanti.Elan {F}
Dry_Weight_K-Feldspar .lbm/lbm                                : Dry Weight Fraction From Quanti.Elan {F}
Dry_Weight_Kaolinite .lbm/lbm                                : Dry Weight Fraction From Quanti.Elan {F}
Dry_Weight_Quartz  .lbm/lbm                                : Dry Weight Fraction From Quanti.Elan {F}
Hematite           .ft3/ft3                                : Hematite Volume Fraction {F}
Illite             .ft3/ft3                                : Illite Volume Fraction {F}
K-Feldspar         .ft3/ft3                                : Orthoclase Volume Fraction {F}
Kaolinite          .ft3/ft3                                : Kaolinite Volume Fraction {F}
KINT_GEO           .mD                                     : Permeability (Juhasz 1979) {F}
KSDR_py            .mD                                     :  {F}
PHIT               .ft3/ft3                                : Total Porosity {F}
PIGE               .ft3/ft3                                : Effective Porosity {F}
PIGN               .ft3/ft3                                : Effective porosity (with irreducible water) {F}
Quartz             .ft3/ft3                                : Quartz Volume Fraction {F}
RHGA_GEO           .g/cm3                                  : Apparent grain density {F}
SW                 .ft3/ft3                                : Undisturbed Zone Water Saturation {F}
SWE                .ft3/ft3                                : Undisturbed Zone Effective Water Saturation {F}
UWater             .ft3/ft3                                : Undisturbed Zone Water Volume Fraction {F}
VCL_GEO            .ft3/ft3                                : Clay fraction {F}
~Ascii
4357.25000 -9999.00000 -9999.00000 -9999.00000 -9999.00000 -9999.00000 -9999.00000 -9999.00000 -9999.00000 -9999.00000 -9999.00000 -9999.00000 -9999.00000 -9999.00000 -9999.00000 -9999.00000 -9999.00000 -9999.00000 0.00000    -9999.00000 -9999.00000 -9999.00000 -9999.00000 -9999.00000 -9999.00000 -9999.00000 -9999.00000 -9999.00000
4357.75000 -9999.00000 -9999.00000 -9999.00000 -9999.00000 -9999.00000 -9999.00000 -9999.00000 -9999.00000 -9999.00000 -9999.00000 -9999.00000 -9999.00000 -9999.00000 -9999.00000 -9999.00000 -9999.00000 -9999.00000 0.00000    -9999.00000 -9999.00000 -9999.00000 -9999.00000 -9999.00000 -9999.00000 -9999.00000 -9999.00000 -9999.00000
4358.25000 -9999.00000 -9999.00000 -9999.00000 -9999.00000 -9999.00000 -9999.00000 -9999.00000 -9999.00000 -9999.00000 -9999.00000 -9999.00000 -9999.00000 -9999.00000 -9999.00000 -9999.00000 -9999.00000 -9999.00000 0.00000    -9999.00000 -9999.00000 -9999.00000 -9999.00000 -9999.00000 -9999.00000 -9999.00000 -9999.00000 -9999.00000
4358.75000 -9999.00000 -9999.00000 -9999.00000 -9999.00000 -9999.00000 -9999.00000 -9999.00000 -9999.00000 -9999.00000 -9999.00000 -9999.00000 -9999.00000 -9999.00000 -9999.00000 -9999.00000 -9999.00000 -9999.00000 0.00000    -9999.00000 -9999.00000 -9999.00000 -9999.00000 -9999.00000 -9999.00000 -9999.00000 -9999.00000 -9999.00000
4359.25000 -9999.00000 -9999.00000 -9999.00000 -9999.00000 -9999.00000 -9999.00000 -9999.00000 -9999.00000 -9999.00000 -9999.00000 -9999.00000 -9999.00000 -9999.00000 -9999.00000 -9999.00000 -9999.00000 -9999.00000 0.00000    -9999.00000 -9999.00000 -9999.00000 -9999.00000 -9999.00000 -9999.00000 -9999.00000 -9999.00000 -9999.00000
4359.75000 -9999.00000 -9999.00000 -9999.00000 -9999.00000 -9999.00000 -9999.00000 -9999.00000 -9999.00000 -9999.00000 -9999.00000 -9999.00000 -9999.00000 -9999.00000 -9999.00000 -9999.00000 -9999.00000 -9999.00000 0.00007    -9999.00000 -9999.00000 -9999.00000 -9999.00000 -9999.00000 -9999.00000 -9999.00000 -9999.00000 -9999.00000
4360.25000 -9999.00000 -9999.00000 -9999.00000 -9999.00000 -9999.00000 -9999.00000 -9999.00000 -9999.00000 -9999.00000 -9999.00000 -9999.00000 -9999.00000 -9999.00000 -9999.00000 -9999.00000 -9999.00000 -9999.00000 0.00007    -9999.00000 -9999.00000 -9999.00000 -9999.00000 -9999.00000 -9999.00000 -9999.00000 -9999.00000 -9999.00000
4360.75000 -9999.00000 -9999.00000 -9999.00000 -9999.00000 -9999.00000 -9999.00000 -9999.00000 -9999.00000 -9999.00000 -9999.00000 -9999.00000 -9999.00000 -9999.00000 -9999.00000 -9999.00000 -9999.00000 -9999.00000 0.00007    -9999.00000 -9999.00000 -9999.00000 -9999.00000 -9999.00000 -9999.00000 -9999.00000 -9999.00000 -9999.00000
4361.25000 0.00139    0.92588    0.00000    0.00000    0.93079    0.00000    0.00000    0.00000    0.00081    0.04123    0.01826    0.00891    0.00000    0.00081    0.04413    0.01871    0.00000    0.00002    0.00140    0.00010    0.00010    0.00906    2.69949    1.00000    1.00000    0.00001    0.02091   
4361.75000 0.00291    0.91290    0.00000    0.00000    0.91894    0.00000    0.00000    0.00000    0.01298    0.03796    0.01828    0.01184    0.00000    0.01286    0.04058    0.01871    0.00000    0.00000    0.00292    0.00010    0.00010    0.01203    2.70006    1.00000    1.00000    0.00001    0.03449   
4362.25000 0.00468    0.89792    0.00000    0.00000    0.90653    0.00000    0.00000    0.00000    0.02722    0.03436    0.01834    0.01355    0.00000    0.02690    0.03663    0.01871    0.00000    0.00000    0.00612    0.00144    0.00144    0.01373    2.70078    1.00000    1.00000    0.00144    0.05029   
4362.75000 0.00407    0.88793    0.00000    0.00000    0.90668    0.00000    0.00000    0.00000    0.02260    0.03616    0.01855    0.01602    0.00000    0.02208    0.03811    0.01871    0.00006    0.00000    0.01713    0.01306    0.01306    0.01604    2.70022    1.00000    1.00000    0.01306    0.04486   
4363.25000 0.00134    0.88843    0.00000    0.00000    0.91805    0.00000    0.00000    0.00000    0.00044    0.04325    0.01877    0.01949    0.00000    0.00042    0.04504    0.01871    0.00090    0.00000    0.02810    0.02676    0.02676    0.01929    2.69839    1.00000    1.00000    0.02676    0.02048   
4363.75000 0.00129    0.89113    0.00000    0.00000    0.92534    0.00000    0.00000    0.00000    0.00000    0.04065    0.01886    0.01515    0.00000    0.00000    0.04212    0.01871    0.00160    0.00000    0.03311    0.03182    0.03182    0.01492    2.69917    1.00000    1.00000    0.03182    0.02000   
4364.25000 0.00129    0.89646    0.00000    0.00000    0.92950    0.00000    0.00000    0.00000    0.00000    0.04315    0.01883    0.00852    0.00000    0.00000    0.04479    0.01871    0.00133    0.00000    0.03163    0.03035    0.03035    0.00840    2.69907    1.00000    1.00000    0.03035    0.02000   
4364.75000 0.00311    0.89961    0.00000    0.00000    0.92733    0.00000    0.00000    0.00000    0.01499    0.03896    0.01872    0.00000    0.00000    0.01450    0.04067    0.01871    0.00043    0.00000    0.02650    0.02339    0.02339    0.00000    2.70055    1.00000    1.00000    0.02339    0.03633   
4365.25000 0.00396    0.90207    0.00477    0.00000    0.92391    0.00489    0.00000    0.00000    0.01722    0.03539    0.01860    0.00000    0.00000    0.01677    0.03718    0.01871    0.00012    0.00000    0.02050    0.01653    0.01653    0.00000    2.70131    1.00000    1.00000    0.01653    0.04422   
4365.75000 0.00478    0.90362    0.00413    0.00000    0.91766    0.00420    0.00000    0.00000    0.02425    0.03546    0.01844    0.00000    0.00000    0.02382    0.03757    0.01871    0.00001    0.00000    0.01214    0.00737    0.00737    0.00000    2.70136    1.00000    1.00000    0.00737    0.05144   
4366.25000 0.00473    0.89676    0.00000    0.00000    0.90664    0.00000    0.00000    0.00000    0.02771    0.03305    0.01836    0.01424    0.00000    0.02734    0.03517    0.01871    0.00000    0.00000    0.00761    0.00288    0.00288    0.01441    2.70101    1.00000    1.00000    0.00288    0.05079   
4366.75000 0.00232    0.89667    0.00000    0.00000    0.90434    0.00000    0.00000    0.00000    0.00826    0.03315    0.01832    0.03594    0.00000    0.00817    0.03537    0.01871    0.00000    0.00000    0.00464    0.00233    0.00233    0.03644    2.69954    1.00000    1.00000    0.00233    0.02920   
4367.25000 0.00129    0.89339    0.00000    0.00000    0.90765    0.00000    0.00000    0.00000    0.00000    0.03231    0.01845    0.04159    0.00000    0.00000    0.03422    0.01871    0.00003    0.00000    0.01180    0.01052    0.01052    0.04186    2.69930    1.00000    1.00000    0.01052    0.02000   
4367.75000 0.00129    0.89336    0.00000    0.00000    0.91718    0.00000    0.00000    0.00000    0.00000    0.03142    0.01865    0.03275    0.00000    0.00000    0.03293    0.01871    0.00036    0.00000    0.02237    0.02109    0.02109    0.03262    2.70001    1.00000    1.00000    0.02109    0.02000   
4368.25000 0.00129    0.88900    0.00000    0.00000    0.92782    0.00000    0.00000    0.00000    0.00000    0.03340    0.01896    0.01983    0.00000    0.00000    0.03444    0.01871    0.00265    0.00000    0.03842    0.03713    0.03713    0.01943    2.70037    1.00000    1.00000    0.03713    0.02000   
4368.75000 0.00129    0.87533    0.00000    0.00000    0.92651    0.00000    0.00000    0.00000    0.00000    0.03763    0.01922    0.01664    0.00000    0.00000    0.03826    0.01871    0.00826    0.00000    0.05162    0.05034    0.05034    0.01607    2.69967    1.00000    1.00000    0.05034    0.02000   
4369.25000 0.00165    0.85508    0.00000    0.00000    0.91380    0.00000    0.00000    0.00000    0.00313    0.04029    0.01941    0.02337    0.00000    0.00292    0.04057    0.01871    0.01514    0.00002    0.06034    0.05869    0.05869    0.02237    2.69872    1.00000    1.00000    0.05869    0.02329   
4369.75000 0.00157    0.84877    0.00000    0.00000    0.91033    0.00000    0.00000    0.00000    0.00241    0.04011    0.01948    0.02767    0.00000    0.00224    0.04025    0.01871    0.01916    0.00002    0.06365    0.06208    0.06208    0.02638    2.69849    1.00000    1.00000    0.06208    0.02252   
