~Version
 VERS              .         3.0                           : CWLS LOG ASCII STANDARD - VERSION 3.0
 WRAP              .         NO                            : ONE LINE PER DEPTH STEP
 DLM               .         SPACE                         : DELIMITING CHARACTER(SPACE TAB OR COMMA)
~Well Information
#_______________________________________________________________________________
#
#PARAMETER_NAME    .UNIT     VALUE                         : DESCRIPTION
#_______________________________________________________________________________
STRT               .ft       4357.25000                    : First reference value
STOP               .ft       6466.75000                    : Last reference value
STEP               .ft       0.50000                       : Step increment
NULL               .         -9999                         : Missing value
COMP               .         Podolsky Oil Company          : Company
WELL               .         T_R_ McMillen #2              : Well name
FLD                .         Mount Auburn                  : Field
LOC                .                                       : Location
SRVC               .                                       : Service Company
CTRY               .         US                            : Country
STAT               .         Illinois                      : State
CNTY               .                                       : County
API                .                                       : API NUMBER
DATE               .         03-Dec-2018                   : Service Date
LATI               .         39.772784 degrees             : Latitude
LONG               .         -89.203412 degrees            : Longitude
GDAT               .                                       : Geodetic Datum
APD                .ft       15                            : Elevation of Depth Reference (LMF) Above Permanent Datum
BHS                .         OPEN                          : Borehole Status (Open or Cased Hole)
BHT                .degF     103                           : Bottom Hole Temperature
BLI                .ft       6475                          : Bottom Log Interval
BS                 .in       6.75                          : Bit Size
CBDR               .ft       4355                          : Casing Bottom of Driller
CBLO               .ft       4353                          : Logger Casing Shoe Depth
CSIZ               .in       7.625                         : Current Casing Size
CWEI               .lbm/ft   11.6                          : Casing Weight
COUNTRY            .         United States                 : Nation
DCS                .         03-Dec-2018                   : Date Circulation Stopped
DFD                .lbm/gal  9.25                          : Drilling Fluid Density
DFT                .         WATER                         : Drilling Fluid Type
DLAB               .         03-Dec-2018                   : Date Logger At Bottom
EDF                .ft       618                           : Elevation of Drill Floor
EGL                .ft       603                           : Elevation of Ground Level
EKB                .ft       618                           : Elevation of Kelly Bushing
EPD                .ft       603                           : Elevation of Permanent Datum (PDAT) above Mean Sea Level
LMF                .         KB                            : Logging Measured From (Name of Logging Elevation Reference)
LUL                .         Bradford                      : Logging Unit Location
LUN                .         3703                          : Logging Unit Number
MCST               .degF     71.2                          : Mudcake Sample Temperature
MFST               .degF     69.1                          : Mud Filtrate Sample Temperature
MRT                .degF     103                           : Maximum Recorded Temperature
MST                .degF     59.2                          : Mud Sample Temperature
PDAT               .         GL                            : Permanent Datum
PRODUCER-CODE      .         440                           : 
PRODUCER-NAME      .         Schlumberger                  : 
RMB                .ohm.m    0.835368                      : Resistivity of Mud at Bottom Hole Temperature
RMCS               .ohm.m    1.55                          : Resistivity of Mud Cake Sample
RMFS               .ohm.m    1.26                          : Resistivity of Mud Filtrate Sample
RMS                .ohm.m    1.39                          : Resistivity of Mud Sample
RUN                .         2A                            : Run Number
TCS                .         08_00_00                      : Time Circulation Stopped
TDD                .ft       6469                          : Driller Total Depth
TDL                .ft       6475                          : Logger Total Depth
TLAB               .         17_50_00                      : Time Logger At Bottom
TLI                .ft       4353                          : Top Log Interval
~Parameter Information Block
#_______________________________________________________________________________
#
#PARAMETER_NAME    .UNIT     VALUE                         : DESCRIPTION
#_______________________________________________________________________________
SET                .         01_Elan                       : 
TLFamily_Bound_Water .         Bound Water Volume Fraction   : 
TLFamily_Calcite   .         Calcite Volume Fraction       : 
TLFamily_Chlorite  .         Chlorite Volume Fraction      : 
TLFamily_Dolomite  .         Dolomite Volume Fraction      : 
TLFamily_Dry_Weight_Calcite .         Calcite Weight Fraction       : 
TLFamily_Dry_Weight_Chlorite .         Chlorite Weight Fraction      : 
TLFamily_Dry_Weight_Dolomite .         Dolomite Weight Fraction      : 
TLFamily_Dry_Weight_Hematite .         Hematite Weight Fraction      : 
TLFamily_Dry_Weight_Illite .         Illite Weight Fraction        : 
TLFamily_Dry_Weight_K-Feldspar .         Orthoclase Weight Fraction    : 
TLFamily_Dry_Weight_Kaolinite .         Kaolinite Weight Fraction     : 
TLFamily_Dry_Weight_Quartz .         Quartz Weight Fraction        : 
TLFamily_Hematite  .         Hematite Volume Fraction      : 
TLFamily_Illite    .         Illite Volume Fraction        : 
TLFamily_K-Feldspar .         Orthoclase Volume Fraction    : 
TLFamily_KINT_GEO  .         Permeability                  : 
TLFamily_KSDR_py   .         NMR Permeability              : 
TLFamily_Kaolinite .         Kaolinite Volume Fraction     : 
TLFamily_MD        .         Measured Depth                : 
TLFamily_PHIT      .         Total Porosity                : 
TLFamily_PIGE      .         Effective Porosity            : 
TLFamily_PIGN      .         Effective Porosity            : 
TLFamily_Quartz    .         Quartz Volume Fraction        : 
TLFamily_RHGA_GEO  .         Grain Density                 : 
TLFamily_SW        .         Water Saturation              : 
TLFamily_SWE       .         Water Saturation              : 
TLFamily_UWater    .         Undisturbed Zone Water Volume Fraction: 
TLFamily_VCL_GEO   .         Clay Volume Fraction          : 
~Curve Information
#_______________________________________________________________________________
#
#LOGNAME           .UNIT     LOG_ID                        : DESCRIPTION
#_______________________________________________________________________________
MD                 .ft                                     :  {F}
Bound_Water        .ft3/ft3                                : Bound Water Volume Fraction {F}
Calcite            .ft3/ft3                                : Calcite Volume Fraction {F}
Chlorite           .ft3/ft3                                : Chlorite Volume Fraction {F}
Dolomite           .ft3/ft3                                : Dolomite Volume Fraction {F}
Dry_Weight_Calcite .lbm/lbm                                : Dry Weight Fraction From Quanti.Elan {F}
Dry_Weight_Chlorite .lbm/lbm                                : Dry Weight Fraction From Quanti.Elan {F}
Dry_Weight_Dolomite .lbm/lbm                                : Dry Weight Fraction From Quanti.Elan {F}
Dry_Weight_Hematite .lbm/lbm                                : Dry Weight Fraction From Quanti.Elan {F}
Dry_Weight_Illite  .lbm/lbm                                : Dry Weight Fraction From Quanti.Elan {F}
Dry_Weight_K-Feldspar .lbm/lbm                                : Dry Weight Fraction From Quanti.Elan {F}
Dry_Weight_Kaolinite .lbm/lbm                                : Dry Weight Fraction From Quanti.Elan {F}
Dry_Weight_Quartz  .lbm/lbm                                : Dry Weight Fraction From Quanti.Elan {F}
Hematite           .ft3/ft3                                : Hematite Volume Fraction {F}
Illite             .ft3/ft3                                : Illite Volume Fraction {F}
K-Feldspar         .ft3/ft3                                : Orthoclase Volume Fraction {F}
Kaolinite          .ft3/ft3                                : Kaolinite Volume Fraction {F}
KINT_GEO           .mD                                     : Permeability (Juhasz 1979) {F}
KSDR_py            .mD                                     :  {F}
PHIT               .ft3/ft3                                : Total Porosity {F}
PIGE               .ft3/ft3                                : Effective Porosity {F}
PIGN               .ft3/ft3                                : Effective porosity (with irreducible water) {F}
Quartz             .ft3/ft3                                : Quartz Volume Fraction {F}
RHGA_GEO           .g/cm3                                  : Apparent grain density {F}
SW                 .ft3/ft3                                : Undisturbed Zone Water Saturation {F}
SWE                .ft3/ft3                                : Undisturbed Zone Effective Water Saturation {F}
UWater             .ft3/ft3                                : Undisturbed Zone Water Volume Fraction {F}
VCL_GEO            .ft3/ft3                                : Clay fraction {F}
~Ascii
# ...
5748.25000 0.00911    0.00697    0.01511    0.00000    0.00810    0.01755    0.00000    0.00000    0.06864    0.10761    0.00000    0.79810    0.00000    0.05894    0.09968    0.00000    14.64429   2.82357    0.11673    0.10762    0.10762    0.70257    2.64109    1.00000    1.00000    0.10762    0.08316   
5748.75000 0.00867    0.00165    0.01222    0.00000    0.00193    0.01432    0.00000    0.00000    0.06822    0.10544    0.00000    0.81010    0.00000    0.05808    0.09685    0.00000    20.54841   6.43390    0.12406    0.11540    0.11540    0.70713    2.64082    1.00000    1.00000    0.11540    0.07897   
5749.25000 0.00820    0.00360    0.01223    0.00000    0.00420    0.01425    0.00000    0.00000    0.06351    0.10360    0.00000    0.81444    0.00000    0.05437    0.09567    0.00000    18.69213   12.59651   0.11940    0.11120    0.11120    0.71473    2.64089    1.00000    1.00000    0.11120    0.07480   
5749.75000 0.00813    0.01079    0.01448    0.00000    0.01243    0.01668    0.00000    0.00000    0.05968    0.10237    0.00000    0.80883    0.00000    0.05169    0.09566    0.00000    12.60654   17.74346   0.10917    0.10104    0.10104    0.71821    2.64144    1.00000    1.00000    0.10104    0.07431   
5750.25000 0.00837    0.01382    0.01534    0.00000    0.01584    0.01758    0.00000    0.00000    0.06063    0.10203    0.00000    0.80392    0.00000    0.05278    0.09583    0.00000    10.05467   10.25121   0.10471    0.09634    0.09634    0.71751    2.64180    1.00000    1.00000    0.09634    0.07650   
5750.75000 0.00831    0.00898    0.01333    0.00000    0.01033    0.01533    0.00000    0.00000    0.06251    0.10161    0.00000    0.81022    0.00000    0.05421    0.09504    0.00000    11.89742   3.81854    0.10821    0.09990    0.09990    0.72024    2.64152    1.00000    1.00000    0.09990    0.07584   
5751.25000 0.00769    0.00430    0.01063    0.00000    0.00496    0.01227    0.00000    0.00000    0.05980    0.09899    0.00000    0.82398    0.00000    0.05170    0.09233    0.00000    14.70985   2.56081    0.11068    0.10300    0.10300    0.73035    2.64122    1.00000    1.00000    0.10300    0.07002   
5751.75000 0.00688    0.00512    0.00928    0.00000    0.00590    0.01070    0.00000    0.00000    0.05367    0.09401    0.00000    0.83572    0.00000    0.04646    0.08781    0.00000    15.72386   4.39322    0.10956    0.10268    0.10268    0.74176    2.64147    1.00000    1.00000    0.10268    0.06262   
5752.25000 0.00637    0.00748    0.00818    0.00000    0.00864    0.00945    0.00000    0.00000    0.05034    0.08792    0.00000    0.84365    0.00000    0.04346    0.08188    0.00000    18.00895   10.09366   0.11231    0.10594    0.10594    0.74669    2.64218    1.00000    1.00000    0.10594    0.05801   
5752.75000 0.00587    0.00631    0.00679    0.00000    0.00738    0.00794    0.00000    0.00000    0.04780    0.08477    0.00000    0.85211    0.00000    0.04074    0.07795    0.00000    28.24619   20.65042   0.12357    0.11769    0.11769    0.74465    2.64229    1.00000    1.00000    0.11769    0.05340   
5753.25000 0.00512    0.00473    0.00595    0.00000    0.00560    0.00705    0.00000    0.00000    0.04212    0.08617    0.00000    0.85907    0.00000    0.03548    0.07832    0.00000    44.20312   29.33934   0.13351    0.12839    0.12839    0.74201    2.64157    1.00000    1.00000    0.12839    0.04656   
5753.75000 0.00465    0.00428    0.00599    0.00000    0.00507    0.00709    0.00000    0.00000    0.03765    0.09140    0.00000    0.85878    0.00000    0.03170    0.08302    0.00000    49.69992   26.75586   0.13379    0.12914    0.12914    0.74123    2.64053    1.00000    1.00000    0.12914    0.04234   
5754.25000 0.00500    0.00429    0.00631    0.00000    0.00503    0.00739    0.00000    0.00000    0.04017    0.09848    0.00000    0.84893    0.00000    0.03423    0.09053    0.00000    35.00769   15.64554   0.12306    0.11806    0.11806    0.74158    2.63974    1.00000    1.00000    0.11806    0.04554   
5754.75000 0.00571    0.00528    0.00738    0.00000    0.00609    0.00851    0.00000    0.00000    0.04494    0.10156    0.00000    0.83890    0.00000    0.03888    0.09479    0.00000    19.94225   7.55833    0.10961    0.10390    0.10390    0.74406    2.63975    1.00000    1.00000    0.10390    0.05197   
5755.25000 0.00633    0.00457    0.00917    0.00000    0.00522    0.01046    0.00000    0.00000    0.04827    0.09681    0.00000    0.83924    0.00000    0.04222    0.09134    0.00000    12.38125   5.12935    0.10022    0.09388    0.09388    0.75248    2.64068    1.00000    1.00000    0.09388    0.05772   
5755.75000 0.00654    0.00240    0.01122    0.00000    0.00271    0.01271    0.00000    0.00000    0.04769    0.08868    0.00000    0.84821    0.00000    0.04198    0.08423    0.00000    9.26180    5.39570    0.09458    0.08804    0.08804    0.76560    2.64175    1.00000    1.00000    0.08804    0.05974   
5756.25000 0.00655    0.00119    0.01252    0.00000    0.00134    0.01411    0.00000    0.00000    0.04610    0.08203    0.00000    0.85642    0.00000    0.04083    0.07837    0.00000    7.26076    5.84370    0.08952    0.08297    0.08297    0.77756    2.64256    1.00000    1.00000    0.08297    0.05990   
5756.75000 0.00636    0.00027    0.01300    0.00000    0.00031    0.01459    0.00000    0.00000    0.04376    0.07887    0.00000    0.86247    0.00000    0.03889    0.07561    0.00000    6.47848    4.09566    0.08647    0.08011    0.08011    0.78576    2.64281    1.00000    1.00000    0.08011    0.05825   
5757.25000 0.00599    0.00125    0.01251    0.00000    0.00141    0.01406    0.00000    0.00000    0.04091    0.07708    0.00000    0.86655    0.00000    0.03632    0.07383    0.00000    7.05072    3.44555    0.08724    0.08125    0.08125    0.78884    2.64291    1.00000    1.00000    0.08125    0.05482   
5757.75000 0.00547    0.00417    0.01115    0.00000    0.00471    0.01260    0.00000    0.00000    0.03787    0.07582    0.00000    0.86900    0.00000    0.03343    0.07220    0.00000    9.52082    5.83827    0.09265    0.08718    0.08718    0.78640    2.64299    1.00000    1.00000    0.08718    0.05005   
5758.25000 0.00520    0.00567    0.00945    0.00000    0.00645    0.01075    0.00000    0.00000    0.03747    0.07437    0.00000    0.87096    0.00000    0.03285    0.07035    0.00000    12.57541   11.90941   0.09877    0.09357    0.09357    0.78291    2.64316    1.00000    1.00000    0.09357    0.04750   
5758.75000 0.00553    0.00583    0.00830    0.00000    0.00666    0.00948    0.00000    0.00000    0.04185    0.07176    0.00000    0.87026    0.00000    0.03658    0.06767    0.00000    13.16735   17.44151   0.10179    0.09626    0.09626    0.77983    2.64374    1.00000    1.00000    0.09626    0.05041   
5759.25000 0.00614    0.00747    0.00845    0.00000    0.00849    0.00960    0.00000    0.00000    0.04710    0.06918    0.00000    0.86563    0.00000    0.04131    0.06548    0.00000    10.29940   14.69124   0.09878    0.09264    0.09264    0.77852    2.64455    1.00000    1.00000    0.09264    0.05590   
5759.75000 0.00651    0.01111    0.00961    0.00000    0.01251    0.01082    0.00000    0.00000    0.04885    0.06718    0.00000    0.86065    0.00000    0.04327    0.06419    0.00000    6.55863    7.34974    0.09029    0.08378    0.08378    0.78154    2.64525    1.00000    1.00000    0.08378    0.05939   
5760.25000 0.00647    0.01216    0.01024    0.00000    0.01356    0.01141    0.00000    0.00000    0.04734    0.06598    0.00000    0.86170    0.00000    0.04235    0.06367    0.00000    4.34248    2.66551    0.08142    0.07495    0.07495    0.79017    2.64541    1.00000    1.00000    0.07495    0.05906   
5760.75000 0.00608    0.00805    0.00973    0.00000    0.00896    0.01084    0.00000    0.00000    0.04426    0.06663    0.00000    0.86930    0.00000    0.03964    0.06437    0.00000    4.49562    1.35416    0.08009    0.07401    0.07401    0.79812    2.64482    1.00000    1.00000    0.07401    0.05545   
