~Version
 VERS              .         3.0                           : CWLS LOG ASCII STANDARD - VERSION 3.0
 WRAP              .         NO                            : ONE LINE PER DEPTH STEP
 DLM               .         SPACE                         : DELIMITING CHARACTER(SPACE TAB OR COMMA)
~Well Information
#_______________________________________________________________________________
#
#PARAMETER_NAME    .UNIT     VALUE                         : DESCRIPTION
#_______________________________________________________________________________
STRT               .ft       4357.25000                    : First reference value
STOP               .ft       6466.75000                    : Last reference value
STEP               .ft       0.50000                       : Step increment
NULL               .         -9999                         : Missing value
COMP               .         Podolsky Oil Company          : Company
WELL               .         T_R_ McMillen #2              : Well name
FLD                .         Mount Auburn                  : Field
LOC                .                                       : Location
SRVC               .                                       : Service Company
CTRY               .         US                            : Country
STAT               .         Illinois                      : State
CNTY               .                                       : County
API                .                                       : API NUMBER
DATE               .         03-Dec-2018                   : Service Date
LATI               .         39.772784 degrees             : Latitude
LONG               .         -89.203412 degrees            : Longitude
GDAT               .                                       : Geodetic Datum
APD                .ft       15                            : Elevation of Depth Reference (LMF) Above Permanent Datum
BHS                .         OPEN                          : Borehole Status (Open or Cased Hole)
BHT                .degF     103                           : Bottom Hole Temperature
BLI                .ft       6475                          : Bottom Log Interval
BS                 .in       6.75                          : Bit Size
CBDR               .ft       4355                          : Casing Bottom of Driller
CBLO               .ft       4353                          : Logger Casing Shoe Depth
CSIZ               .in       7.625                         : Current Casing Size
CWEI               .lbm/ft   11.6                          : Casing Weight
COUNTRY            .         United States                 : Nation
DCS                .         03-Dec-2018                   : Date Circulation Stopped
DFD                .lbm/gal  9.25                          : Drilling Fluid Density
DFT                .         WATER                         : Drilling Fluid Type
DLAB               .         03-Dec-2018                   : Date Logger At Bottom
EDF                .ft       618                           : Elevation of Drill Floor
EGL                .ft       603                           : Elevation of Ground Level
EKB                .ft       618                           : Elevation of Kelly Bushing
EPD                .ft       603                           : Elevation of Permanent Datum (PDAT) above Mean Sea Level
LMF                .         KB                            : Logging Measured From (Name of Logging Elevation Reference)
LUL                .         Bradford                      : Logging Unit Location
LUN                .         3703                          : Logging Unit Number
MCST               .degF     71.2                          : Mudcake Sample Temperature
MFST               .degF     69.1                          : Mud Filtrate Sample Temperature
MRT                .degF     103                           : Maximum Recorded Temperature
MST                .degF     59.2                          : Mud Sample Temperature
PDAT               .         GL                            : Permanent Datum
PRODUCER-CODE      .         440                           : 
PRODUCER-NAME      .         Schlumberger                  : 
RMB                .ohm.m    0.835368                      : Resistivity of Mud at Bottom Hole Temperature
RMCS               .ohm.m    1.55                          : Resistivity of Mud Cake Sample
RMFS               .ohm.m    1.26                          : Resistivity of Mud Filtrate Sample
RMS                .ohm.m    1.39                          : Resistivity of Mud Sample
RUN                .         2A                            : Run Number
TCS                .         08_00_00                      : Time Circulation Stopped
TDD                .ft       6469                          : Driller Total Depth
TDL                .ft       6475                          : Logger Total Depth
TLAB               .         17_50_00                      : Time Logger At Bottom
TLI                .ft       4353                          : Top Log Interval
~Parameter Information Block
#_______________________________________________________________________________
#
#PARAMETER_NAME    .UNIT     VALUE                         : DESCRIPTION
#_______________________________________________________________________________
SET                .         01_Elan                       : 
TLFamily_Bound_Water .         Bound Water Volume Fraction   : 
TLFamily_Calcite   .         Calcite Volume Fraction       : 
TLFamily_Chlorite  .         Chlorite Volume Fraction      : 
TLFamily_Dolomite  .         Dolomite Volume Fraction      : 
TLFamily_Dry_Weight_Calcite .         Calcite Weight Fraction       : 
TLFamily_Dry_Weight_Chlorite .         Chlorite Weight Fraction      : 
TLFamily_Dry_Weight_Dolomite .         Dolomite Weight Fraction      : 
TLFamily_Dry_Weight_Hematite .         Hematite Weight Fraction      : 
TLFamily_Dry_Weight_Illite .         Illite Weight Fraction        : 
TLFamily_Dry_Weight_K-Feldspar .         Orthoclase Weight Fraction    : 
TLFamily_Dry_Weight_Kaolinite .         Kaolinite Weight Fraction     : 
TLFamily_Dry_Weight_Quartz .         Quartz Weight Fraction        : 
TLFamily_Hematite  .         Hematite Volume Fraction      : 
TLFamily_Illite    .         Illite Volume Fraction        : 
TLFamily_K-Feldspar .         Orthoclase Volume Fraction    : 
TLFamily_KINT_GEO  .         Permeability                  : 
TLFamily_KSDR_py   .         NMR Permeability              : 
TLFamily_Kaolinite .         Kaolinite Volume Fraction     : 
TLFamily_MD        .         Measured Depth                : 
TLFamily_PHIT      .         Total Porosity                : 
TLFamily_PIGE      .         Effective Porosity            : 
TLFamily_PIGN      .         Effective Porosity            : 
TLFamily_Quartz    .         Quartz Volume Fraction        : 
TLFamily_RHGA_GEO  .         Grain Density                 : 
TLFamily_SW        .         Water Saturation              : 
TLFamily_SWE       .         Water Saturation              : 
TLFamily_UWater    .         Undisturbed Zone Water Volume Fraction: 
TLFamily_VCL_GEO   .         Clay Volume Fraction          : 
~Curve Information
#_______________________________________________________________________________
#
#LOGNAME           .UNIT     LOG_ID                        : DESCRIPTION
#_______________________________________________________________________________
MD                 .ft                                     :  {F}
Bound_Water        .ft3/ft3                                : Bound Water Volume Fraction {F}
Calcite            .ft3/ft3                                : Calcite Volume Fraction {F}
Chlorite           .ft3/ft3                                : Chlorite Volume Fraction {F}
Dolomite           .ft3/ft3                                : Dolomite Volume Fraction {F}
Dry_Weight_Calcite .lbm/lbm                                : Dry Weight Fraction From Quanti.Elan {F}
Dry_Weight_Chlorite .lbm/lbm                                : Dry Weight Fraction From Quanti.Elan {F}
Dry_Weight_Dolomite .lbm/lbm                                : Dry Weight Fraction From Quanti.Elan {F}
Dry_Weight_Hematite .lbm/lbm                                : Dry Weight Fraction From Quanti.Elan {F}
Dry_Weight_Illite  .lbm/lbm                                : Dry Weight Fraction From Quanti.Elan {F}
Dry_Weight_K-Feldspar .lbm/lbm                                : Dry Weight Fraction From Quanti.Elan {F}
Dry_Weight_Kaolinite .lbm/lbm                                : Dry Weight Fraction From Quanti.Elan {F}
Dry_Weight_Quartz  .lbm/lbm                                : Dry Weight Fraction From Quanti.Elan {F}
Hematite           .ft3/ft3                                : Hematite Volume Fraction {F}
Illite             .ft3/ft3                                : Illite Volume Fraction {F}
K-Feldspar         .ft3/ft3                                : Orthoclase Volume Fraction {F}
Kaolinite          .ft3/ft3                                : Kaolinite Volume Fraction {F}
KINT_GEO           .mD                                     : Permeability (Juhasz 1979) {F}
KSDR_py            .mD                                     :  {F}
PHIT               .ft3/ft3                                : Total Porosity {F}
PIGE               .ft3/ft3                                : Effective Porosity {F}
PIGN               .ft3/ft3                                : Effective porosity (with irreducible water) {F}
Quartz             .ft3/ft3                                : Quartz Volume Fraction {F}
RHGA_GEO           .g/cm3                                  : Apparent grain density {F}
SW                 .ft3/ft3                                : Undisturbed Zone Water Saturation {F}
SWE                .ft3/ft3                                : Undisturbed Zone Effective Water Saturation {F}
UWater             .ft3/ft3                                : Undisturbed Zone Water Volume Fraction {F}
VCL_GEO            .ft3/ft3                                : Clay fraction {F}
~Ascii
# ...
5189.25000 0.00000    0.00639    0.00000    0.00000    0.00761    0.00000    0.00000    0.00000    0.00000    0.01930    0.00000    0.97308    0.00000    0.00000    0.01745    0.00000    88.92701   636.53650  0.14039    0.14039    0.14039    0.83576    2.64777    1.00000    1.00000    0.14039    0.00000   
5189.75000 0.00000    0.00986    0.00000    0.00000    0.01176    0.00000    0.00000    0.00000    0.00000    0.01929    0.00000    0.96895    0.00000    0.00000    0.01739    0.00000    91.87328   687.28180  0.14242    0.14242    0.14242    0.83034    2.64802    1.00000    1.00000    0.14242    0.00000   
5190.25000 0.00000    0.01246    0.00000    0.00000    0.01488    0.00000    0.00000    0.00000    0.00000    0.01920    0.00000    0.96592    0.00000    0.00000    0.01730    0.00000    92.54079   695.96338  0.14334    0.14334    0.14334    0.82691    2.64821    1.00000    1.00000    0.14334    0.00000   
5190.75000 0.00000    0.01488    0.00000    0.00000    0.01777    0.00000    0.00000    0.00000    0.00000    0.01922    0.00000    0.96301    0.00000    0.00000    0.01732    0.00000    90.32378   769.40411  0.14306    0.14306    0.14306    0.82474    2.64838    1.00000    1.00000    0.14306    0.00000   
5191.25000 0.00000    0.01632    0.00000    0.00000    0.01950    0.00000    0.00000    0.00000    0.00000    0.01982    0.00000    0.96068    0.00000    0.00000    0.01785    0.00000    91.37321   826.33728  0.14373    0.14373    0.14373    0.82211    2.64840    1.00000    1.00000    0.14373    0.00000   
5191.75000 0.00000    0.01709    0.00000    0.00000    0.02048    0.00000    0.00000    0.00000    0.00000    0.02092    0.00000    0.95860    0.00000    0.00000    0.01879    0.00000    97.22239   838.44092  0.14599    0.14599    0.14599    0.81813    2.64830    1.00000    1.00000    0.14599    0.00000   
5192.25000 0.00000    0.01848    0.00000    0.00000    0.02226    0.00000    0.00000    0.00000    0.00000    0.02187    0.00000    0.95587    0.00000    0.00000    0.01954    0.00000    108.87551  783.92987  0.15041    0.15041    0.15041    0.81156    2.64828    1.00000    1.00000    0.15041    0.00000   
5192.75000 0.00000    0.02123    0.00000    0.00000    0.02574    0.00000    0.00000    0.00000    0.00000    0.02359    0.00000    0.95067    0.00000    0.00000    0.02094    0.00000    124.02425  677.49152  0.15584    0.15584    0.15584    0.80199    2.64824    1.00000    1.00000    0.15584    0.00000   
5193.25000 0.00000    0.02282    0.00000    0.00000    0.02779    0.00000    0.00000    0.00000    0.00000    0.02650    0.00000    0.94571    0.00000    0.00000    0.02342    0.00000    137.09485  734.80322  0.15966    0.15966    0.15966    0.79411    2.64796    1.00000    1.00000    0.15966    0.00000   
5193.75000 0.00000    0.02151    0.00000    0.00000    0.02618    0.00000    0.00000    0.00000    0.00000    0.03007    0.00000    0.94375    0.00000    0.00000    0.02658    0.00000    139.04579  745.38300  0.15912    0.15912    0.15912    0.79280    2.64737    1.00000    1.00000    0.15912    0.00000   
5194.25000 0.00000    0.01805    0.00000    0.00000    0.02190    0.00000    0.00000    0.00000    0.00000    0.03317    0.00000    0.94493    0.00000    0.00000    0.02942    0.00000    134.01579  806.55719  0.15606    0.15606    0.15606    0.79647    2.64669    1.00000    1.00000    0.15606    0.00000   
5194.75000 0.00000    0.01273    0.00000    0.00000    0.01537    0.00000    0.00000    0.00000    0.00000    0.03474    0.00000    0.94989    0.00000    0.00000    0.03098    0.00000    124.29603  869.48389  0.15141    0.15141    0.15141    0.80488    2.64609    1.00000    1.00000    0.15141    0.00000   
5195.25000 0.00000    0.00644    0.00000    0.00000    0.00777    0.00000    0.00000    0.00000    0.00000    0.03621    0.00000    0.95602    0.00000    0.00000    0.03233    0.00000    126.50637  810.10492  0.15013    0.15013    0.15013    0.81110    2.64545    1.00000    1.00000    0.15013    0.00000   
5195.75000 0.00000    0.00238    0.00000    0.00000    0.00289    0.00000    0.00000    0.00000    0.00000    0.03841    0.00000    0.95871    0.00000    0.00000    0.03414    0.00000    144.03540  773.98907  0.15358    0.15358    0.15358    0.80989    2.64486    1.00000    1.00000    0.15358    0.00000   
5196.25000 0.00000    0.00141    0.00000    0.00000    0.00171    0.00000    0.00000    0.00000    0.00000    0.04177    0.00000    0.95652    0.00000    0.00000    0.03692    0.00000    165.70467  728.38470  0.15810    0.15810    0.15810    0.80357    2.64432    1.00000    1.00000    0.15810    0.00000   
5196.75000 0.00009    0.00151    0.00000    0.00000    0.00185    0.00000    0.00000    0.00000    0.00084    0.04561    0.00000    0.95171    0.00000    0.00069    0.04022    0.00000    174.89668  731.16644  0.16006    0.15997    0.15997    0.79752    2.64386    1.00000    1.00000    0.15997    0.00077   
5197.25000 0.00020    0.00173    0.00000    0.00000    0.00211    0.00000    0.00000    0.00000    0.00194    0.04921    0.00000    0.94674    0.00000    0.00158    0.04347    0.00000    168.43871  774.97247  0.15863    0.15843    0.15843    0.79459    2.64345    1.00000    1.00000    0.15843    0.00178   
5197.75000 0.00029    0.00261    0.00000    0.00000    0.00317    0.00000    0.00000    0.00000    0.00277    0.05082    0.00000    0.94324    0.00000    0.00228    0.04514    0.00000    146.61896  800.93408  0.15369    0.15341    0.15341    0.79626    2.64334    1.00000    1.00000    0.15341    0.00257   
5198.25000 0.00038    0.00594    0.00000    0.00000    0.00714    0.00000    0.00000    0.00000    0.00361    0.04842    0.00000    0.94083    0.00000    0.00300    0.04336    0.00000    117.20782  800.93408  0.14712    0.14675    0.14675    0.80058    2.64396    1.00000    1.00000    0.14675    0.00337   
5198.75000 0.00033    0.01119    0.00000    0.00000    0.01335    0.00000    0.00000    0.00000    0.00312    0.04433    0.00000    0.93920    0.00000    0.00261    0.03997    0.00000    95.54007   840.40741  0.14145    0.14112    0.14112    0.80478    2.64485    1.00000    1.00000    0.14112    0.00294   
5199.25000 0.00012    0.01357    0.00000    0.00000    0.01613    0.00000    0.00000    0.00000    0.00114    0.04144    0.00000    0.94128    0.00000    0.00096    0.03751    0.00000    87.91378   890.05731  0.13836    0.13824    0.13824    0.80960    2.64529    1.00000    1.00000    0.13824    0.00108   
5199.75000 0.00000    0.01125    0.00000    0.00000    0.01335    0.00000    0.00000    0.00000    0.00000    0.04051    0.00000    0.94614    0.00000    0.00000    0.03672    0.00000    87.10114   914.59357  0.13695    0.13695    0.13695    0.81508    2.64518    1.00000    1.00000    0.13695    0.00000   
5200.25000 0.00000    0.00819    0.00000    0.00000    0.00967    0.00000    0.00000    0.00000    0.00000    0.04104    0.00000    0.94929    0.00000    0.00000    0.03740    0.00000    77.93666   866.47449  0.13232    0.13232    0.13232    0.82209    2.64489    1.00000    1.00000    0.13232    0.00000   
5200.75000 0.00000    0.00841    0.00000    0.00000    0.00985    0.00000    0.00000    0.00000    0.00000    0.04243    0.00000    0.94772    0.00000    0.00000    0.03895    0.00000    64.35868   625.99310  0.12580    0.12580    0.12580    0.82684    2.64471    1.00000    1.00000    0.12580    0.00000   
5201.25000 0.00000    0.01292    0.00000    0.00000    0.01499    0.00000    0.00000    0.00000    0.00000    0.04209    0.00000    0.94292    0.00000    0.00000    0.03904    0.00000    46.94388   357.06195  0.11692    0.11692    0.11692    0.83111    2.64506    1.00000    1.00000    0.11692    0.00000   
5201.75000 0.00000    0.01840    0.00000    0.00000    0.02124    0.00000    0.00000    0.00000    0.00000    0.03959    0.00000    0.93917    0.00000    0.00000    0.03691    0.00000    38.80315   247.28214  0.11272    0.11272    0.11272    0.83198    2.64577    1.00000    1.00000    0.11272    0.00000   
