~Version
 VERS              .         3.0                           : CWLS LOG ASCII STANDARD - VERSION 3.0
 WRAP              .         NO                            : ONE LINE PER DEPTH STEP
 DLM               .         SPACE                         : DELIMITING CHARACTER(SPACE TAB OR COMMA)
~Well Information
#_______________________________________________________________________________
#
#PARAMETER_NAME    .UNIT     VALUE                         : DESCRIPTION
#_______________________________________________________________________________
STRT               .ft       4357.25000                    : First reference value
STOP               .ft       6466.75000                    : Last reference value
STEP               .ft       0.50000                       : Step increment
NULL               .         -9999                         : Missing value
COMP               .         Podolsky Oil Company          : Company
WELL               .         T_R_ McMillen #2              : Well name
FLD                .         Mount Auburn                  : Field
LOC                .                                       : Location
SRVC               .                                       : Service Company
CTRY               .         US                            : Country
STAT               .         Illinois                      : State
CNTY               .                                       : County
API                .                                       : API NUMBER
DATE               .         03-Dec-2018                   : Service Date
LATI               .         39.772784 degrees             : Latitude
LONG               .         -89.203412 degrees            : Longitude
GDAT               .                                       : Geodetic Datum
APD                .ft       15                            : Elevation of Depth Reference (LMF) Above Permanent Datum
BHS                .         OPEN                          : Borehole Status (Open or Cased Hole)
BHT                .degF     103                           : Bottom Hole Temperature
BLI                .ft       6475                          : Bottom Log Interval
BS                 .in       6.75                          : Bit Size
CBDR               .ft       4355                          : Casing Bottom of Driller
CBLO               .ft       4353                          : Logger Casing Shoe Depth
CSIZ               .in       7.625                         : Current Casing Size
CWEI               .lbm/ft   11.6                          : Casing Weight
COUNTRY            .         United States                 : Nation
DCS                .         03-Dec-2018                   : Date Circulation Stopped
DFD                .lbm/gal  9.25                          : Drilling Fluid Density
DFT                .         WATER                         : Drilling Fluid Type
DLAB               .         03-Dec-2018                   : Date Logger At Bottom
EDF                .ft       618                           : Elevation of Drill Floor
EGL                .ft       603                           : Elevation of Ground Level
EKB                .ft       618                           : Elevation of Kelly Bushing
EPD                .ft       603                           : Elevation of Permanent Datum (PDAT) above Mean Sea Level
LMF                .         KB                            : Logging Measured From (Name of Logging Elevation Reference)
LUL                .         Bradford                      : Logging Unit Location
LUN                .         3703                          : Logging Unit Number
MCST               .degF     71.2                          : Mudcake Sample Temperature
MFST               .degF     69.1                          : Mud Filtrate Sample Temperature
MRT                .degF     103                           : Maximum Recorded Temperature
MST                .degF     59.2                          : Mud Sample Temperature
PDAT               .         GL                            : Permanent Datum
PRODUCER-CODE      .         440                           : 
PRODUCER-NAME      .         Schlumberger                  : 
RMB                .ohm.m    0.835368                      : Resistivity of Mud at Bottom Hole Temperature
RMCS               .ohm.m    1.55                          : Resistivity of Mud Cake Sample
RMFS               .ohm.m    1.26                          : Resistivity of Mud Filtrate Sample
RMS                .ohm.m    1.39                          : Resistivity of Mud Sample
RUN                .         2A                            : Run Number
TCS                .         08_00_00                      : Time Circulation Stopped
TDD                .ft       6469                          : Driller Total Depth
TDL                .ft       6475                          : Logger Total Depth
TLAB               .         17_50_00                      : Time Logger At Bottom
TLI                .ft       4353                          : Top Log Interval
~Parameter Information Block
#_______________________________________________________________________________
#
#PARAMETER_NAME    .UNIT     VALUE                         : DESCRIPTION
#_______________________________________________________________________________
SET                .         01_Elan                       : 
TLFamily_Bound_Water .         Bound Water Volume Fraction   : 
TLFamily_Calcite   .         Calcite Volume Fraction       : 
TLFamily_Chlorite  .         Chlorite Volume Fraction      : 
TLFamily_Dolomite  .         Dolomite Volume Fraction      : 
TLFamily_Dry_Weight_Calcite .         Calcite Weight Fraction       : 
TLFamily_Dry_Weight_Chlorite .         Chlorite Weight Fraction      : 
TLFamily_Dry_Weight_Dolomite .         Dolomite Weight Fraction      : 
TLFamily_Dry_Weight_Hematite .         Hematite Weight Fraction      : 
TLFamily_Dry_Weight_Illite .         Illite Weight Fraction        : 
TLFamily_Dry_Weight_K-Feldspar .         Orthoclase Weight Fraction    : 
TLFamily_Dry_Weight_Kaolinite .         Kaolinite Weight Fraction     : 
TLFamily_Dry_Weight_Quartz .         Quartz Weight Fraction        : 
TLFamily_Hematite  .         Hematite Volume Fraction      : 
TLFamily_Illite    .         Illite Volume Fraction        : 
TLFamily_K-Feldspar .         Orthoclase Volume Fraction    : 
TLFamily_KINT_GEO  .         Permeability                  : 
TLFamily_KSDR_py   .         NMR Permeability              : 
TLFamily_Kaolinite .         Kaolinite Volume Fraction     : 
TLFamily_MD        .         Measured Depth                : 
TLFamily_PHIT      .         Total Porosity                : 
TLFamily_PIGE      .         Effective Porosity            : 
TLFamily_PIGN      .         Effective Porosity            : 
TLFamily_Quartz    .         Quartz Volume Fraction        : 
TLFamily_RHGA_GEO  .         Grain Density                 : 
TLFamily_SW        .         Water Saturation              : 
TLFamily_SWE       .         Water Saturation              : 
TLFamily_UWater    .         Undisturbed Zone Water Volume Fraction: 
TLFamily_VCL_GEO   .         Clay Volume Fraction          : 
~Curve Information
#_______________________________________________________________________________
#
#LOGNAME           .UNIT     LOG_ID                        : DESCRIPTION
#_______________________________________________________________________________
MD                 .ft                                     :  {F}
Bound_Water        .ft3/ft3                                : Bound Water Volume Fraction {F}
Calcite            .ft3/ft3                                : Calcite Volume Fraction {F}
Chlorite           .ft3/ft3                                : Chlorite Volume Fraction {F}
Dolomite           .ft3/ft3                                : Dolomite Volume Fraction {F}
Dry_Weight_Calcite .lbm/lbm                                : Dry Weight Fraction From Quanti.Elan {F}
Dry_Weight_Chlorite .lbm/lbm                                : Dry Weight Fraction From Quanti.Elan {F}
Dry_Weight_Dolomite .lbm/lbm                                : Dry Weight Fraction From Quanti.Elan {F}
Dry_Weight_Hematite .lbm/lbm                                : Dry Weight Fraction From Quanti.Elan {F}
Dry_Weight_Illite  .lbm/lbm                                : Dry Weight Fraction From Quanti.Elan {F}
Dry_Weight_K-Feldspar .lbm/lbm                                : Dry Weight Fraction From Quanti.Elan {F}
Dry_Weight_Kaolinite .lbm/lbm                                : Dry Weight Fraction From Quanti.Elan {F}
Dry_Weight_Quartz  .lbm/lbm                                : Dry Weight Fraction From Quanti.Elan {F}
Hematite           .ft3/ft3                                : Hematite Volume Fraction {F}
Illite             .ft3/ft3                                : Illite Volume Fraction {F}
K-Feldspar         .ft3/ft3                                : Orthoclase Volume Fraction {F}
Kaolinite          .ft3/ft3                                : Kaolinite Volume Fraction {F}
KINT_GEO           .mD                                     : Permeability (Juhasz 1979) {F}
KSDR_py            .mD                                     :  {F}
PHIT               .ft3/ft3                                : Total Porosity {F}
PIGE               .ft3/ft3                                : Effective Porosity {F}
PIGN               .ft3/ft3                                : Effective porosity (with irreducible water) {F}
Quartz             .ft3/ft3                                : Quartz Volume Fraction {F}
RHGA_GEO           .g/cm3                                  : Apparent grain density {F}
SW                 .ft3/ft3                                : Undisturbed Zone Water Saturation {F}
SWE                .ft3/ft3                                : Undisturbed Zone Effective Water Saturation {F}
UWater             .ft3/ft3                                : Undisturbed Zone Water Volume Fraction {F}
VCL_GEO            .ft3/ft3                                : Clay fraction {F}
~Ascii
# ...
6021.25000 0.00806    0.00778    0.01333    0.00000    0.00922    0.01580    0.00000    0.00000    0.06220    0.12535    0.00000    0.78743    0.00000    0.05235    0.11381    0.00000    32.01955   8.99694    0.13330    0.12524    0.12524    0.67943    2.63820    1.00000    1.00000    0.12524    0.07375   
6021.75000 0.00819    0.00965    0.01365    0.00000    0.01148    0.01624    0.00000    0.00000    0.06328    0.12506    0.00000    0.78395    0.00000    0.05308    0.11317    0.00000    33.66348   9.32885    0.13625    0.12806    0.12806    0.67419    2.63847    1.00000    1.00000    0.12806    0.07493   
6022.25000 0.00828    0.00772    0.01320    0.00000    0.00923    0.01579    0.00000    0.00000    0.06500    0.12473    0.00000    0.78525    0.00000    0.05422    0.11225    0.00000    38.41859   9.71363    0.14105    0.13277    0.13277    0.67155    2.63847    1.00000    1.00000    0.13277    0.07571   
6022.75000 0.00846    0.00269    0.01411    0.00000    0.00324    0.01701    0.00000    0.00000    0.06618    0.12452    0.00000    0.78905    0.00000    0.05477    0.11117    0.00000    46.35785   11.10871   0.14780    0.13934    0.13934    0.66946    2.63829    1.00000    1.00000    0.13934    0.07734   
6023.25000 0.00886    0.00188    0.01580    0.00000    0.00227    0.01912    0.00000    0.00000    0.06847    0.12280    0.00000    0.78734    0.00000    0.05643    0.10919    0.00000    47.52866   12.33156   0.15144    0.14258    0.14258    0.66527    2.63875    1.00000    1.00000    0.14258    0.08109   
6023.75000 0.00948    0.00000    0.01719    0.00000    0.00000    0.02079    0.00000    0.00000    0.07291    0.12197    0.00000    0.78433    0.00000    0.06015    0.10854    0.00000    42.46027   13.92967   0.15082    0.14134    0.14134    0.66330    2.63911    1.00000    1.00000    0.14134    0.08682   
6024.25000 0.00972    0.00504    0.01616    0.00000    0.00608    0.01948    0.00000    0.00000    0.07611    0.12259    0.00000    0.77574    0.00000    0.06298    0.10943    0.00000    37.03209   15.29145   0.14834    0.13862    0.13862    0.65805    2.63951    1.00000    1.00000    0.13862    0.08886   
6024.75000 0.00966    0.00889    0.01507    0.00000    0.01073    0.01817    0.00000    0.00000    0.07687    0.12504    0.00000    0.76919    0.00000    0.06357    0.11156    0.00000    37.25864   16.55173   0.14877    0.13911    0.13911    0.65214    2.63942    1.00000    1.00000    0.13911    0.08830   
6025.25000 0.00942    0.00872    0.01320    0.00000    0.01053    0.01593    0.00000    0.00000    0.07668    0.12624    0.00000    0.77063    0.00000    0.06339    0.11259    0.00000    39.28101   17.92286   0.14899    0.13956    0.13956    0.65312    2.63910    1.00000    1.00000    0.13956    0.08601   
6025.75000 0.00910    0.00465    0.01221    0.00000    0.00560    0.01471    0.00000    0.00000    0.07457    0.12643    0.00000    0.77869    0.00000    0.06175    0.11295    0.00000    40.85940   16.56907   0.14736    0.13825    0.13825    0.66109    2.63858    1.00000    1.00000    0.13825    0.08306   
6026.25000 0.00909    0.00236    0.01300    0.00000    0.00282    0.01553    0.00000    0.00000    0.07295    0.12504    0.00000    0.78367    0.00000    0.06091    0.11263    0.00000    34.00908   14.33987   0.14024    0.13115    0.13115    0.67085    2.63855    1.00000    1.00000    0.13115    0.08301   
6026.75000 0.00936    0.00339    0.01482    0.00000    0.00401    0.01755    0.00000    0.00000    0.07290    0.12409    0.00000    0.78145    0.00000    0.06140    0.11275    0.00000    26.01267   11.61285   0.13292    0.12356    0.12356    0.67474    2.63886    1.00000    1.00000    0.12356    0.08558   
6027.25000 0.00986    0.00626    0.01583    0.00000    0.00737    0.01865    0.00000    0.00000    0.07611    0.12265    0.00000    0.77522    0.00000    0.06447    0.11208    0.00000    20.16686   9.60482    0.12817    0.11831    0.11831    0.67319    2.63953    1.00000    1.00000    0.11831    0.09017   
6027.75000 0.01002    0.00723    0.01612    0.00000    0.00853    0.01900    0.00000    0.00000    0.07741    0.12216    0.00000    0.77290    0.00000    0.06550    0.11150    0.00000    20.06458   8.67359    0.12920    0.11917    0.11917    0.67045    2.63977    1.00000    1.00000    0.11917    0.09164   
6028.25000 0.00968    0.00203    0.01509    0.00000    0.00240    0.01786    0.00000    0.00000    0.07558    0.12286    0.00000    0.78131    0.00000    0.06371    0.11173    0.00000    24.20247   8.56606    0.13222    0.12254    0.12254    0.67522    2.63913    1.00000    1.00000    0.12254    0.08849   
6028.75000 0.00899    0.00000    0.01359    0.00000    0.00000    0.01615    0.00000    0.00000    0.07093    0.12447    0.00000    0.78845    0.00000    0.05953    0.11270    0.00000    30.85656   7.89277    0.13575    0.12676    0.12676    0.67843    2.63837    1.00000    1.00000    0.12676    0.08211   
6029.25000 0.00864    0.00000    0.01156    0.00000    0.00000    0.01376    0.00000    0.00000    0.06999    0.12522    0.00000    0.79102    0.00000    0.05862    0.11314    0.00000    34.57793   7.94028    0.13753    0.12889    0.12889    0.67916    2.63807    1.00000    1.00000    0.12889    0.07881   
6029.75000 0.00838    0.00107    0.01052    0.00000    0.00128    0.01261    0.00000    0.00000    0.06907    0.12401    0.00000    0.79303    0.00000    0.05747    0.11133    0.00000    41.61549   9.08742    0.14305    0.13467    0.13467    0.67655    2.63818    1.00000    1.00000    0.13467    0.07637   
6030.25000 0.00839    0.00440    0.00887    0.00000    0.00531    0.01071    0.00000    0.00000    0.07164    0.12007    0.00000    0.79226    0.00000    0.05917    0.10698    0.00000    47.59561   11.41634   0.14980    0.14140    0.14140    0.67079    2.63901    1.00000    1.00000    0.14140    0.07643   
6030.75000 0.00837    0.00626    0.00771    0.00000    0.00759    0.00935    0.00000    0.00000    0.07306    0.11830    0.00000    0.79170    0.00000    0.06004    0.10488    0.00000    52.27030   13.81247   0.15411    0.14575    0.14575    0.66701    2.63940    1.00000    1.00000    0.14575    0.07611   
6031.25000 0.00940    0.00916    0.00734    0.00000    0.01106    0.00886    0.00000    0.00000    0.07466    0.11595    0.01508    0.77439    0.00000    0.06169    0.10336    0.01288    35.53720   14.67847   0.14956    0.14016    0.14016    0.65601    2.63970    1.00000    1.00000    0.14016    0.09131   
6031.75000 0.00920    0.01315    0.00887    0.00000    0.01580    0.01065    0.00000    0.00000    0.07620    0.11373    0.00501    0.77861    0.00000    0.06328    0.10189    0.00430    33.23034   15.68948   0.14563    0.13644    0.13644    0.66288    2.64069    1.00000    1.00000    0.13644    0.08564   
6032.25000 0.00888    0.01973    0.01243    0.00000    0.02367    0.01491    0.00000    0.00000    0.07186    0.11180    0.00000    0.77776    0.00000    0.05977    0.10031    0.00000    32.96482   14.51652   0.14460    0.13571    0.13571    0.66316    2.64148    1.00000    1.00000    0.13571    0.08108   
6032.75000 0.00910    0.02530    0.01695    0.00000    0.03039    0.02036    0.00000    0.00000    0.06900    0.11101    0.00000    0.76924    0.00000    0.05730    0.09945    0.00000    31.80580   12.73415   0.14613    0.13703    0.13703    0.65488    2.64211    1.00000    1.00000    0.13703    0.08335   
6033.25000 0.00915    0.02361    0.01651    0.00000    0.02846    0.01990    0.00000    0.00000    0.07022    0.11274    0.00000    0.76869    0.00000    0.05812    0.10068    0.00000    34.47333   12.58287   0.14874    0.13958    0.13958    0.65233    2.64181    1.00000    1.00000    0.13958    0.08379   
6033.75000 0.00928    0.01475    0.01432    0.00000    0.01775    0.01722    0.00000    0.00000    0.07378    0.11492    0.00000    0.77633    0.00000    0.06117    0.10280    0.00000    34.64822   17.13957   0.14704    0.13777    0.13777    0.65992    2.64096    1.00000    1.00000    0.13777    0.08476   
