~Version
 VERS              .         3.0                           : CWLS LOG ASCII STANDARD - VERSION 3.0
 WRAP              .         NO                            : ONE LINE PER DEPTH STEP
 DLM               .         SPACE                         : DELIMITING CHARACTER(SPACE TAB OR COMMA)
~Well Information
#_______________________________________________________________________________
#
#PARAMETER_NAME    .UNIT     VALUE                         : DESCRIPTION
#_______________________________________________________________________________
STRT               .ft       4357.25000                    : First reference value
STOP               .ft       6466.75000                    : Last reference value
STEP               .ft       0.50000                       : Step increment
NULL               .         -9999                         : Missing value
COMP               .         Podolsky Oil Company          : Company
WELL               .         T_R_ McMillen #2              : Well name
FLD                .         Mount Auburn                  : Field
LOC                .                                       : Location
SRVC               .                                       : Service Company
CTRY               .         US                            : Country
STAT               .         Illinois                      : State
CNTY               .                                       : County
API                .                                       : API NUMBER
DATE               .         03-Dec-2018                   : Service Date
LATI               .         39.772784 degrees             : Latitude
LONG               .         -89.203412 degrees            : Longitude
GDAT               .                                       : Geodetic Datum
APD                .ft       15                            : Elevation of Depth Reference (LMF) Above Permanent Datum
BHS                .         OPEN                          : Borehole Status (Open or Cased Hole)
BHT                .degF     103                           : Bottom Hole Temperature
BLI                .ft       6475                          : Bottom Log Interval
BS                 .in       6.75                          : Bit Size
CBDR               .ft       4355                          : Casing Bottom of Driller
CBLO               .ft       4353                          : Logger Casing Shoe Depth
CSIZ               .in       7.625                         : Current Casing Size
CWEI               .lbm/ft   11.6                          : Casing Weight
COUNTRY            .         United States                 : Nation
DCS                .         03-Dec-2018                   : Date Circulation Stopped
DFD                .lbm/gal  9.25                          : Drilling Fluid Density
DFT                .         WATER                         : Drilling Fluid Type
DLAB               .         03-Dec-2018                   : Date Logger At Bottom
EDF                .ft       618                           : Elevation of Drill Floor
EGL                .ft       603                           : Elevation of Ground Level
EKB                .ft       618                           : Elevation of Kelly Bushing
EPD                .ft       603                           : Elevation of Permanent Datum (PDAT) above Mean Sea Level
LMF                .         KB                            : Logging Measured From (Name of Logging Elevation Reference)
LUL                .         Bradford                      : Logging Unit Location
LUN                .         3703                          : Logging Unit Number
MCST               .degF     71.2                          : Mudcake Sample Temperature
MFST               .degF     69.1                          : Mud Filtrate Sample Temperature
MRT                .degF     103                           : Maximum Recorded Temperature
MST                .degF     59.2                          : Mud Sample Temperature
PDAT               .         GL                            : Permanent Datum
PRODUCER-CODE      .         440                           : 
PRODUCER-NAME      .         Schlumberger                  : 
RMB                .ohm.m    0.835368                      : Resistivity of Mud at Bottom Hole Temperature
RMCS               .ohm.m    1.55                          : Resistivity of Mud Cake Sample
RMFS               .ohm.m    1.26                          : Resistivity of Mud Filtrate Sample
RMS                .ohm.m    1.39                          : Resistivity of Mud Sample
RUN                .         2A                            : Run Number
TCS                .         08_00_00                      : Time Circulation Stopped
TDD                .ft       6469                          : Driller Total Depth
TDL                .ft       6475                          : Logger Total Depth
TLAB               .         17_50_00                      : Time Logger At Bottom
TLI                .ft       4353                          : Top Log Interval
~Parameter Information Block
#_______________________________________________________________________________
#
#PARAMETER_NAME    .UNIT     VALUE                         : DESCRIPTION
#_______________________________________________________________________________
SET                .         01_Elan                       : 
TLFamily_Bound_Water .         Bound Water Volume Fraction   : 
TLFamily_Calcite   .         Calcite Volume Fraction       : 
TLFamily_Chlorite  .         Chlorite Volume Fraction      : 
TLFamily_Dolomite  .         Dolomite Volume Fraction      : 
TLFamily_Dry_Weight_Calcite .         Calcite Weight Fraction       : 
TLFamily_Dry_Weight_Chlorite .         Chlorite Weight Fraction      : 
TLFamily_Dry_Weight_Dolomite .         Dolomite Weight Fraction      : 
TLFamily_Dry_Weight_Hematite .         Hematite Weight Fraction      : 
TLFamily_Dry_Weight_Illite .         Illite Weight Fraction        : 
TLFamily_Dry_Weight_K-Feldspar .         Orthoclase Weight Fraction    : 
TLFamily_Dry_Weight_Kaolinite .         Kaolinite Weight Fraction     : 
TLFamily_Dry_Weight_Quartz .         Quartz Weight Fraction        : 
TLFamily_Hematite  .         Hematite Volume Fraction      : 
TLFamily_Illite    .         Illite Volume Fraction        : 
TLFamily_K-Feldspar .         Orthoclase Volume Fraction    : 
TLFamily_KINT_GEO  .         Permeability                  : 
TLFamily_KSDR_py   .         NMR Permeability              : 
TLFamily_Kaolinite .         Kaolinite Volume Fraction     : 
TLFamily_MD        .         Measured Depth                : 
TLFamily_PHIT      .         Total Porosity                : 
TLFamily_PIGE      .         Effective Porosity            : 
TLFamily_PIGN      .         Effective Porosity            : 
TLFamily_Quartz    .         Quartz Volume Fraction        : 
TLFamily_RHGA_GEO  .         Grain Density                 : 
TLFamily_SW        .         Water Saturation              : 
TLFamily_SWE       .         Water Saturation              : 
TLFamily_UWater    .         Undisturbed Zone Water Volume Fraction: 
TLFamily_VCL_GEO   .         Clay Volume Fraction          : 
~Curve Information
#_______________________________________________________________________________
#
#LOGNAME           .UNIT     LOG_ID                        : DESCRIPTION
#_______________________________________________________________________________
MD                 .ft                                     :  {F}
Bound_Water        .ft3/ft3                                : Bound Water Volume Fraction {F}
Calcite            .ft3/ft3                                : Calcite Volume Fraction {F}
Chlorite           .ft3/ft3                                : Chlorite Volume Fraction {F}
Dolomite           .ft3/ft3                                : Dolomite Volume Fraction {F}
Dry_Weight_Calcite .lbm/lbm                                : Dry Weight Fraction From Quanti.Elan {F}
Dry_Weight_Chlorite .lbm/lbm                                : Dry Weight Fraction From Quanti.Elan {F}
Dry_Weight_Dolomite .lbm/lbm                                : Dry Weight Fraction From Quanti.Elan {F}
Dry_Weight_Hematite .lbm/lbm                                : Dry Weight Fraction From Quanti.Elan {F}
Dry_Weight_Illite  .lbm/lbm                                : Dry Weight Fraction From Quanti.Elan {F}
Dry_Weight_K-Feldspar .lbm/lbm                                : Dry Weight Fraction From Quanti.Elan {F}
Dry_Weight_Kaolinite .lbm/lbm                                : Dry Weight Fraction From Quanti.Elan {F}
Dry_Weight_Quartz  .lbm/lbm                                : Dry Weight Fraction From Quanti.Elan {F}
Hematite           .ft3/ft3                                : Hematite Volume Fraction {F}
Illite             .ft3/ft3                                : Illite Volume Fraction {F}
K-Feldspar         .ft3/ft3                                : Orthoclase Volume Fraction {F}
Kaolinite          .ft3/ft3                                : Kaolinite Volume Fraction {F}
KINT_GEO           .mD                                     : Permeability (Juhasz 1979) {F}
KSDR_py            .mD                                     :  {F}
PHIT               .ft3/ft3                                : Total Porosity {F}
PIGE               .ft3/ft3                                : Effective Porosity {F}
PIGN               .ft3/ft3                                : Effective porosity (with irreducible water) {F}
Quartz             .ft3/ft3                                : Quartz Volume Fraction {F}
RHGA_GEO           .g/cm3                                  : Apparent grain density {F}
SW                 .ft3/ft3                                : Undisturbed Zone Water Saturation {F}
SWE                .ft3/ft3                                : Undisturbed Zone Effective Water Saturation {F}
UWater             .ft3/ft3                                : Undisturbed Zone Water Volume Fraction {F}
VCL_GEO            .ft3/ft3                                : Clay fraction {F}
~Ascii
# ...
5462.25000 0.00351    0.00821    0.00841    0.00000    0.00945    0.00968    0.00000    0.00000    0.02338    0.00447    0.00000    0.95302    0.00000    0.02026    0.00417    0.00000    19.00797   36.17205   0.11239    0.10887    0.10887    0.84656    2.65203    1.00000    1.00000    0.10887    0.03218   
5462.75000 0.00315    0.01128    0.00729    0.00000    0.01296    0.00837    0.00000    0.00000    0.02120    0.00590    0.00000    0.95158    0.00000    0.01840    0.00553    0.00000    18.61836   18.99760   0.11042    0.10726    0.10726    0.84709    2.65182    1.00000    1.00000    0.10726    0.02884   
5463.25000 0.00261    0.00994    0.00556    0.00000    0.01141    0.00638    0.00000    0.00000    0.01803    0.00785    0.00000    0.95632    0.00000    0.01567    0.00736    0.00000    20.14318   15.63383   0.10953    0.10693    0.10693    0.85193    2.65113    1.00000    1.00000    0.10693    0.02384   
5463.75000 0.00247    0.00524    0.00414    0.00000    0.00602    0.00476    0.00000    0.00000    0.01835    0.00858    0.00000    0.96228    0.00000    0.01592    0.00803    0.00000    22.39899   18.65598   0.11094    0.10847    0.10847    0.85573    2.65064    1.00000    1.00000    0.10847    0.02253   
5464.25000 0.00284    0.00277    0.00341    0.00000    0.00320    0.00394    0.00000    0.00000    0.02266    0.00862    0.00000    0.96158    0.00000    0.01956    0.00802    0.00000    24.88623   25.81624   0.11535    0.11251    0.11251    0.85089    2.65070    1.00000    1.00000    0.11251    0.02581   
5464.75000 0.00329    0.00589    0.00369    0.00000    0.00683    0.00428    0.00000    0.00000    0.02652    0.00871    0.00000    0.95367    0.00000    0.02285    0.00809    0.00000    24.10958   25.81624   0.11724    0.11395    0.11395    0.84223    2.65117    1.00000    1.00000    0.11395    0.02983   
5465.25000 0.00366    0.01177    0.00434    0.00000    0.01361    0.00502    0.00000    0.00000    0.02923    0.00812    0.00000    0.94402    0.00000    0.02521    0.00756    0.00000    21.05417   31.42324   0.11630    0.11264    0.11264    0.83482    2.65187    1.00000    1.00000    0.11264    0.03321   
5465.75000 0.00369    0.01471    0.00503    0.00000    0.01704    0.00583    0.00000    0.00000    0.02881    0.00759    0.00000    0.94073    0.00000    0.02480    0.00705    0.00000    21.72004   35.03542   0.11804    0.11436    0.11436    0.83036    2.65217    1.00000    1.00000    0.11436    0.03352   
5466.25000 0.00363    0.01282    0.00544    0.00000    0.01486    0.00631    0.00000    0.00000    0.02787    0.00671    0.00000    0.94425    0.00000    0.02397    0.00623    0.00000    22.79350   33.78684   0.11898    0.11534    0.11534    0.83257    2.65213    1.00000    1.00000    0.11534    0.03304   
5466.75000 0.00359    0.00816    0.00563    0.00000    0.00944    0.00652    0.00000    0.00000    0.02723    0.00620    0.00000    0.95060    0.00000    0.02347    0.00576    0.00000    22.14082   30.38813   0.11703    0.11344    0.11344    0.83994    2.65185    1.00000    1.00000    0.11344    0.03270   
5467.25000 0.00368    0.00363    0.00493    0.00000    0.00418    0.00568    0.00000    0.00000    0.02869    0.00485    0.00000    0.95660    0.00000    0.02484    0.00453    0.00000    19.54617   36.34822   0.11312    0.10944    0.10944    0.84895    2.65178    1.00000    1.00000    0.10944    0.03345   
5467.75000 0.00373    0.00062    0.00379    0.00000    0.00071    0.00437    0.00000    0.00000    0.03037    0.00358    0.00000    0.96096    0.00000    0.02630    0.00335    0.00000    19.40163   52.28617   0.11278    0.10905    0.10905    0.85316    2.65178    1.00000    1.00000    0.10905    0.03383   
5468.25000 0.00355    0.00037    0.00339    0.00000    0.00043    0.00393    0.00000    0.00000    0.02929    0.00328    0.00000    0.96307    0.00000    0.02525    0.00305    0.00000    22.89401   75.78587   0.11677    0.11322    0.11322    0.85116    2.65171    1.00000    1.00000    0.11322    0.03219   
5468.75000 0.00341    0.00268    0.00401    0.00000    0.00312    0.00467    0.00000    0.00000    0.02752    0.00380    0.00000    0.96089    0.00000    0.02356    0.00351    0.00000    28.01283   95.25334   0.12263    0.11922    0.11922    0.84361    2.65173    1.00000    1.00000    0.11922    0.03099   
5469.25000 0.00340    0.00597    0.00467    0.00000    0.00699    0.00546    0.00000    0.00000    0.02676    0.00428    0.00000    0.95650    0.00000    0.02282    0.00394    0.00000    31.08953   98.24042   0.12648    0.12308    0.12308    0.83612    2.65188    1.00000    1.00000    0.12308    0.03089   
5469.75000 0.00299    0.00824    0.00509    0.00000    0.00971    0.00601    0.00000    0.00000    0.02268    0.00587    0.00000    0.95572    0.00000    0.01919    0.00536    0.00000    40.38053   109.77956  0.13313    0.13014    0.13014    0.82898    2.65159    1.00000    1.00000    0.13014    0.02728   
5470.25000 0.00266    0.00917    0.00458    0.00000    0.01083    0.00541    0.00000    0.00000    0.02014    0.00687    0.00000    0.95675    0.00000    0.01701    0.00626    0.00000    44.47766   120.68020  0.13458    0.13192    0.13192    0.82841    2.65131    1.00000    1.00000    0.13192    0.02425   
5470.75000 0.00237    0.00789    0.00362    0.00000    0.00933    0.00428    0.00000    0.00000    0.01844    0.00755    0.00000    0.96040    0.00000    0.01555    0.00687    0.00000    48.56766   127.42506  0.13550    0.13314    0.13314    0.83056    2.65095    1.00000    1.00000    0.13314    0.02154   
5471.25000 0.00227    0.00433    0.00202    0.00000    0.00511    0.00239    0.00000    0.00000    0.01927    0.00655    0.00000    0.96669    0.00000    0.01629    0.00597    0.00000    47.71823   122.47680  0.13373    0.13146    0.13146    0.83766    2.65079    1.00000    1.00000    0.13146    0.02058   
5471.75000 0.00241    0.00120    0.00105    0.00000    0.00141    0.00123    0.00000    0.00000    0.01776    0.00698    0.00692    0.96569    0.00000    0.01503    0.00638    0.00605    44.61920   104.96316  0.13241    0.12999    0.12999    0.83789    2.65021    1.00000    1.00000    0.12999    0.02454   
5472.25000 0.00333    0.00024    0.00091    0.00000    0.00028    0.00107    0.00000    0.00000    0.02079    0.00594    0.01736    0.95456    0.00000    0.01756    0.00541    0.01516    38.30561   85.73047   0.13383    0.13050    0.13050    0.82689    2.65026    1.00000    1.00000    0.13050    0.03696   
5472.75000 0.00464    0.00013    0.00208    0.00000    0.00015    0.00246    0.00000    0.00000    0.03027    0.00335    0.02034    0.94342    0.00000    0.02551    0.00305    0.01771    32.33680   54.74452   0.13635    0.13171    0.13171    0.81517    2.65125    1.00000    1.00000    0.13171    0.04994   
5473.25000 0.00492    0.00000    0.00476    0.00000    0.00000    0.00564    0.00000    0.00000    0.03958    0.00005    0.00342    0.95131    0.00000    0.03329    0.00005    0.00297    34.69379   29.73537   0.13863    0.13371    0.13371    0.82030    2.65284    1.00000    1.00000    0.13371    0.04594   
5473.75000 0.00547    0.00000    0.00699    0.00000    0.00000    0.00825    0.00000    0.00000    0.04404    0.00000    0.00000    0.94770    0.00000    0.03721    0.00000    0.00000    28.96153   20.13881   0.13505    0.12958    0.12958    0.82076    2.65336    1.00000    1.00000    0.12958    0.04966   
5474.25000 0.00604    0.00000    0.00792    0.00000    0.00000    0.00931    0.00000    0.00000    0.04819    0.00000    0.00000    0.94250    0.00000    0.04092    0.00000    0.00000    23.16500   21.78550   0.13074    0.12470    0.12470    0.82042    2.65369    1.00000    1.00000    0.12470    0.05488   
5474.75000 0.00647    0.00000    0.00836    0.00000    0.00000    0.00980    0.00000    0.00000    0.05161    0.00000    0.00000    0.93859    0.00000    0.04395    0.00000    0.00000    19.96739   32.19748   0.12822    0.12175    0.12175    0.81947    2.65394    1.00000    1.00000    0.12175    0.05879   
