~Version
 VERS              .         3.0                           : CWLS LOG ASCII STANDARD - VERSION 3.0
 WRAP              .         NO                            : ONE LINE PER DEPTH STEP
 DLM               .         SPACE                         : DELIMITING CHARACTER(SPACE TAB OR COMMA)
~Well Information
#_______________________________________________________________________________
#
#PARAMETER_NAME    .UNIT     VALUE                         : DESCRIPTION
#_______________________________________________________________________________
STRT               .ft       4357.25000                    : First reference value
STOP               .ft       6466.75000                    : Last reference value
STEP               .ft       0.50000                       : Step increment
NULL               .         -9999                         : Missing value
COMP               .         Podolsky Oil Company          : Company
WELL               .         T_R_ McMillen #2              : Well name
FLD                .         Mount Auburn                  : Field
LOC                .                                       : Location
SRVC               .                                       : Service Company
CTRY               .         US                            : Country
STAT               .         Illinois                      : State
CNTY               .                                       : County
API                .                                       : API NUMBER
DATE               .         03-Dec-2018                   : Service Date
LATI               .         39.772784 degrees             : Latitude
LONG               .         -89.203412 degrees            : Longitude
GDAT               .                                       : Geodetic Datum
APD                .ft       15                            : Elevation of Depth Reference (LMF) Above Permanent Datum
BHS                .         OPEN                          : Borehole Status (Open or Cased Hole)
BHT                .degF     103                           : Bottom Hole Temperature
BLI                .ft       6475                          : Bottom Log Interval
BS                 .in       6.75                          : Bit Size
CBDR               .ft       4355                          : Casing Bottom of Driller
CBLO               .ft       4353                          : Logger Casing Shoe Depth
CSIZ               .in       7.625                         : Current Casing Size
CWEI               .lbm/ft   11.6                          : Casing Weight
COUNTRY            .         United States                 : Nation
DCS                .         03-Dec-2018                   : Date Circulation Stopped
DFD                .lbm/gal  9.25                          : Drilling Fluid Density
DFT                .         WATER                         : Drilling Fluid Type
DLAB               .         03-Dec-2018                   : Date Logger At Bottom
EDF                .ft       618                           : Elevation of Drill Floor
EGL                .ft       603                           : Elevation of Ground Level
EKB                .ft       618                           : Elevation of Kelly Bushing
EPD                .ft       603                           : Elevation of Permanent Datum (PDAT) above Mean Sea Level
LMF                .         KB                            : Logging Measured From (Name of Logging Elevation Reference)
LUL                .         Bradford                      : Logging Unit Location
LUN                .         3703                          : Logging Unit Number
MCST               .degF     71.2                          : Mudcake Sample Temperature
MFST               .degF     69.1                          : Mud Filtrate Sample Temperature
MRT                .degF     103                           : Maximum Recorded Temperature
MST                .degF     59.2                          : Mud Sample Temperature
PDAT               .         GL                            : Permanent Datum
PRODUCER-CODE      .         440                           : 
PRODUCER-NAME      .         Schlumberger                  : 
RMB                .ohm.m    0.835368                      : Resistivity of Mud at Bottom Hole Temperature
RMCS               .ohm.m    1.55                          : Resistivity of Mud Cake Sample
RMFS               .ohm.m    1.26                          : Resistivity of Mud Filtrate Sample
RMS                .ohm.m    1.39                          : Resistivity of Mud Sample
RUN                .         2A                            : Run Number
TCS                .         08_00_00                      : Time Circulation Stopped
TDD                .ft       6469                          : Driller Total Depth
TDL                .ft       6475                          : Logger Total Depth
TLAB               .         17_50_00                      : Time Logger At Bottom
TLI                .ft       4353                          : Top Log Interval
~Parameter Information Block
#_______________________________________________________________________________
#
#PARAMETER_NAME    .UNIT     VALUE                         : DESCRIPTION
#_______________________________________________________________________________
SET                .         01_Elan                       : 
TLFamily_Bound_Water .         Bound Water Volume Fraction   : 
TLFamily_Calcite   .         Calcite Volume Fraction       : 
TLFamily_Chlorite  .         Chlorite Volume Fraction      : 
TLFamily_Dolomite  .         Dolomite Volume Fraction      : 
TLFamily_Dry_Weight_Calcite .         Calcite Weight Fraction       : 
TLFamily_Dry_Weight_Chlorite .         Chlorite Weight Fraction      : 
TLFamily_Dry_Weight_Dolomite .         Dolomite Weight Fraction      : 
TLFamily_Dry_Weight_Hematite .         Hematite Weight Fraction      : 
TLFamily_Dry_Weight_Illite .         Illite Weight Fraction        : 
TLFamily_Dry_Weight_K-Feldspar .         Orthoclase Weight Fraction    : 
TLFamily_Dry_Weight_Kaolinite .         Kaolinite Weight Fraction     : 
TLFamily_Dry_Weight_Quartz .         Quartz Weight Fraction        : 
TLFamily_Hematite  .         Hematite Volume Fraction      : 
TLFamily_Illite    .         Illite Volume Fraction        : 
TLFamily_K-Feldspar .         Orthoclase Volume Fraction    : 
TLFamily_KINT_GEO  .         Permeability                  : 
TLFamily_KSDR_py   .         NMR Permeability              : 
TLFamily_Kaolinite .         Kaolinite Volume Fraction     : 
TLFamily_MD        .         Measured Depth                : 
TLFamily_PHIT      .         Total Porosity                : 
TLFamily_PIGE      .         Effective Porosity            : 
TLFamily_PIGN      .         Effective Porosity            : 
TLFamily_Quartz    .         Quartz Volume Fraction        : 
TLFamily_RHGA_GEO  .         Grain Density                 : 
TLFamily_SW        .         Water Saturation              : 
TLFamily_SWE       .         Water Saturation              : 
TLFamily_UWater    .         Undisturbed Zone Water Volume Fraction: 
TLFamily_VCL_GEO   .         Clay Volume Fraction          : 
~Curve Information
#_______________________________________________________________________________
#
#LOGNAME           .UNIT     LOG_ID                        : DESCRIPTION
#_______________________________________________________________________________
MD                 .ft                                     :  {F}
Bound_Water        .ft3/ft3                                : Bound Water Volume Fraction {F}
Calcite            .ft3/ft3                                : Calcite Volume Fraction {F}
Chlorite           .ft3/ft3                                : Chlorite Volume Fraction {F}
Dolomite           .ft3/ft3                                : Dolomite Volume Fraction {F}
Dry_Weight_Calcite .lbm/lbm                                : Dry Weight Fraction From Quanti.Elan {F}
Dry_Weight_Chlorite .lbm/lbm                                : Dry Weight Fraction From Quanti.Elan {F}
Dry_Weight_Dolomite .lbm/lbm                                : Dry Weight Fraction From Quanti.Elan {F}
Dry_Weight_Hematite .lbm/lbm                                : Dry Weight Fraction From Quanti.Elan {F}
Dry_Weight_Illite  .lbm/lbm                                : Dry Weight Fraction From Quanti.Elan {F}
Dry_Weight_K-Feldspar .lbm/lbm                                : Dry Weight Fraction From Quanti.Elan {F}
Dry_Weight_Kaolinite .lbm/lbm                                : Dry Weight Fraction From Quanti.Elan {F}
Dry_Weight_Quartz  .lbm/lbm                                : Dry Weight Fraction From Quanti.Elan {F}
Hematite           .ft3/ft3                                : Hematite Volume Fraction {F}
Illite             .ft3/ft3                                : Illite Volume Fraction {F}
K-Feldspar         .ft3/ft3                                : Orthoclase Volume Fraction {F}
Kaolinite          .ft3/ft3                                : Kaolinite Volume Fraction {F}
KINT_GEO           .mD                                     : Permeability (Juhasz 1979) {F}
KSDR_py            .mD                                     :  {F}
PHIT               .ft3/ft3                                : Total Porosity {F}
PIGE               .ft3/ft3                                : Effective Porosity {F}
PIGN               .ft3/ft3                                : Effective porosity (with irreducible water) {F}
Quartz             .ft3/ft3                                : Quartz Volume Fraction {F}
RHGA_GEO           .g/cm3                                  : Apparent grain density {F}
SW                 .ft3/ft3                                : Undisturbed Zone Water Saturation {F}
SWE                .ft3/ft3                                : Undisturbed Zone Effective Water Saturation {F}
UWater             .ft3/ft3                                : Undisturbed Zone Water Volume Fraction {F}
VCL_GEO            .ft3/ft3                                : Clay fraction {F}
~Ascii
# ...
4500.25000 0.00621    0.15736    0.01147    0.00000    0.18947    0.01381    0.00000    0.00000    0.04656    0.03901    0.00000    0.71115    0.00000    0.03857    0.03486    0.00000    17.80611   913.93433  0.15375    0.14754    0.14754    0.60398    2.65959    1.00000    1.00000    0.14754    0.05625   
4500.75000 0.00532    0.14904    0.01117    0.00000    0.17990    0.01348    0.00000    0.00000    0.03846    0.04550    0.00000    0.72265    0.00000    0.03179    0.04057    0.00000    23.39914   917.03253  0.15518    0.14987    0.14987    0.61225    2.65757    1.00000    1.00000    0.14987    0.04827   
4501.25000 0.00447    0.14580    0.01049    0.00000    0.17595    0.01266    0.00000    0.00000    0.03110    0.05337    0.00000    0.72692    0.00000    0.02571    0.04759    0.00000    28.12431   814.43164  0.15441    0.14994    0.14994    0.61600    2.65571    1.00000    1.00000    0.14994    0.04067   
4501.75000 0.00415    0.15578    0.01008    0.00000    0.18732    0.01212    0.00000    0.00000    0.02832    0.05978    0.00000    0.71246    0.00000    0.02349    0.05350    0.00000    26.46656   598.15430  0.15121    0.14706    0.14706    0.60594    2.65527    1.00000    1.00000    0.14706    0.03772   
4502.25000 0.00529    0.17591    0.00979    0.00000    0.20877    0.01162    0.00000    0.00000    0.03703    0.06148    0.00367    0.67742    0.00000    0.03112    0.05575    0.00319    14.39646   369.35178  0.14052    0.13522    0.13522    0.58372    2.65677    1.00000    1.00000    0.13522    0.04940   
4502.75000 0.00765    0.19500    0.01034    0.00000    0.22650    0.01202    0.00000    0.00000    0.04757    0.06053    0.02110    0.63229    0.00000    0.04085    0.05608    0.01872    4.72975    263.60602  0.12234    0.11469    0.11469    0.55668    2.65831    1.00000    1.00000    0.11469    0.07756   
4503.25000 0.00887    0.21113    0.01274    0.00000    0.24119    0.01456    0.00000    0.00000    0.05529    0.06156    0.02075    0.60666    0.00000    0.04827    0.05799    0.01872    2.18957    214.62595  0.10808    0.09922    0.09922    0.54307    2.65969    1.00000    1.00000    0.09922    0.08860   
4503.75000 0.00959    0.22266    0.01661    0.00000    0.25255    0.01884    0.00000    0.00000    0.05735    0.06836    0.02060    0.58230    0.00000    0.05043    0.06485    0.01872    1.48016    188.00116  0.10174    0.09215    0.09215    0.52499    2.65981    1.00000    1.00000    0.09215    0.09535   
4504.25000 0.01030    0.22825    0.01911    0.00000    0.25755    0.02156    0.00000    0.00000    0.06074    0.07819    0.02050    0.56147    0.00000    0.05369    0.07457    0.01872    1.10067    160.91006  0.09680    0.08651    0.08651    0.50886    2.65912    1.00000    1.00000    0.08651    0.10181   
4504.75000 0.01082    0.22946    0.02165    0.00000    0.25835    0.02438    0.00000    0.00000    0.06257    0.09236    0.02045    0.54189    0.00000    0.05543    0.08828    0.01872    0.97038    120.33340  0.09429    0.08347    0.08347    0.49218    2.65747    1.00000    1.00000    0.08347    0.10661   
4505.25000 0.01167    0.22946    0.02397    0.00000    0.25609    0.02675    0.00000    0.00000    0.06715    0.10604    0.02027    0.52371    0.00000    0.06002    0.10225    0.01872    0.61722    97.17131   0.08571    0.07404    0.07404    0.47988    2.65588    1.00000    1.00000    0.07404    0.11437   
4505.75000 0.01198    0.22950    0.02546    0.00000    0.25574    0.02837    0.00000    0.00000    0.06830    0.11616    0.02024    0.51120    0.00000    0.06114    0.11218    0.01872    0.56347    82.04221   0.08386    0.07187    0.07187    0.46915    2.65462    1.00000    1.00000    0.07187    0.11730   
4506.25000 0.01238    0.24307    0.02592    0.00000    0.26855    0.02864    0.00000    0.00000    0.07072    0.11930    0.02007    0.49272    0.00000    0.06385    0.11620    0.01872    0.33254    69.35279   0.07617    0.06379    0.06379    0.45607    2.65512    1.00000    1.00000    0.06379    0.12087   
4506.75000 0.01253    0.26542    0.02718    0.00000    0.29002    0.02969    0.00000    0.00000    0.06994    0.12172    0.01985    0.46878    0.00000    0.06385    0.11988    0.01872    0.15995    54.37844   0.06621    0.05368    0.05368    0.43875    2.65606    1.00000    1.00000    0.05368    0.12227   
4507.25000 0.01299    0.29675    0.02912    0.00000    0.31865    0.03127    0.00000    0.00000    0.07072    0.12730    0.01950    0.43255    0.00000    0.06570    0.12757    0.01872    0.03720    32.16272   0.05020    0.03721    0.03721    0.41194    2.65712    1.00000    1.00000    0.03721    0.12652   
4507.75000 0.01318    0.32865    0.03254    0.00000    0.34915    0.03457    0.00000    0.00000    0.06815    0.13858    0.01930    0.39024    0.00000    0.06399    0.14038    0.01872    0.01070    16.57411   0.04007    0.02689    0.02689    0.37565    2.65738    1.00000    1.00000    0.02689    0.12843   
4508.25000 0.01325    0.34494    0.03534    0.00000    0.36376    0.03727    0.00000    0.00000    0.06546    0.15223    0.01915    0.36212    0.00000    0.06192    0.15534    0.01872    0.00345    7.01599    0.03258    0.01934    0.01934    0.35115    2.65633    1.00000    1.00000    0.01934    0.12923   
4508.75000 0.01345    0.34988    0.03659    0.00000    0.36647    0.03832    0.00000    0.00000    0.06546    0.16604    0.01902    0.34468    0.00000    0.06234    0.17060    0.01872    0.00072    2.24506    0.02534    0.01190    0.01190    0.33653    2.65463    1.00000    1.00000    0.01190    0.13109   
4509.25000 0.01375    0.34786    0.03793    0.00000    0.36285    0.03957    0.00000    0.00000    0.06642    0.17683    0.01895    0.33539    0.00000    0.06351    0.18243    0.01872    0.00013    0.62841    0.02073    0.00698    0.00698    0.32882    2.65305    1.00000    1.00000    0.00698    0.13391   
4509.75000 0.01414    0.34090    0.03892    0.00000    0.35603    0.04065    0.00000    0.00000    0.06876    0.18152    0.01897    0.33408    0.00000    0.06567    0.18703    0.01872    0.00017    0.33952    0.02164    0.00750    0.00750    0.32712    2.65222    1.00000    1.00000    0.00750    0.13745   
4510.25000 0.01433    0.33138    0.03991    0.00000    0.34767    0.04187    0.00000    0.00000    0.06970    0.18471    0.01906    0.33700    0.00000    0.06627    0.18946    0.01872    0.00071    0.30878    0.02580    0.01147    0.01147    0.32848    2.65141    1.00000    1.00000    0.01147    0.13922   
4510.75000 0.01463    0.32038    0.04007    0.00000    0.33652    0.04209    0.00000    0.00000    0.07214    0.18795    0.01908    0.34222    0.00000    0.06851    0.19255    0.01872    0.00086    0.40979    0.02660    0.01197    0.01197    0.33318    2.65048    1.00000    1.00000    0.01197    0.14192   
4511.25000 0.01511    0.31159    0.04169    0.00000    0.32699    0.04375    0.00000    0.00000    0.07448    0.18415    0.01906    0.35157    0.00000    0.07079    0.18883    0.01872    0.00058    0.62825    0.02579    0.01068    0.01068    0.34260    2.65070    1.00000    1.00000    0.01068    0.14630   
4511.75000 0.01582    0.31583    0.04402    0.00000    0.32932    0.04590    0.00000    0.00000    0.07761    0.16467    0.01894    0.36357    0.00000    0.07424    0.16995    0.01872    0.00004    0.76038    0.02067    0.00485    0.00485    0.35657    2.65387    1.00000    1.00000    0.00485    0.15280   
4512.25000 0.01567    0.34275    0.04637    0.00000    0.35483    0.04800    0.00000    0.00000    0.07355    0.13425    0.01880    0.37057    0.00000    0.07087    0.13955    0.01872    0.00000    0.96020    0.01568    0.00010    0.00010    0.36606    2.65948    1.00000    1.00000    0.00001    0.15163   
4512.75000 0.01437    0.39521    0.04653    0.00000    0.40770    0.04800    0.00000    0.00000    0.06246    0.10980    0.01874    0.35331    0.00000    0.06039    0.11453    0.01872    0.00000    0.95162    0.01438    0.00010    0.00010    0.35024    2.66530    1.00000    1.00000    0.00001    0.14001   
