~Version
 VERS              .         3.0                           : CWLS LOG ASCII STANDARD - VERSION 3.0
 WRAP              .         NO                            : ONE LINE PER DEPTH STEP
 DLM               .         SPACE                         : DELIMITING CHARACTER(SPACE TAB OR COMMA)
~Well Information
#_______________________________________________________________________________
#
#PARAMETER_NAME    .UNIT     VALUE                         : DESCRIPTION
#_______________________________________________________________________________
STRT               .ft       4357.25000                    : First reference value
STOP               .ft       6466.75000                    : Last reference value
STEP               .ft       0.50000                       : Step increment
NULL               .         -9999                         : Missing value
COMP               .         Podolsky Oil Company          : Company
WELL               .         T_R_ McMillen #2              : Well name
FLD                .         Mount Auburn                  : Field
LOC                .                                       : Location
SRVC               .                                       : Service Company
CTRY               .         US                            : Country
STAT               .         Illinois                      : State
CNTY               .                                       : County
API                .                                       : API NUMBER
DATE               .         03-Dec-2018                   : Service Date
LATI               .         39.772784 degrees             : Latitude
LONG               .         -89.203412 degrees            : Longitude
GDAT               .                                       : Geodetic Datum
APD                .ft       15                            : Elevation of Depth Reference (LMF) Above Permanent Datum
BHS                .         OPEN                          : Borehole Status (Open or Cased Hole)
BHT                .degF     103                           : Bottom Hole Temperature
BLI                .ft       6475                          : Bottom Log Interval
BS                 .in       6.75                          : Bit Size
CBDR               .ft       4355                          : Casing Bottom of Driller
CBLO               .ft       4353                          : Logger Casing Shoe Depth
CSIZ               .in       7.625                         : Current Casing Size
CWEI               .lbm/ft   11.6                          : Casing Weight
COUNTRY            .         United States                 : Nation
DCS                .         03-Dec-2018                   : Date Circulation Stopped
DFD                .lbm/gal  9.25                          : Drilling Fluid Density
DFT                .         WATER                         : Drilling Fluid Type
DLAB               .         03-Dec-2018                   : Date Logger At Bottom
EDF                .ft       618                           : Elevation of Drill Floor
EGL                .ft       603                           : Elevation of Ground Level
EKB                .ft       618                           : Elevation of Kelly Bushing
EPD                .ft       603                           : Elevation of Permanent Datum (PDAT) above Mean Sea Level
LMF                .         KB                            : Logging Measured From (Name of Logging Elevation Reference)
LUL                .         Bradford                      : Logging Unit Location
LUN                .         3703                          : Logging Unit Number
MCST               .degF     71.2                          : Mudcake Sample Temperature
MFST               .degF     69.1                          : Mud Filtrate Sample Temperature
MRT                .degF     103                           : Maximum Recorded Temperature
MST                .degF     59.2                          : Mud Sample Temperature
PDAT               .         GL                            : Permanent Datum
PRODUCER-CODE      .         440                           : 
PRODUCER-NAME      .         Schlumberger                  : 
RMB                .ohm.m    0.835368                      : Resistivity of Mud at Bottom Hole Temperature
RMCS               .ohm.m    1.55                          : Resistivity of Mud Cake Sample
RMFS               .ohm.m    1.26                          : Resistivity of Mud Filtrate Sample
RMS                .ohm.m    1.39                          : Resistivity of Mud Sample
RUN                .         2A                            : Run Number
TCS                .         08_00_00                      : Time Circulation Stopped
TDD                .ft       6469                          : Driller Total Depth
TDL                .ft       6475                          : Logger Total Depth
TLAB               .         17_50_00                      : Time Logger At Bottom
TLI                .ft       4353                          : Top Log Interval
~Parameter Information Block
#_______________________________________________________________________________
#
#PARAMETER_NAME    .UNIT     VALUE                         : DESCRIPTION
#_______________________________________________________________________________
SET                .         01_Elan                       : 
TLFamily_Bound_Water .         Bound Water Volume Fraction   : 
TLFamily_Calcite   .         Calcite Volume Fraction       : 
TLFamily_Chlorite  .         Chlorite Volume Fraction      : 
TLFamily_Dolomite  .         Dolomite Volume Fraction      : 
TLFamily_Dry_Weight_Calcite .         Calcite Weight Fraction       : 
TLFamily_Dry_Weight_Chlorite .         Chlorite Weight Fraction      : 
TLFamily_Dry_Weight_Dolomite .         Dolomite Weight Fraction      : 
TLFamily_Dry_Weight_Hematite .         Hematite Weight Fraction      : 
TLFamily_Dry_Weight_Illite .         Illite Weight Fraction        : 
TLFamily_Dry_Weight_K-Feldspar .         Orthoclase Weight Fraction    : 
TLFamily_Dry_Weight_Kaolinite .         Kaolinite Weight Fraction     : 
TLFamily_Dry_Weight_Quartz .         Quartz Weight Fraction        : 
TLFamily_Hematite  .         Hematite Volume Fraction      : 
TLFamily_Illite    .         Illite Volume Fraction        : 
TLFamily_K-Feldspar .         Orthoclase Volume Fraction    : 
TLFamily_KINT_GEO  .         Permeability                  : 
TLFamily_KSDR_py   .         NMR Permeability              : 
TLFamily_Kaolinite .         Kaolinite Volume Fraction     : 
TLFamily_MD        .         Measured Depth                : 
TLFamily_PHIT      .         Total Porosity                : 
TLFamily_PIGE      .         Effective Porosity            : 
TLFamily_PIGN      .         Effective Porosity            : 
TLFamily_Quartz    .         Quartz Volume Fraction        : 
TLFamily_RHGA_GEO  .         Grain Density                 : 
TLFamily_SW        .         Water Saturation              : 
TLFamily_SWE       .         Water Saturation              : 
TLFamily_UWater    .         Undisturbed Zone Water Volume Fraction: 
TLFamily_VCL_GEO   .         Clay Volume Fraction          : 
~Curve Information
#_______________________________________________________________________________
#
#LOGNAME           .UNIT     LOG_ID                        : DESCRIPTION
#_______________________________________________________________________________
MD                 .ft                                     :  {F}
Bound_Water        .ft3/ft3                                : Bound Water Volume Fraction {F}
Calcite            .ft3/ft3                                : Calcite Volume Fraction {F}
Chlorite           .ft3/ft3                                : Chlorite Volume Fraction {F}
Dolomite           .ft3/ft3                                : Dolomite Volume Fraction {F}
Dry_Weight_Calcite .lbm/lbm                                : Dry Weight Fraction From Quanti.Elan {F}
Dry_Weight_Chlorite .lbm/lbm                                : Dry Weight Fraction From Quanti.Elan {F}
Dry_Weight_Dolomite .lbm/lbm                                : Dry Weight Fraction From Quanti.Elan {F}
Dry_Weight_Hematite .lbm/lbm                                : Dry Weight Fraction From Quanti.Elan {F}
Dry_Weight_Illite  .lbm/lbm                                : Dry Weight Fraction From Quanti.Elan {F}
Dry_Weight_K-Feldspar .lbm/lbm                                : Dry Weight Fraction From Quanti.Elan {F}
Dry_Weight_Kaolinite .lbm/lbm                                : Dry Weight Fraction From Quanti.Elan {F}
Dry_Weight_Quartz  .lbm/lbm                                : Dry Weight Fraction From Quanti.Elan {F}
Hematite           .ft3/ft3                                : Hematite Volume Fraction {F}
Illite             .ft3/ft3                                : Illite Volume Fraction {F}
K-Feldspar         .ft3/ft3                                : Orthoclase Volume Fraction {F}
Kaolinite          .ft3/ft3                                : Kaolinite Volume Fraction {F}
KINT_GEO           .mD                                     : Permeability (Juhasz 1979) {F}
KSDR_py            .mD                                     :  {F}
PHIT               .ft3/ft3                                : Total Porosity {F}
PIGE               .ft3/ft3                                : Effective Porosity {F}
PIGN               .ft3/ft3                                : Effective porosity (with irreducible water) {F}
Quartz             .ft3/ft3                                : Quartz Volume Fraction {F}
RHGA_GEO           .g/cm3                                  : Apparent grain density {F}
SW                 .ft3/ft3                                : Undisturbed Zone Water Saturation {F}
SWE                .ft3/ft3                                : Undisturbed Zone Effective Water Saturation {F}
UWater             .ft3/ft3                                : Undisturbed Zone Water Volume Fraction {F}
VCL_GEO            .ft3/ft3                                : Clay fraction {F}
~Ascii
# ...
5605.25000 0.00807    0.00647    0.01974    0.00000    0.00740    0.02257    0.00000    0.00000    0.05293    0.00000    0.00000    0.91710    0.00000    0.04617    0.00000    0.00000    7.32280    0.76700    0.10747    0.09940    0.09940    0.82015    2.65522    1.00000    1.00000    0.09940    0.07397   
5605.75000 0.00884    0.00839    0.02135    0.00000    0.00972    0.02472    0.00000    0.00000    0.05904    0.00000    0.00000    0.90652    0.00000    0.05085    0.00000    0.00000    9.46938    0.95075    0.11894    0.11010    0.11010    0.80047    2.65588    1.00000    1.00000    0.11010    0.08104   
5606.25000 0.00859    0.00380    0.01833    0.00000    0.00444    0.02145    0.00000    0.00000    0.06059    0.00000    0.00000    0.91351    0.00000    0.05163    0.00000    0.00000    13.70644   1.15996    0.12827    0.11968    0.11968    0.79798    2.65548    1.00000    1.00000    0.11968    0.07854   
5606.75000 0.00777    0.00000    0.01202    0.00000    0.00000    0.01406    0.00000    0.00000    0.05123    0.00000    0.01528    0.91943    0.00000    0.04368    0.00000    0.01346    14.59912   1.29732    0.12712    0.11935    0.11935    0.80372    2.65386    1.00000    1.00000    0.11935    0.07693   
5607.25000 0.00574    0.00013    0.00605    0.00000    0.00015    0.00704    0.00000    0.00000    0.03513    0.00000    0.02114    0.93654    0.00000    0.03012    0.00000    0.01873    16.87428   2.08753    0.12172    0.11598    0.11598    0.82326    2.65229    1.00000    1.00000    0.11598    0.06064   
5607.75000 0.00334    0.00116    0.00235    0.00000    0.00134    0.00272    0.00000    0.00000    0.01664    0.00396    0.02103    0.95431    0.00000    0.01434    0.00368    0.01873    21.39347   4.10449    0.11625    0.11291    0.11291    0.84349    2.65035    1.00000    1.00000    0.11291    0.03876   
5608.25000 0.00197    0.00148    0.00096    0.00000    0.00171    0.00111    0.00000    0.00000    0.00787    0.00586    0.01658    0.96687    0.00000    0.00680    0.00546    0.01479    25.97561   8.40742    0.11442    0.11245    0.11245    0.85609    2.64953    1.00000    1.00000    0.11245    0.02452   
5608.75000 0.00165    0.00173    0.00119    0.00000    0.00201    0.00137    0.00000    0.00000    0.00956    0.00461    0.00801    0.97445    0.00000    0.00824    0.00429    0.00713    29.71636   14.09345   0.11607    0.11442    0.11442    0.86135    2.65002    1.00000    1.00000    0.11442    0.01821   
5609.25000 0.00240    0.00123    0.00294    0.00000    0.00142    0.00340    0.00000    0.00000    0.01910    0.00182    0.00006    0.97420    0.00000    0.01646    0.00169    0.00005    27.54054   10.03321   0.11693    0.11453    0.11453    0.86070    2.65127    1.00000    1.00000    0.11453    0.02185   
5609.75000 0.00474    0.00000    0.00645    0.00000    0.00000    0.00741    0.00000    0.00000    0.03282    0.00000    0.00710    0.95267    0.00000    0.02849    0.00000    0.00637    14.53121   6.42508    0.11061    0.10586    0.10586    0.84808    2.65243    1.00000    1.00000    0.10586    0.04606   
5610.25000 0.00721    0.00000    0.01362    0.00000    0.00000    0.01553    0.00000    0.00000    0.04812    0.00000    0.00591    0.93044    0.00000    0.04208    0.00000    0.00534    7.78726    4.54586    0.10475    0.09754    0.09754    0.83422    2.65393    1.00000    1.00000    0.09754    0.06824   
5610.75000 0.01035    0.00000    0.02702    0.00000    0.00000    0.03064    0.00000    0.00000    0.06394    0.00000    0.00288    0.90254    0.00000    0.05623    0.00000    0.00262    3.89617    4.11832    0.10032    0.08997    0.08997    0.81381    2.65592    1.00000    1.00000    0.08997    0.09622   
5611.25000 0.01441    0.00000    0.04249    0.00000    0.00000    0.04811    0.00000    0.00000    0.07437    0.00000    0.02058    0.85694    0.00000    0.06552    0.00000    0.01873    1.73854    1.96487    0.09932    0.08491    0.08491    0.77395    2.65727    1.00000    1.00000    0.08491    0.14114   
5611.75000 0.01622    0.00391    0.04784    0.00000    0.00444    0.05433    0.00000    0.00000    0.08537    0.00000    0.02064    0.83522    0.00000    0.07499    0.00000    0.01873    1.40568    0.92824    0.10237    0.08615    0.08615    0.75216    2.65862    1.00000    1.00000    0.08615    0.15778   
5612.25000 0.01516    0.00460    0.03733    0.00000    0.00524    0.04251    0.00000    0.00000    0.08714    0.00000    0.02070    0.84442    0.00000    0.07633    0.00000    0.01873    1.83612    0.65453    0.10471    0.08955    0.08955    0.75830    2.65809    1.00000    1.00000    0.08955    0.14754   
5612.75000 0.01164    0.00435    0.02228    0.00000    0.00497    0.02546    0.00000    0.00000    0.07130    0.00000    0.02077    0.87749    0.00000    0.06223    0.00000    0.01873    3.68743    0.89568    0.10727    0.09563    0.09563    0.78515    2.65603    1.00000    1.00000    0.09563    0.11488   
5613.25000 0.00734    0.00239    0.01381    0.00000    0.00275    0.01592    0.00000    0.00000    0.05134    0.00000    0.00295    0.92704    0.00000    0.04444    0.00000    0.00264    10.58670   2.31340    0.11401    0.10667    0.10667    0.82271    2.65439    1.00000    1.00000    0.10667    0.06823   
5613.75000 0.00575    0.00019    0.01153    0.00000    0.00022    0.01332    0.00000    0.00000    0.04082    0.00000    0.00000    0.94564    0.00000    0.03525    0.00000    0.00000    15.13127   3.62147    0.11584    0.11009    0.11009    0.83719    2.65346    1.00000    1.00000    0.11009    0.05253   
5614.25000 0.00567    0.00018    0.01240    0.00000    0.00021    0.01430    0.00000    0.00000    0.03907    0.00000    0.00000    0.94641    0.00000    0.03379    0.00000    0.00000    14.75023   3.12228    0.11467    0.10900    0.10900    0.83896    2.65340    1.00000    1.00000    0.10900    0.05185   
5614.75000 0.00607    0.00000    0.01363    0.00000    0.00000    0.01559    0.00000    0.00000    0.04114    0.00000    0.00000    0.94327    0.00000    0.03588    0.00000    0.00000    10.55346   1.57867    0.10709    0.10102    0.10102    0.84339    2.65360    1.00000    1.00000    0.10102    0.05558   
5615.25000 0.00647    0.00000    0.01484    0.00000    0.00000    0.01686    0.00000    0.00000    0.04319    0.00000    0.00000    0.93995    0.00000    0.03794    0.00000    0.00000    7.77046    0.75914    0.10077    0.09430    0.09430    0.84644    2.65381    1.00000    1.00000    0.09430    0.05925   
5615.75000 0.00656    0.00309    0.01548    0.00000    0.00352    0.01763    0.00000    0.00000    0.04349    0.00000    0.00000    0.93537    0.00000    0.03809    0.00000    0.00000    8.27971    0.81460    0.10335    0.09679    0.09679    0.83999    2.65408    1.00000    1.00000    0.09679    0.06013   
5616.25000 0.00637    0.00854    0.01543    0.00000    0.00977    0.01765    0.00000    0.00000    0.04197    0.00000    0.00000    0.93061    0.00000    0.03659    0.00000    0.00000    9.69878    0.91586    0.10767    0.10131    0.10131    0.83177    2.65435    1.00000    1.00000    0.10131    0.05839   
5616.75000 0.00591    0.01405    0.01459    0.00000    0.01608    0.01670    0.00000    0.00000    0.03865    0.00000    0.00000    0.92858    0.00000    0.03369    0.00000    0.00000    10.12932   0.97690    0.10773    0.10182    0.10182    0.82993    2.65445    1.00000    1.00000    0.10182    0.05420   
5617.25000 0.00572    0.01710    0.01335    0.00000    0.01937    0.01513    0.00000    0.00000    0.03787    0.00000    0.00000    0.92764    0.00000    0.03335    0.00000    0.00000    7.28432    1.02454    0.09871    0.09299    0.09299    0.83749    2.65450    1.00000    1.00000    0.09299    0.05242   
5617.75000 0.00607    0.01534    0.01345    0.00000    0.01722    0.01510    0.00000    0.00000    0.04057    0.00000    0.00000    0.92711    0.00000    0.03604    0.00000    0.00000    5.00281    1.17398    0.09078    0.08471    0.08471    0.84440    2.65455    1.00000    1.00000    0.08471    0.05555   
