~Version
 VERS              .         3.0                           : CWLS LOG ASCII STANDARD - VERSION 3.0
 WRAP              .         NO                            : ONE LINE PER DEPTH STEP
 DLM               .         SPACE                         : DELIMITING CHARACTER(SPACE TAB OR COMMA)
~Well Information
#_______________________________________________________________________________
#
#PARAMETER_NAME    .UNIT     VALUE                         : DESCRIPTION
#_______________________________________________________________________________
STRT               .ft       4357.25000                    : First reference value
STOP               .ft       6466.75000                    : Last reference value
STEP               .ft       0.50000                       : Step increment
NULL               .         -9999                         : Missing value
COMP               .         Podolsky Oil Company          : Company
WELL               .         T_R_ McMillen #2              : Well name
FLD                .         Mount Auburn                  : Field
LOC                .                                       : Location
SRVC               .                                       : Service Company
CTRY               .         US                            : Country
STAT               .         Illinois                      : State
CNTY               .                                       : County
API                .                                       : API NUMBER
DATE               .         03-Dec-2018                   : Service Date
LATI               .         39.772784 degrees             : Latitude
LONG               .         -89.203412 degrees            : Longitude
GDAT               .                                       : Geodetic Datum
APD                .ft       15                            : Elevation of Depth Reference (LMF) Above Permanent Datum
BHS                .         OPEN                          : Borehole Status (Open or Cased Hole)
BHT                .degF     103                           : Bottom Hole Temperature
BLI                .ft       6475                          : Bottom Log Interval
BS                 .in       6.75                          : Bit Size
CBDR               .ft       4355                          : Casing Bottom of Driller
CBLO               .ft       4353                          : Logger Casing Shoe Depth
CSIZ               .in       7.625                         : Current Casing Size
CWEI               .lbm/ft   11.6                          : Casing Weight
COUNTRY            .         United States                 : Nation
DCS                .         03-Dec-2018                   : Date Circulation Stopped
DFD                .lbm/gal  9.25                          : Drilling Fluid Density
DFT                .         WATER                         : Drilling Fluid Type
DLAB               .         03-Dec-2018                   : Date Logger At Bottom
EDF                .ft       618                           : Elevation of Drill Floor
EGL                .ft       603                           : Elevation of Ground Level
EKB                .ft       618                           : Elevation of Kelly Bushing
EPD                .ft       603                           : Elevation of Permanent Datum (PDAT) above Mean Sea Level
LMF                .         KB                            : Logging Measured From (Name of Logging Elevation Reference)
LUL                .         Bradford                      : Logging Unit Location
LUN                .         3703                          : Logging Unit Number
MCST               .degF     71.2                          : Mudcake Sample Temperature
MFST               .degF     69.1                          : Mud Filtrate Sample Temperature
MRT                .degF     103                           : Maximum Recorded Temperature
MST                .degF     59.2                          : Mud Sample Temperature
PDAT               .         GL                            : Permanent Datum
PRODUCER-CODE      .         440                           : 
PRODUCER-NAME      .         Schlumberger                  : 
RMB                .ohm.m    0.835368                      : Resistivity of Mud at Bottom Hole Temperature
RMCS               .ohm.m    1.55                          : Resistivity of Mud Cake Sample
RMFS               .ohm.m    1.26                          : Resistivity of Mud Filtrate Sample
RMS                .ohm.m    1.39                          : Resistivity of Mud Sample
RUN                .         2A                            : Run Number
TCS                .         08_00_00                      : Time Circulation Stopped
TDD                .ft       6469                          : Driller Total Depth
TDL                .ft       6475                          : Logger Total Depth
TLAB               .         17_50_00                      : Time Logger At Bottom
TLI                .ft       4353                          : Top Log Interval
~Parameter Information Block
#_______________________________________________________________________________
#
#PARAMETER_NAME    .UNIT     VALUE                         : DESCRIPTION
#_______________________________________________________________________________
SET                .         01_Elan                       : 
TLFamily_Bound_Water .         Bound Water Volume Fraction   : 
TLFamily_Calcite   .         Calcite Volume Fraction       : 
TLFamily_Chlorite  .         Chlorite Volume Fraction      : 
TLFamily_Dolomite  .         Dolomite Volume Fraction      : 
TLFamily_Dry_Weight_Calcite .         Calcite Weight Fraction       : 
TLFamily_Dry_Weight_Chlorite .         Chlorite Weight Fraction      : 
TLFamily_Dry_Weight_Dolomite .         Dolomite Weight Fraction      : 
TLFamily_Dry_Weight_Hematite .         Hematite Weight Fraction      : 
TLFamily_Dry_Weight_Illite .         Illite Weight Fraction        : 
TLFamily_Dry_Weight_K-Feldspar .         Orthoclase Weight Fraction    : 
TLFamily_Dry_Weight_Kaolinite .         Kaolinite Weight Fraction     : 
TLFamily_Dry_Weight_Quartz .         Quartz Weight Fraction        : 
TLFamily_Hematite  .         Hematite Volume Fraction      : 
TLFamily_Illite    .         Illite Volume Fraction        : 
TLFamily_K-Feldspar .         Orthoclase Volume Fraction    : 
TLFamily_KINT_GEO  .         Permeability                  : 
TLFamily_KSDR_py   .         NMR Permeability              : 
TLFamily_Kaolinite .         Kaolinite Volume Fraction     : 
TLFamily_MD        .         Measured Depth                : 
TLFamily_PHIT      .         Total Porosity                : 
TLFamily_PIGE      .         Effective Porosity            : 
TLFamily_PIGN      .         Effective Porosity            : 
TLFamily_Quartz    .         Quartz Volume Fraction        : 
TLFamily_RHGA_GEO  .         Grain Density                 : 
TLFamily_SW        .         Water Saturation              : 
TLFamily_SWE       .         Water Saturation              : 
TLFamily_UWater    .         Undisturbed Zone Water Volume Fraction: 
TLFamily_VCL_GEO   .         Clay Volume Fraction          : 
~Curve Information
#_______________________________________________________________________________
#
#LOGNAME           .UNIT     LOG_ID                        : DESCRIPTION
#_______________________________________________________________________________
MD                 .ft                                     :  {F}
Bound_Water        .ft3/ft3                                : Bound Water Volume Fraction {F}
Calcite            .ft3/ft3                                : Calcite Volume Fraction {F}
Chlorite           .ft3/ft3                                : Chlorite Volume Fraction {F}
Dolomite           .ft3/ft3                                : Dolomite Volume Fraction {F}
Dry_Weight_Calcite .lbm/lbm                                : Dry Weight Fraction From Quanti.Elan {F}
Dry_Weight_Chlorite .lbm/lbm                                : Dry Weight Fraction From Quanti.Elan {F}
Dry_Weight_Dolomite .lbm/lbm                                : Dry Weight Fraction From Quanti.Elan {F}
Dry_Weight_Hematite .lbm/lbm                                : Dry Weight Fraction From Quanti.Elan {F}
Dry_Weight_Illite  .lbm/lbm                                : Dry Weight Fraction From Quanti.Elan {F}
Dry_Weight_K-Feldspar .lbm/lbm                                : Dry Weight Fraction From Quanti.Elan {F}
Dry_Weight_Kaolinite .lbm/lbm                                : Dry Weight Fraction From Quanti.Elan {F}
Dry_Weight_Quartz  .lbm/lbm                                : Dry Weight Fraction From Quanti.Elan {F}
Hematite           .ft3/ft3                                : Hematite Volume Fraction {F}
Illite             .ft3/ft3                                : Illite Volume Fraction {F}
K-Feldspar         .ft3/ft3                                : Orthoclase Volume Fraction {F}
Kaolinite          .ft3/ft3                                : Kaolinite Volume Fraction {F}
KINT_GEO           .mD                                     : Permeability (Juhasz 1979) {F}
KSDR_py            .mD                                     :  {F}
PHIT               .ft3/ft3                                : Total Porosity {F}
PIGE               .ft3/ft3                                : Effective Porosity {F}
PIGN               .ft3/ft3                                : Effective porosity (with irreducible water) {F}
Quartz             .ft3/ft3                                : Quartz Volume Fraction {F}
RHGA_GEO           .g/cm3                                  : Apparent grain density {F}
SW                 .ft3/ft3                                : Undisturbed Zone Water Saturation {F}
SWE                .ft3/ft3                                : Undisturbed Zone Effective Water Saturation {F}
UWater             .ft3/ft3                                : Undisturbed Zone Water Volume Fraction {F}
VCL_GEO            .ft3/ft3                                : Clay fraction {F}
~Ascii
# ...
6437.25000 0.00535    0.02314    0.04613    0.02637    0.02283    0.04552    0.02756    0.11177    0.00000    0.35136    0.00000    0.44095    0.05890    0.00000    0.38315    0.00000    0.00000    13317.95117 0.00536    0.00010    0.00010    0.45695    2.76094    1.00000    1.00000    0.00001    0.05148   
6437.75000 0.00508    0.03792    0.04379    0.02218    0.03745    0.04324    0.02320    0.11033    0.00000    0.35184    0.00001    0.43395    0.05811    0.00000    0.38346    0.00001    0.00000    583621.00000 0.00509    0.00010    0.00010    0.44945    2.75865    1.00000    1.00000    0.00001    0.04887   
6438.25000 0.00687    0.04963    0.02022    0.01532    0.04902    0.01997    0.01602    0.11232    0.03608    0.34292    0.00007    0.42361    0.05914    0.03644    0.37365    0.00007    0.00000    2053819.50000 0.00688    0.00010    0.00010    0.43864    2.76303    1.00000    1.00000    0.00001    0.06360   
6438.75000 0.00841    0.03880    0.00000    0.03556    0.03827    0.00000    0.03715    0.11331    0.06699    0.33448    0.00007    0.40973    0.05974    0.06774    0.36490    0.00007    0.00000    1059881.50000 0.00842    0.00010    0.00010    0.42477    2.77063    1.00000    1.00000    0.00001    0.07622   
6439.25000 0.00807    0.01280    0.00000    0.07563    0.01261    0.00000    0.07886    0.11088    0.06425    0.33394    0.00002    0.39943    0.05856    0.06508    0.36497    0.00002    0.00000    34504.18750 0.00808    0.00010    0.00010    0.41485    2.77468    1.00000    1.00000    0.00001    0.07318   
6439.75000 0.00836    0.02427    0.00000    0.05744    0.02393    0.00000    0.05998    0.11067    0.06660    0.33254    0.00005    0.40623    0.05836    0.06736    0.36288    0.00005    0.00000    242.12865  0.00837    0.00010    0.00010    0.42126    2.77128    1.00000    1.00000    0.00001    0.07577   
6440.25000 0.00834    0.05486    0.00000    0.01105    0.05425    0.00000    0.01157    0.11149    0.06602    0.33272    0.00117    0.42278    0.05864    0.06659    0.36208    0.00122    0.00000    31.65690   0.00835    0.00010    0.00010    0.43722    2.76357    1.00000    1.00000    0.00001    0.07615   
6440.75000 0.00758    0.05920    0.00000    0.00000    0.05858    0.00000    0.00000    0.11074    0.06066    0.33436    0.00000    0.43566    0.05820    0.06114    0.36362    0.00000    0.00000    439.91684  0.00759    0.00010    0.00010    0.45024    2.75963    1.00000    1.00000    0.00001    0.06873   
6441.25000 0.00691    0.04568    0.00000    0.00000    0.04520    0.00000    0.00000    0.11078    0.05523    0.33644    0.00000    0.45235    0.05823    0.05568    0.36593    0.00000    0.00000    70497.51563 0.00692    0.00010    0.00010    0.46756    2.75814    1.00000    1.00000    0.00001    0.06259   
6441.75000 0.00713    0.03383    0.00000    0.00000    0.03348    0.00000    0.00000    0.11093    0.05705    0.33645    0.00000    0.46209    0.05829    0.05750    0.36581    0.00000    0.00000    1288234.50000 0.00714    0.00010    0.00010    0.47744    2.75774    1.00000    1.00000    0.00001    0.06463   
6442.25000 0.00763    0.03644    0.00000    0.00000    0.03609    0.00000    0.00000    0.11045    0.06112    0.33544    0.00000    0.45691    0.05800    0.06156    0.36451    0.00000    0.00000    4167276.75000 0.00764    0.00010    0.00010    0.47184    2.75766    1.00000    1.00000    0.00001    0.06920   
6442.75000 0.00769    0.05021    0.00000    0.00000    0.04971    0.00000    0.00000    0.11041    0.06157    0.33506    0.00000    0.44326    0.05800    0.06203    0.36420    0.00000    0.00000    2519119.25000 0.00770    0.00010    0.00010    0.45786    2.75856    1.00000    1.00000    0.00001    0.06972   
6443.25000 0.00662    0.05813    0.01001    0.00000    0.05750    0.00990    0.00000    0.11068    0.04365    0.34009    0.00000    0.43818    0.05819    0.04402    0.37000    0.00000    0.00000    359290.87500 0.00663    0.00010    0.00010    0.45302    2.75805    1.00000    1.00000    0.00001    0.06064   
6443.75000 -9999.00000 -9999.00000 -9999.00000 -9999.00000 -9999.00000 -9999.00000 -9999.00000 -9999.00000 -9999.00000 -9999.00000 -9999.00000 -9999.00000 -9999.00000 -9999.00000 -9999.00000 -9999.00000 -9999.00000 26187.94531 -9999.00000 -9999.00000 -9999.00000 -9999.00000 -9999.00000 -9999.00000 -9999.00000 -9999.00000 -9999.00000
6444.25000 -9999.00000 -9999.00000 -9999.00000 -9999.00000 -9999.00000 -9999.00000 -9999.00000 -9999.00000 -9999.00000 -9999.00000 -9999.00000 -9999.00000 -9999.00000 -9999.00000 -9999.00000 -9999.00000 -9999.00000 943.54645  -9999.00000 -9999.00000 -9999.00000 -9999.00000 -9999.00000 -9999.00000 -9999.00000 -9999.00000 -9999.00000
6444.75000 -9999.00000 -9999.00000 -9999.00000 -9999.00000 -9999.00000 -9999.00000 -9999.00000 -9999.00000 -9999.00000 -9999.00000 -9999.00000 -9999.00000 -9999.00000 -9999.00000 -9999.00000 -9999.00000 -9999.00000 5382.31934 -9999.00000 -9999.00000 -9999.00000 -9999.00000 -9999.00000 -9999.00000 -9999.00000 -9999.00000 -9999.00000
6445.25000 -9999.00000 -9999.00000 -9999.00000 -9999.00000 -9999.00000 -9999.00000 -9999.00000 -9999.00000 -9999.00000 -9999.00000 -9999.00000 -9999.00000 -9999.00000 -9999.00000 -9999.00000 -9999.00000 -9999.00000 70443.71094 -9999.00000 -9999.00000 -9999.00000 -9999.00000 -9999.00000 -9999.00000 -9999.00000 -9999.00000 -9999.00000
6445.75000 -9999.00000 -9999.00000 -9999.00000 -9999.00000 -9999.00000 -9999.00000 -9999.00000 -9999.00000 -9999.00000 -9999.00000 -9999.00000 -9999.00000 -9999.00000 -9999.00000 -9999.00000 -9999.00000 -9999.00000 194085.75000 -9999.00000 -9999.00000 -9999.00000 -9999.00000 -9999.00000 -9999.00000 -9999.00000 -9999.00000 -9999.00000
6446.25000 -9999.00000 -9999.00000 -9999.00000 -9999.00000 -9999.00000 -9999.00000 -9999.00000 -9999.00000 -9999.00000 -9999.00000 -9999.00000 -9999.00000 -9999.00000 -9999.00000 -9999.00000 -9999.00000 -9999.00000 90441.20313 -9999.00000 -9999.00000 -9999.00000 -9999.00000 -9999.00000 -9999.00000 -9999.00000 -9999.00000 -9999.00000
6446.75000 -9999.00000 -9999.00000 -9999.00000 -9999.00000 -9999.00000 -9999.00000 -9999.00000 -9999.00000 -9999.00000 -9999.00000 -9999.00000 -9999.00000 -9999.00000 -9999.00000 -9999.00000 -9999.00000 -9999.00000 21404.71289 -9999.00000 -9999.00000 -9999.00000 -9999.00000 -9999.00000 -9999.00000 -9999.00000 -9999.00000 -9999.00000
6447.25000 -9999.00000 -9999.00000 -9999.00000 -9999.00000 -9999.00000 -9999.00000 -9999.00000 -9999.00000 -9999.00000 -9999.00000 -9999.00000 -9999.00000 -9999.00000 -9999.00000 -9999.00000 -9999.00000 -9999.00000 16336.51172 -9999.00000 -9999.00000 -9999.00000 -9999.00000 -9999.00000 -9999.00000 -9999.00000 -9999.00000 -9999.00000
6447.75000 -9999.00000 -9999.00000 -9999.00000 -9999.00000 -9999.00000 -9999.00000 -9999.00000 -9999.00000 -9999.00000 -9999.00000 -9999.00000 -9999.00000 -9999.00000 -9999.00000 -9999.00000 -9999.00000 -9999.00000 15670.43945 -9999.00000 -9999.00000 -9999.00000 -9999.00000 -9999.00000 -9999.00000 -9999.00000 -9999.00000 -9999.00000
6448.25000 -9999.00000 -9999.00000 -9999.00000 -9999.00000 -9999.00000 -9999.00000 -9999.00000 -9999.00000 -9999.00000 -9999.00000 -9999.00000 -9999.00000 -9999.00000 -9999.00000 -9999.00000 -9999.00000 -9999.00000 27539.03906 -9999.00000 -9999.00000 -9999.00000 -9999.00000 -9999.00000 -9999.00000 -9999.00000 -9999.00000 -9999.00000
6448.75000 -9999.00000 -9999.00000 -9999.00000 -9999.00000 -9999.00000 -9999.00000 -9999.00000 -9999.00000 -9999.00000 -9999.00000 -9999.00000 -9999.00000 -9999.00000 -9999.00000 -9999.00000 -9999.00000 -9999.00000 93823.35938 -9999.00000 -9999.00000 -9999.00000 -9999.00000 -9999.00000 -9999.00000 -9999.00000 -9999.00000 -9999.00000
6449.25000 -9999.00000 -9999.00000 -9999.00000 -9999.00000 -9999.00000 -9999.00000 -9999.00000 -9999.00000 -9999.00000 -9999.00000 -9999.00000 -9999.00000 -9999.00000 -9999.00000 -9999.00000 -9999.00000 -9999.00000 184882.54688 -9999.00000 -9999.00000 -9999.00000 -9999.00000 -9999.00000 -9999.00000 -9999.00000 -9999.00000 -9999.00000
