~Version
 VERS              .         3.0                           : CWLS LOG ASCII STANDARD - VERSION 3.0
 WRAP              .         NO                            : ONE LINE PER DEPTH STEP
 DLM               .         SPACE                         : DELIMITING CHARACTER(SPACE TAB OR COMMA)
~Well Information
#_______________________________________________________________________________
#
#PARAMETER_NAME    .UNIT     VALUE                         : DESCRIPTION
#_______________________________________________________________________________
STRT               .ft       4357.25000                    : First reference value
STOP               .ft       6466.75000                    : Last reference value
STEP               .ft       0.50000                       : Step increment
NULL               .         -9999                         : Missing value
COMP               .         Podolsky Oil Company          : Company
WELL               .         T_R_ McMillen #2              : Well name
FLD                .         Mount Auburn                  : Field
LOC                .                                       : Location
SRVC               .                                       : Service Company
CTRY               .         US                            : Country
STAT               .         Illinois                      : State
CNTY               .                                       : County
API                .                                       : API NUMBER
DATE               .         03-Dec-2018                   : Service Date
LATI               .         39.772784 degrees             : Latitude
LONG               .         -89.203412 degrees            : Longitude
GDAT               .                                       : Geodetic Datum
APD                .ft       15                            : Elevation of Depth Reference (LMF) Above Permanent Datum
BHS                .         OPEN                          : Borehole Status (Open or Cased Hole)
BHT                .degF     103                           : Bottom Hole Temperature
BLI                .ft       6475                          : Bottom Log Interval
BS                 .in       6.75                          : Bit Size
CBDR               .ft       4355                          : Casing Bottom of Driller
CBLO               .ft       4353                          : Logger Casing Shoe Depth
CSIZ               .in       7.625                         : Current Casing Size
CWEI               .lbm/ft   11.6                          : Casing Weight
COUNTRY            .         United States                 : Nation
DCS                .         03-Dec-2018                   : Date Circulation Stopped
DFD                .lbm/gal  9.25                          : Drilling Fluid Density
DFT                .         WATER                         : Drilling Fluid Type
DLAB               .         03-Dec-2018                   : Date Logger At Bottom
EDF                .ft       618                           : Elevation of Drill Floor
EGL                .ft       603                           : Elevation of Ground Level
EKB                .ft       618                           : Elevation of Kelly Bushing
EPD                .ft       603                           : Elevation of Permanent Datum (PDAT) above Mean Sea Level
LMF                .         KB                            : Logging Measured From (Name of Logging Elevation Reference)
LUL                .         Bradford                      : Logging Unit Location
LUN                .         3703                          : Logging Unit Number
MCST               .degF     71.2                          : Mudcake Sample Temperature
MFST               .degF     69.1                          : Mud Filtrate Sample Temperature
MRT                .degF     103                           : Maximum Recorded Temperature
MST                .degF     59.2                          : Mud Sample Temperature
PDAT               .         GL                            : Permanent Datum
PRODUCER-CODE      .         440                           : 
PRODUCER-NAME      .         Schlumberger                  : 
RMB                .ohm.m    0.835368                      : Resistivity of Mud at Bottom Hole Temperature
RMCS               .ohm.m    1.55                          : Resistivity of Mud Cake Sample
RMFS               .ohm.m    1.26                          : Resistivity of Mud Filtrate Sample
RMS                .ohm.m    1.39                          : Resistivity of Mud Sample
RUN                .         2A                            : Run Number
TCS                .         08_00_00                      : Time Circulation Stopped
TDD                .ft       6469                          : Driller Total Depth
TDL                .ft       6475                          : Logger Total Depth
TLAB               .         17_50_00                      : Time Logger At Bottom
TLI                .ft       4353                          : Top Log Interval
~Parameter Information Block
#_______________________________________________________________________________
#
#PARAMETER_NAME    .UNIT     VALUE                         : DESCRIPTION
#_______________________________________________________________________________
SET                .         01_Elan                       : 
TLFamily_Bound_Water .         Bound Water Volume Fraction   : 
TLFamily_Calcite   .         Calcite Volume Fraction       : 
TLFamily_Chlorite  .         Chlorite Volume Fraction      : 
TLFamily_Dolomite  .         Dolomite Volume Fraction      : 
TLFamily_Dry_Weight_Calcite .         Calcite Weight Fraction       : 
TLFamily_Dry_Weight_Chlorite .         Chlorite Weight Fraction      : 
TLFamily_Dry_Weight_Dolomite .         Dolomite Weight Fraction      : 
TLFamily_Dry_Weight_Hematite .         Hematite Weight Fraction      : 
TLFamily_Dry_Weight_Illite .         Illite Weight Fraction        : 
TLFamily_Dry_Weight_K-Feldspar .         Orthoclase Weight Fraction    : 
TLFamily_Dry_Weight_Kaolinite .         Kaolinite Weight Fraction     : 
TLFamily_Dry_Weight_Quartz .         Quartz Weight Fraction        : 
TLFamily_Hematite  .         Hematite Volume Fraction      : 
TLFamily_Illite    .         Illite Volume Fraction        : 
TLFamily_K-Feldspar .         Orthoclase Volume Fraction    : 
TLFamily_KINT_GEO  .         Permeability                  : 
TLFamily_KSDR_py   .         NMR Permeability              : 
TLFamily_Kaolinite .         Kaolinite Volume Fraction     : 
TLFamily_MD        .         Measured Depth                : 
TLFamily_PHIT      .         Total Porosity                : 
TLFamily_PIGE      .         Effective Porosity            : 
TLFamily_PIGN      .         Effective Porosity            : 
TLFamily_Quartz    .         Quartz Volume Fraction        : 
TLFamily_RHGA_GEO  .         Grain Density                 : 
TLFamily_SW        .         Water Saturation              : 
TLFamily_SWE       .         Water Saturation              : 
TLFamily_UWater    .         Undisturbed Zone Water Volume Fraction: 
TLFamily_VCL_GEO   .         Clay Volume Fraction          : 
~Curve Information
#_______________________________________________________________________________
#
#LOGNAME           .UNIT     LOG_ID                        : DESCRIPTION
#_______________________________________________________________________________
MD                 .ft                                     :  {F}
Bound_Water        .ft3/ft3                                : Bound Water Volume Fraction {F}
Calcite            .ft3/ft3                                : Calcite Volume Fraction {F}
Chlorite           .ft3/ft3                                : Chlorite Volume Fraction {F}
Dolomite           .ft3/ft3                                : Dolomite Volume Fraction {F}
Dry_Weight_Calcite .lbm/lbm                                : Dry Weight Fraction From Quanti.Elan {F}
Dry_Weight_Chlorite .lbm/lbm                                : Dry Weight Fraction From Quanti.Elan {F}
Dry_Weight_Dolomite .lbm/lbm                                : Dry Weight Fraction From Quanti.Elan {F}
Dry_Weight_Hematite .lbm/lbm                                : Dry Weight Fraction From Quanti.Elan {F}
Dry_Weight_Illite  .lbm/lbm                                : Dry Weight Fraction From Quanti.Elan {F}
Dry_Weight_K-Feldspar .lbm/lbm                                : Dry Weight Fraction From Quanti.Elan {F}
Dry_Weight_Kaolinite .lbm/lbm                                : Dry Weight Fraction From Quanti.Elan {F}
Dry_Weight_Quartz  .lbm/lbm                                : Dry Weight Fraction From Quanti.Elan {F}
Hematite           .ft3/ft3                                : Hematite Volume Fraction {F}
Illite             .ft3/ft3                                : Illite Volume Fraction {F}
K-Feldspar         .ft3/ft3                                : Orthoclase Volume Fraction {F}
Kaolinite          .ft3/ft3                                : Kaolinite Volume Fraction {F}
KINT_GEO           .mD                                     : Permeability (Juhasz 1979) {F}
KSDR_py            .mD                                     :  {F}
PHIT               .ft3/ft3                                : Total Porosity {F}
PIGE               .ft3/ft3                                : Effective Porosity {F}
PIGN               .ft3/ft3                                : Effective porosity (with irreducible water) {F}
Quartz             .ft3/ft3                                : Quartz Volume Fraction {F}
RHGA_GEO           .g/cm3                                  : Apparent grain density {F}
SW                 .ft3/ft3                                : Undisturbed Zone Water Saturation {F}
SWE                .ft3/ft3                                : Undisturbed Zone Effective Water Saturation {F}
UWater             .ft3/ft3                                : Undisturbed Zone Water Volume Fraction {F}
VCL_GEO            .ft3/ft3                                : Clay fraction {F}
~Ascii
# ...
6164.25000 0.00746    0.01235    0.00911    0.00000    0.01495    0.01102    0.00000    0.00000    0.06247    0.13158    0.00000    0.77998    0.00000    0.05149    0.11701    0.00000    57.59466   48.92418   0.15090    0.14344    0.14344    0.65914    2.63742    1.00000    1.00000    0.14344    0.06806   
6164.75000 0.00752    0.01300    0.00907    0.00000    0.01566    0.01092    0.00000    0.00000    0.06282    0.13468    0.00000    0.77592    0.00000    0.05202    0.12032    0.00000    51.82347   29.78194   0.14686    0.13934    0.13934    0.65874    2.63705    1.00000    1.00000    0.13934    0.06861   
6165.25000 0.00844    0.00901    0.00945    0.00000    0.01078    0.01130    0.00000    0.00000    0.07085    0.14135    0.00000    0.76572    0.00000    0.05907    0.12713    0.00000    40.06281   13.27318   0.14089    0.13245    0.13245    0.65446    2.63639    1.00000    1.00000    0.13245    0.07696   
6165.75000 0.00927    0.00417    0.00975    0.00000    0.00496    0.01159    0.00000    0.00000    0.07804    0.15206    0.00000    0.75335    0.00000    0.06547    0.13762    0.00000    32.15998   6.24632    0.13505    0.12578    0.12578    0.64794    2.63507    1.00000    1.00000    0.12578    0.08449   
6166.25000 0.00973    0.00239    0.00868    0.00000    0.00284    0.01032    0.00000    0.00000    0.08359    0.16471    0.00000    0.73854    0.00000    0.07017    0.14918    0.00000    31.07401   5.03973    0.13394    0.12421    0.12421    0.63564    2.63349    1.00000    1.00000    0.12421    0.08858   
6166.75000 0.01066    0.00164    0.00702    0.00000    0.00196    0.00839    0.00000    0.00000    0.08274    0.17230    0.02175    0.71286    0.00000    0.06898    0.15498    0.01873    29.68834   8.70392    0.13936    0.12870    0.12870    0.60931    2.63181    1.00000    1.00000    0.12870    0.10538   
6167.25000 0.01064    0.00242    0.00626    0.00000    0.00294    0.00761    0.00000    0.00000    0.08467    0.17030    0.02208    0.71240    0.00000    0.06953    0.15088    0.01873    41.59140   22.95912   0.15239    0.14175    0.14175    0.59978    2.63221    1.00000    1.00000    0.14175    0.10516   
6167.75000 0.00986    0.00370    0.00717    0.00000    0.00457    0.00887    0.00000    0.00000    0.08405    0.16223    0.01071    0.72957    0.00000    0.06779    0.14115    0.00892    69.37502   48.18914   0.16806    0.15820    0.15820    0.60322    2.63367    1.00000    1.00000    0.15820    0.09374   
6168.25000 0.00874    0.00870    0.00847    0.00000    0.01089    0.01060    0.00000    0.00000    0.07832    0.15406    0.00000    0.74613    0.00000    0.06241    0.13246    0.00000    102.55697  63.76207   0.17834    0.16960    0.16960    0.60962    2.63510    1.00000    1.00000    0.16960    0.07963   
6168.75000 0.00809    0.01389    0.00830    0.00000    0.01739    0.01040    0.00000    0.00000    0.07195    0.14855    0.00000    0.75171    0.00000    0.05732    0.12768    0.00000    108.62275  55.53392   0.17883    0.17074    0.17074    0.61397    2.63581    1.00000    1.00000    0.17074    0.07371   
6169.25000 0.00777    0.01297    0.00690    0.00000    0.01609    0.00856    0.00000    0.00000    0.06966    0.14544    0.00000    0.76025    0.00000    0.05604    0.12622    0.00000    95.05337   42.37936   0.17088    0.16311    0.16311    0.62699    2.63590    1.00000    1.00000    0.16311    0.07071   
6169.75000 0.00804    0.01033    0.00635    0.00000    0.01268    0.00780    0.00000    0.00000    0.07236    0.14527    0.00000    0.76188    0.00000    0.05877    0.12728    0.00000    76.50489   30.67657   0.16291    0.15487    0.15487    0.63436    2.63586    1.00000    1.00000    0.15487    0.07316   
6170.25000 0.00933    0.00743    0.00756    0.00000    0.00912    0.00928    0.00000    0.00000    0.08352    0.14541    0.00034    0.75232    0.00000    0.06785    0.12744    0.00029    62.61990   26.39126   0.16288    0.15355    0.15355    0.62656    2.63643    1.00000    1.00000    0.15355    0.08503   
6170.75000 0.01109    0.00629    0.01061    0.00000    0.00783    0.01320    0.00000    0.00000    0.09898    0.14402    0.00000    0.73596    0.00000    0.07931    0.12450    0.00000    61.17607   31.08166   0.17470    0.16361    0.16361    0.60459    2.63778    1.00000    1.00000    0.16361    0.10101   
6171.25000 0.01256    0.00394    0.01395    0.00000    0.00497    0.01762    0.00000    0.00000    0.11149    0.14006    0.00000    0.72586    0.00000    0.08803    0.11930    0.00000    62.08012   38.60572   0.18725    0.17469    0.17469    0.58754    2.63922    1.00000    1.00000    0.17469    0.11453   
6171.75000 0.01287    0.00246    0.01738    0.00000    0.00313    0.02206    0.00000    0.00000    0.11111    0.13897    0.00000    0.72473    0.00000    0.08733    0.11783    0.00000    63.98197   43.45289   0.19104    0.17817    0.17817    0.58396    2.63950    1.00000    1.00000    0.17817    0.11758   
6172.25000 0.01284    0.00233    0.01848    0.00000    0.00291    0.02313    0.00000    0.00000    0.10795    0.14168    0.00000    0.72432    0.00000    0.08604    0.12182    0.00000    51.35853   33.54325   0.17951    0.16666    0.16666    0.59183    2.63897    1.00000    1.00000    0.16666    0.11736   
6172.75000 0.01297    0.00146    0.01862    0.00000    0.00180    0.02294    0.00000    0.00000    0.10746    0.14525    0.00000    0.72254    0.00000    0.08698    0.12684    0.00000    38.40438   20.59748   0.16650    0.15352    0.15352    0.59960    2.63838    1.00000    1.00000    0.15352    0.11857   
6173.25000 0.01333    0.00125    0.01753    0.00000    0.00153    0.02152    0.00000    0.00000    0.10952    0.14227    0.00421    0.72094    0.00000    0.08895    0.12466    0.00353    32.85231   19.12654   0.16378    0.15045    0.15045    0.60031    2.63874    1.00000    1.00000    0.15045    0.12334   
6173.75000 0.01266    0.00135    0.01830    0.00000    0.00168    0.02274    0.00000    0.00000    0.10555    0.13490    0.00000    0.73513    0.00000    0.08474    0.11684    0.00000    45.36088   29.06956   0.17369    0.16103    0.16103    0.60508    2.63965    1.00000    1.00000    0.16103    0.11570   
6174.25000 0.01190    0.00197    0.01703    0.00000    0.00247    0.02135    0.00000    0.00000    0.10030    0.12383    0.00000    0.75206    0.00000    0.07981    0.10630    0.00000    57.54177   63.31731   0.18139    0.16950    0.16950    0.61351    2.64080    1.00000    1.00000    0.16950    0.10873   
6174.75000 0.01095    0.00216    0.01571    0.00000    0.00273    0.01979    0.00000    0.00000    0.09279    0.11693    0.00000    0.76776    0.00000    0.07345    0.09986    0.00000    71.46043   131.59460  0.18571    0.17476    0.17476    0.62310    2.64119    1.00000    1.00000    0.17476    0.10011   
6175.25000 0.01058    0.00217    0.01301    0.00000    0.00274    0.01643    0.00000    0.00000    0.09242    0.11304    0.00000    0.77537    0.00000    0.07299    0.09631    0.00000    77.82390   200.20146  0.18775    0.17717    0.17717    0.62777    2.64151    1.00000    1.00000    0.17717    0.09658   
6175.75000 0.01029    0.00401    0.01280    0.00000    0.00509    0.01624    0.00000    0.00000    0.09008    0.11654    0.00000    0.77205    0.00000    0.07080    0.09882    0.00000    88.81343   224.16435  0.19146    0.18118    0.18118    0.62211    2.64100    1.00000    1.00000    0.18118    0.09388   
6176.25000 0.01018    0.00537    0.01212    0.00000    0.00685    0.01545    0.00000    0.00000    0.09026    0.12207    0.00000    0.76537    0.00000    0.07060    0.10299    0.00000    99.36190   209.77069  0.19524    0.18505    0.18505    0.61369    2.64031    1.00000    1.00000    0.18505    0.09289   
6176.75000 0.00977    0.00331    0.01087    0.00000    0.00425    0.01396    0.00000    0.00000    0.08817    0.12846    0.00000    0.76516    0.00000    0.06847    0.10761    0.00000    124.27446  210.16524  0.20059    0.19082    0.19082    0.60915    2.63906    1.00000    1.00000    0.19082    0.08911   
