~Version
 VERS              .         3.0                           : CWLS LOG ASCII STANDARD - VERSION 3.0
 WRAP              .         NO                            : ONE LINE PER DEPTH STEP
 DLM               .         SPACE                         : DELIMITING CHARACTER(SPACE TAB OR COMMA)
~Well Information
#_______________________________________________________________________________
#
#PARAMETER_NAME    .UNIT     VALUE                         : DESCRIPTION
#_______________________________________________________________________________
STRT               .ft       4357.25000                    : First reference value
STOP               .ft       6466.75000                    : Last reference value
STEP               .ft       0.50000                       : Step increment
NULL               .         -9999                         : Missing value
COMP               .         Podolsky Oil Company          : Company
WELL               .         T_R_ McMillen #2              : Well name
FLD                .         Mount Auburn                  : Field
LOC                .                                       : Location
SRVC               .                                       : Service Company
CTRY               .         US                            : Country
STAT               .         Illinois                      : State
CNTY               .                                       : County
API                .                                       : API NUMBER
DATE               .         03-Dec-2018                   : Service Date
LATI               .         39.772784 degrees             : Latitude
LONG               .         -89.203412 degrees            : Longitude
GDAT               .                                       : Geodetic Datum
APD                .ft       15                            : Elevation of Depth Reference (LMF) Above Permanent Datum
BHS                .         OPEN                          : Borehole Status (Open or Cased Hole)
BHT                .degF     103                           : Bottom Hole Temperature
BLI                .ft       6475                          : Bottom Log Interval
BS                 .in       6.75                          : Bit Size
CBDR               .ft       4355                          : Casing Bottom of Driller
CBLO               .ft       4353                          : Logger Casing Shoe Depth
CSIZ               .in       7.625                         : Current Casing Size
CWEI               .lbm/ft   11.6                          : Casing Weight
COUNTRY            .         United States                 : Nation
DCS                .         03-Dec-2018                   : Date Circulation Stopped
DFD                .lbm/gal  9.25                          : Drilling Fluid Density
DFT                .         WATER                         : Drilling Fluid Type
DLAB               .         03-Dec-2018                   : Date Logger At Bottom
EDF                .ft       618                           : Elevation of Drill Floor
EGL                .ft       603                           : Elevation of Ground Level
EKB                .ft       618                           : Elevation of Kelly Bushing
EPD                .ft       603                           : Elevation of Permanent Datum (PDAT) above Mean Sea Level
LMF                .         KB                            : Logging Measured From (Name of Logging Elevation Reference)
LUL                .         Bradford                      : Logging Unit Location
LUN                .         3703                          : Logging Unit Number
MCST               .degF     71.2                          : Mudcake Sample Temperature
MFST               .degF     69.1                          : Mud Filtrate Sample Temperature
MRT                .degF     103                           : Maximum Recorded Temperature
MST                .degF     59.2                          : Mud Sample Temperature
PDAT               .         GL                            : Permanent Datum
PRODUCER-CODE      .         440                           : 
PRODUCER-NAME      .         Schlumberger                  : 
RMB                .ohm.m    0.835368                      : Resistivity of Mud at Bottom Hole Temperature
RMCS               .ohm.m    1.55                          : Resistivity of Mud Cake Sample
RMFS               .ohm.m    1.26                          : Resistivity of Mud Filtrate Sample
RMS                .ohm.m    1.39                          : Resistivity of Mud Sample
RUN                .         2A                            : Run Number
TCS                .         08_00_00                      : Time Circulation Stopped
TDD                .ft       6469                          : Driller Total Depth
TDL                .ft       6475                          : Logger Total Depth
TLAB               .         17_50_00                      : Time Logger At Bottom
TLI                .ft       4353                          : Top Log Interval
~Parameter Information Block
#_______________________________________________________________________________
#
#PARAMETER_NAME    .UNIT     VALUE                         : DESCRIPTION
#_______________________________________________________________________________
SET                .         01_Elan                       : 
TLFamily_Bound_Water .         Bound Water Volume Fraction   : 
TLFamily_Calcite   .         Calcite Volume Fraction       : 
TLFamily_Chlorite  .         Chlorite Volume Fraction      : 
TLFamily_Dolomite  .         Dolomite Volume Fraction      : 
TLFamily_Dry_Weight_Calcite .         Calcite Weight Fraction       : 
TLFamily_Dry_Weight_Chlorite .         Chlorite Weight Fraction      : 
TLFamily_Dry_Weight_Dolomite .         Dolomite Weight Fraction      : 
TLFamily_Dry_Weight_Hematite .         Hematite Weight Fraction      : 
TLFamily_Dry_Weight_Illite .         Illite Weight Fraction        : 
TLFamily_Dry_Weight_K-Feldspar .         Orthoclase Weight Fraction    : 
TLFamily_Dry_Weight_Kaolinite .         Kaolinite Weight Fraction     : 
TLFamily_Dry_Weight_Quartz .         Quartz Weight Fraction        : 
TLFamily_Hematite  .         Hematite Volume Fraction      : 
TLFamily_Illite    .         Illite Volume Fraction        : 
TLFamily_K-Feldspar .         Orthoclase Volume Fraction    : 
TLFamily_KINT_GEO  .         Permeability                  : 
TLFamily_KSDR_py   .         NMR Permeability              : 
TLFamily_Kaolinite .         Kaolinite Volume Fraction     : 
TLFamily_MD        .         Measured Depth                : 
TLFamily_PHIT      .         Total Porosity                : 
TLFamily_PIGE      .         Effective Porosity            : 
TLFamily_PIGN      .         Effective Porosity            : 
TLFamily_Quartz    .         Quartz Volume Fraction        : 
TLFamily_RHGA_GEO  .         Grain Density                 : 
TLFamily_SW        .         Water Saturation              : 
TLFamily_SWE       .         Water Saturation              : 
TLFamily_UWater    .         Undisturbed Zone Water Volume Fraction: 
TLFamily_VCL_GEO   .         Clay Volume Fraction          : 
~Curve Information
#_______________________________________________________________________________
#
#LOGNAME           .UNIT     LOG_ID                        : DESCRIPTION
#_______________________________________________________________________________
MD                 .ft                                     :  {F}
Bound_Water        .ft3/ft3                                : Bound Water Volume Fraction {F}
Calcite            .ft3/ft3                                : Calcite Volume Fraction {F}
Chlorite           .ft3/ft3                                : Chlorite Volume Fraction {F}
Dolomite           .ft3/ft3                                : Dolomite Volume Fraction {F}
Dry_Weight_Calcite .lbm/lbm                                : Dry Weight Fraction From Quanti.Elan {F}
Dry_Weight_Chlorite .lbm/lbm                                : Dry Weight Fraction From Quanti.Elan {F}
Dry_Weight_Dolomite .lbm/lbm                                : Dry Weight Fraction From Quanti.Elan {F}
Dry_Weight_Hematite .lbm/lbm                                : Dry Weight Fraction From Quanti.Elan {F}
Dry_Weight_Illite  .lbm/lbm                                : Dry Weight Fraction From Quanti.Elan {F}
Dry_Weight_K-Feldspar .lbm/lbm                                : Dry Weight Fraction From Quanti.Elan {F}
Dry_Weight_Kaolinite .lbm/lbm                                : Dry Weight Fraction From Quanti.Elan {F}
Dry_Weight_Quartz  .lbm/lbm                                : Dry Weight Fraction From Quanti.Elan {F}
Hematite           .ft3/ft3                                : Hematite Volume Fraction {F}
Illite             .ft3/ft3                                : Illite Volume Fraction {F}
K-Feldspar         .ft3/ft3                                : Orthoclase Volume Fraction {F}
Kaolinite          .ft3/ft3                                : Kaolinite Volume Fraction {F}
KINT_GEO           .mD                                     : Permeability (Juhasz 1979) {F}
KSDR_py            .mD                                     :  {F}
PHIT               .ft3/ft3                                : Total Porosity {F}
PIGE               .ft3/ft3                                : Effective Porosity {F}
PIGN               .ft3/ft3                                : Effective porosity (with irreducible water) {F}
Quartz             .ft3/ft3                                : Quartz Volume Fraction {F}
RHGA_GEO           .g/cm3                                  : Apparent grain density {F}
SW                 .ft3/ft3                                : Undisturbed Zone Water Saturation {F}
SWE                .ft3/ft3                                : Undisturbed Zone Effective Water Saturation {F}
UWater             .ft3/ft3                                : Undisturbed Zone Water Volume Fraction {F}
VCL_GEO            .ft3/ft3                                : Clay fraction {F}
~Ascii
# ...
5878.25000 0.00648    0.00505    0.00720    0.00000    0.00595    0.00847    0.00000    0.00000    0.05342    0.08539    0.00000    0.84677    0.00000    0.04528    0.07810    0.00000    29.97466   11.41530   0.12843    0.12195    0.12195    0.73594    2.64251    1.00000    1.00000    0.12195    0.05896   
5878.75000 0.00672    0.01065    0.00599    0.00000    0.01252    0.00704    0.00000    0.00000    0.05697    0.08381    0.00000    0.83967    0.00000    0.04835    0.07675    0.00000    26.79713   7.81570    0.12761    0.12089    0.12089    0.73065    2.64326    1.00000    1.00000    0.12089    0.06106   
5879.25000 0.00765    0.01563    0.00196    0.00000    0.01822    0.00229    0.00000    0.00000    0.06964    0.07980    0.00000    0.83005    0.00000    0.05959    0.07366    0.00000    17.57565   7.08089    0.12101    0.11336    0.11336    0.72815    2.64469    1.00000    1.00000    0.11336    0.06920   
5879.75000 0.00643    0.01145    0.00682    0.00000    0.01325    0.00789    0.00000    0.00000    0.05246    0.08167    0.00000    0.84473    0.00000    0.04523    0.07597    0.00000    17.72600   8.79798    0.11386    0.10743    0.10743    0.74667    2.64336    1.00000    1.00000    0.10743    0.05848   
5880.25000 0.00872    0.01250    0.00257    0.00000    0.01435    0.00295    0.00000    0.00000    0.07779    0.07523    0.00000    0.82968    0.00000    0.06760    0.07053    0.00000    9.21075    9.98006    0.10762    0.09890    0.09890    0.73918    2.64566    1.00000    1.00000    0.09890    0.07889   
5880.75000 0.00712    0.00477    0.01193    0.00000    0.00550    0.01376    0.00000    0.00000    0.05316    0.07980    0.00000    0.84778    0.00000    0.04597    0.07444    0.00000    15.00873   8.15399    0.11138    0.10426    0.10426    0.75152    2.64355    1.00000    1.00000    0.10426    0.06501   
5881.25000 0.00748    0.00272    0.01194    0.00000    0.00315    0.01382    0.00000    0.00000    0.05668    0.07974    0.00000    0.84661    0.00000    0.04885    0.07415    0.00000    15.78024   6.02953    0.11420    0.10673    0.10673    0.74813    2.64365    1.00000    1.00000    0.10673    0.06828   
5881.75000 0.00791    0.00104    0.01076    0.00000    0.00121    0.01247    0.00000    0.00000    0.06209    0.07912    0.00000    0.84512    0.00000    0.05346    0.07349    0.00000    15.28417   4.78779    0.11522    0.10731    0.10731    0.74602    2.64390    1.00000    1.00000    0.10731    0.07214   
5882.25000 0.00849    0.00424    0.01173    0.00000    0.00492    0.01362    0.00000    0.00000    0.06656    0.07419    0.00000    0.84071    0.00000    0.05719    0.06878    0.00000    14.28988   5.70852    0.11749    0.10900    0.10900    0.74057    2.64515    1.00000    1.00000    0.10900    0.07741   
5882.75000 0.00880    0.00930    0.01468    0.00000    0.01090    0.01721    0.00000    0.00000    0.06686    0.07096    0.00000    0.83407    0.00000    0.05689    0.06514    0.00000    17.19132   8.57145    0.12633    0.11754    0.11754    0.72765    2.64618    1.00000    1.00000    0.11754    0.08037   
5883.25000 0.00888    0.01167    0.01770    0.00000    0.01381    0.02095    0.00000    0.00000    0.06491    0.07022    0.00000    0.83011    0.00000    0.05472    0.06386    0.00000    21.34701   13.77242   0.13458    0.12571    0.12571    0.71745    2.64654    1.00000    1.00000    0.12571    0.08131   
5883.75000 0.00893    0.00739    0.01885    0.00000    0.00878    0.02239    0.00000    0.00000    0.06437    0.07370    0.00000    0.83075    0.00000    0.05404    0.06675    0.00000    24.45055   20.10602   0.13793    0.12901    0.12901    0.71503    2.64582    1.00000    1.00000    0.12901    0.08182   
5884.25000 0.00895    0.00256    0.01797    0.00000    0.00302    0.02121    0.00000    0.00000    0.06510    0.07935    0.00000    0.83132    0.00000    0.05502    0.07235    0.00000    21.62621   18.69951   0.13175    0.12280    0.12280    0.72034    2.64468    1.00000    1.00000    0.12280    0.08194   
5884.75000 0.00882    0.00197    0.01499    0.00000    0.00230    0.01752    0.00000    0.00000    0.06657    0.08314    0.00000    0.83048    0.00000    0.05681    0.07654    0.00000    17.27798   16.79505   0.12310    0.11428    0.11428    0.72660    2.64399    1.00000    1.00000    0.11428    0.08062   
5885.25000 0.00834    0.00211    0.01163    0.00000    0.00245    0.01352    0.00000    0.00000    0.06535    0.08457    0.00000    0.83411    0.00000    0.05610    0.07833    0.00000    15.77699   9.86271    0.11769    0.10935    0.10935    0.73413    2.64349    1.00000    1.00000    0.10935    0.07608   
5885.75000 0.00748    0.00149    0.00875    0.00000    0.00173    0.01016    0.00000    0.00000    0.06036    0.08678    0.00000    0.84097    0.00000    0.05184    0.08039    0.00000    18.22578   4.98958    0.11718    0.10970    0.10970    0.74036    2.64262    1.00000    1.00000    0.10970    0.06806   
5886.25000 0.00696    0.00308    0.00682    0.00000    0.00357    0.00792    0.00000    0.00000    0.05755    0.08892    0.00000    0.84205    0.00000    0.04947    0.08246    0.00000    19.19942   3.05632    0.11611    0.10916    0.10916    0.74206    2.64212    1.00000    1.00000    0.10916    0.06324   
5886.75000 0.00702    0.00560    0.00763    0.00000    0.00647    0.00883    0.00000    0.00000    0.05710    0.08944    0.00000    0.83817    0.00000    0.04924    0.08321    0.00000    16.99099   2.73160    0.11327    0.10625    0.10625    0.74105    2.64225    1.00000    1.00000    0.10625    0.06389   
5887.25000 0.00764    0.00403    0.01014    0.00000    0.00464    0.01168    0.00000    0.00000    0.05993    0.08436    0.00000    0.83939    0.00000    0.05189    0.07879    0.00000    13.48394   3.63581    0.11013    0.10249    0.10249    0.74502    2.64319    1.00000    1.00000    0.10249    0.06967   
5887.75000 0.00764    0.00098    0.01273    0.00000    0.00114    0.01470    0.00000    0.00000    0.05722    0.08023    0.00000    0.84671    0.00000    0.04944    0.07478    0.00000    14.46531   10.39876   0.11210    0.10446    0.10446    0.74997    2.64355    1.00000    1.00000    0.10446    0.06981   
5888.25000 0.00707    0.00142    0.01248    0.00000    0.00164    0.01448    0.00000    0.00000    0.05247    0.07644    0.00000    0.85497    0.00000    0.04512    0.07091    0.00000    17.99201   10.28451   0.11628    0.10921    0.10921    0.75378    2.64379    1.00000    1.00000    0.10921    0.06468   
5888.75000 0.00658    0.00150    0.01015    0.00000    0.00175    0.01183    0.00000    0.00000    0.05067    0.07627    0.00000    0.85948    0.00000    0.04335    0.07040    0.00000    22.61791   7.05359    0.12073    0.11415    0.11415    0.75388    2.64354    1.00000    1.00000    0.11415    0.06008   
5889.25000 0.00655    0.00122    0.00827    0.00000    0.00143    0.00969    0.00000    0.00000    0.05276    0.07739    0.00000    0.85873    0.00000    0.04489    0.07103    0.00000    26.67868   4.46158    0.12556    0.11900    0.11900    0.74903    2.64338    1.00000    1.00000    0.11900    0.05971   
5889.75000 0.00682    0.00302    0.00808    0.00000    0.00354    0.00947    0.00000    0.00000    0.05540    0.07792    0.00000    0.85367    0.00000    0.04717    0.07158    0.00000    24.80168   3.90539    0.12495    0.11813    0.11813    0.74520    2.64359    1.00000    1.00000    0.11813    0.06207   
5890.25000 0.00927    0.00000    0.00334    0.00000    0.00000    0.00387    0.00000    0.00000    0.08273    0.07394    0.00000    0.83945    0.00000    0.07128    0.06872    0.00000    11.85664   9.43280    0.11523    0.10596    0.10596    0.74143    2.64538    1.00000    1.00000    0.10596    0.08389   
5890.75000 0.00648    0.00415    0.01020    0.00000    0.00479    0.01178    0.00000    0.00000    0.04916    0.07582    0.00000    0.85845    0.00000    0.04246    0.07065    0.00000    17.04597   17.05908   0.11239    0.10592    0.10592    0.76015    2.64368    1.00000    1.00000    0.10592    0.05913   
