~Version
 VERS              .         3.0                           : CWLS LOG ASCII STANDARD - VERSION 3.0
 WRAP              .         NO                            : ONE LINE PER DEPTH STEP
 DLM               .         SPACE                         : DELIMITING CHARACTER(SPACE TAB OR COMMA)
~Well Information
#_______________________________________________________________________________
#
#PARAMETER_NAME    .UNIT     VALUE                         : DESCRIPTION
#_______________________________________________________________________________
STRT               .ft       4357.25000                    : First reference value
STOP               .ft       6466.75000                    : Last reference value
STEP               .ft       0.50000                       : Step increment
NULL               .         -9999                         : Missing value
COMP               .         Podolsky Oil Company          : Company
WELL               .         T_R_ McMillen #2              : Well name
FLD                .         Mount Auburn                  : Field
LOC                .                                       : Location
SRVC               .                                       : Service Company
CTRY               .         US                            : Country
STAT               .         Illinois                      : State
CNTY               .                                       : County
API                .                                       : API NUMBER
DATE               .         03-Dec-2018                   : Service Date
LATI               .         39.772784 degrees             : Latitude
LONG               .         -89.203412 degrees            : Longitude
GDAT               .                                       : Geodetic Datum
APD                .ft       15                            : Elevation of Depth Reference (LMF) Above Permanent Datum
BHS                .         OPEN                          : Borehole Status (Open or Cased Hole)
BHT                .degF     103                           : Bottom Hole Temperature
BLI                .ft       6475                          : Bottom Log Interval
BS                 .in       6.75                          : Bit Size
CBDR               .ft       4355                          : Casing Bottom of Driller
CBLO               .ft       4353                          : Logger Casing Shoe Depth
CSIZ               .in       7.625                         : Current Casing Size
CWEI               .lbm/ft   11.6                          : Casing Weight
COUNTRY            .         United States                 : Nation
DCS                .         03-Dec-2018                   : Date Circulation Stopped
DFD                .lbm/gal  9.25                          : Drilling Fluid Density
DFT                .         WATER                         : Drilling Fluid Type
DLAB               .         03-Dec-2018                   : Date Logger At Bottom
EDF                .ft       618                           : Elevation of Drill Floor
EGL                .ft       603                           : Elevation of Ground Level
EKB                .ft       618                           : Elevation of Kelly Bushing
EPD                .ft       603                           : Elevation of Permanent Datum (PDAT) above Mean Sea Level
LMF                .         KB                            : Logging Measured From (Name of Logging Elevation Reference)
LUL                .         Bradford                      : Logging Unit Location
LUN                .         3703                          : Logging Unit Number
MCST               .degF     71.2                          : Mudcake Sample Temperature
MFST               .degF     69.1                          : Mud Filtrate Sample Temperature
MRT                .degF     103                           : Maximum Recorded Temperature
MST                .degF     59.2                          : Mud Sample Temperature
PDAT               .         GL                            : Permanent Datum
PRODUCER-CODE      .         440                           : 
PRODUCER-NAME      .         Schlumberger                  : 
RMB                .ohm.m    0.835368                      : Resistivity of Mud at Bottom Hole Temperature
RMCS               .ohm.m    1.55                          : Resistivity of Mud Cake Sample
RMFS               .ohm.m    1.26                          : Resistivity of Mud Filtrate Sample
RMS                .ohm.m    1.39                          : Resistivity of Mud Sample
RUN                .         2A                            : Run Number
TCS                .         08_00_00                      : Time Circulation Stopped
TDD                .ft       6469                          : Driller Total Depth
TDL                .ft       6475                          : Logger Total Depth
TLAB               .         17_50_00                      : Time Logger At Bottom
TLI                .ft       4353                          : Top Log Interval
~Parameter Information Block
#_______________________________________________________________________________
#
#PARAMETER_NAME    .UNIT     VALUE                         : DESCRIPTION
#_______________________________________________________________________________
SET                .         01_Elan                       : 
TLFamily_ALPH      .         Biot Coefficient              : 
TLFamily_BMK_DYN   .         Bulk Modulus (Dynamic)        : 
TLFamily_BMK_STA   .         Bulk Modulus (Static)         : 
TLFamily_DEN_COM_EXT .         Bulk Density                  : 
TLFamily_FANG      .         Friction Angle                : 
TLFamily_MD        .         Measured Depth                : 
TLFamily_MECH_LITHO .         Mechanical Stratigraphy Flag  : 
TLFamily_OBMW_EXT  .         Pressure Gradient             : 
TLFamily_PPRS_HP_G .         Pore Pressure                 : 
TLFamily_PR_DYN    .         Poisson Ratio (Dynamic)       : 
TLFamily_PR_STA    .         Poisson Ratio (Static)        : 
TLFamily_SHMAX_PHS .         Maximum Horizontal Stress     : 
TLFamily_SHMIN_PHS .         Minimum Horizontal Stress     : 
TLFamily_SMG_DYN   .         Shear Modulus (Dynamic)       : 
TLFamily_SMG_STA   .         Shear Modulus (Static)        : 
TLFamily_SVERTICAL_EXT .         Vertical Stress               : 
TLFamily_TSTR      .         Tensile Strength              : 
TLFamily_UCS       .         Unconfined Compressive Strength: 
TLFamily_YME_DYN   .         Young's Modulus (Dynamic)     : 
TLFamily_YME_STA   .         Young's Modulus (Static)      : 
~Curve Information
#_______________________________________________________________________________
#
#LOGNAME           .UNIT     LOG_ID                        : DESCRIPTION
#_______________________________________________________________________________
MD                 .ft                                     :  {F}
ALPH               .unitless                               : Biot coefficient {F}
BMK_DYN            .Mpsi                                   : Bulk Modulus (Dynamic) {F}
BMK_STA            .Mpsi                                   : Bulk Modulus (Static) {F}
DEN_COM_EXT        .g/cm3                                  : Composite density {F}
FANG               .deg                                    : Friction angle {F}
MECH_LITHO         .unitless                               : Lithology codes between 0 and 6 {F}
OBMW_EXT           .ppg                                    :  {F}
PPRS_HP_G          .psi                                    :  {F}
PR_DYN             .unitless                               : Poisson Ratio (Dynamic) {F}
PR_STA             .unitless                               : Static Poissons ratio {F}
SHMAX_PHS          .psi                                    : Maximum Horizontal Stress {F}
SHMIN_PHS          .psi                                    : Minimum Horizontal Stress {F}
SMG_DYN            .Mpsi                                   : Shear Modulus (Dynamic) {F}
SMG_STA            .Mpsi                                   : Shear Modulus (Static) {F}
SVERTICAL_EXT      .psi                                    :  {F}
TSTR               .Mpsi                                   : Tensile Strength {F}
UCS                .Mpsi                                   : Unconfined compressive strength {F}
YME_DYN            .Mpsi                                   : Young's Modulus (Dynamic) {F}
YME_STA            .Mpsi                                   : Static Youngs modulus {F}
~Ascii
4357.25000 0.18773    9.17688    4.35897    2.72030    -9999.00000 -9999.00000 21.59031   1981.89197 0.29996    0.29996    9777.58887 9777.58887 4.23643    2.01228    4880.84277 -9999.00000 -9999.00000 11.01439   5.23178   
4357.75000 0.25139    8.45756    4.01732    2.67185    -9999.00000 -9999.00000 21.59043   1982.11914 0.28295    0.28295    9524.16504 9524.16504 4.29265    2.03900    4881.42822 -9999.00000 -9999.00000 11.01448   5.23184   
4358.25000 0.30736    7.74911    3.71699    2.63257    -9999.00000 -9999.00000 21.59049   1982.34631 0.25935    0.25935    9351.68359 9351.68359 4.44228    2.13081    4882.00293 -9999.00000 -9999.00000 11.18879   5.36688   
4358.75000 0.33157    7.08770    3.58708    2.66251    -9999.00000 -9999.00000 21.59054   1982.57349 0.21324    0.21324    9647.12598 9647.12598 5.02576    2.54354    4882.57275 -9999.00000 -9999.00000 12.19489   6.17183   
4359.25000 0.29986    7.08431    3.75724    2.73810    -9999.00000 -9999.00000 21.59064   1982.80066 0.19071    0.19071    10220.71875 10220.71875 5.52056    2.92788    4883.15430 -9999.00000 -9999.00000 13.14674   6.97251   
4359.75000 0.21363    7.77184    4.21995    2.79683    -9999.00000 -9999.00000 21.59081   1983.02783 0.20722    0.20722    10940.15820 10940.15820 5.65448    3.07026    4883.75195 -9999.00000 -9999.00000 13.65244   7.41300   
4360.25000 1.00000    8.22862    4.73428    2.83640    -9999.00000 0.00000    21.59102   1983.25500 0.22441    0.11221    8053.10547 4091.40063 5.55628    4.95213    4884.36035 0.00224    0.04473    13.60633   11.01557  
4360.75000 1.00000    8.97336    4.86813    2.85579    -9999.00000 0.00000    21.59127   1983.48218 0.24797    0.12399    8109.63574 4201.07568 5.43651    4.88570    4884.97656 0.00223    0.04459    13.56922   10.98292  
4361.25000 1.00000    9.12680    4.86360    2.85698    47.43769   0.00000    21.59153   1983.70935 0.25435    0.12718    8076.39209 4215.56689 5.36204    4.82603    4885.59473 0.00221    0.04415    13.45179   10.87958  
4361.75000 1.00000    10.30143   5.06846    2.84329    47.07513   0.00000    21.59179   1983.93652 0.28154    0.14077    8188.97705 4358.41309 5.26820    4.78821    4886.21289 0.00222    0.04434    13.50281   10.92447  
4362.25000 1.00000    10.74494   5.07495    2.81617    46.51707   0.00000    21.59203   1984.16357 0.29353    0.14676    8141.14941 4389.38037 5.14537    4.68971    4886.82666 0.00218    0.04363    13.31133   10.75597  
4362.75000 1.00000    9.43360    4.76231    2.78485    46.08923   0.00000    21.59224   1984.39075 0.27193    0.13597    7884.18555 4221.46924 5.07451    4.57840    4887.43359 0.00211    0.04212    12.90888   10.40181  
4363.25000 1.00000    8.31796    4.49806    2.75821    45.96355   0.00000    21.59242   1984.61792 0.24675    0.12337    7681.38477 4062.10962 5.06887    4.52409    4888.03467 0.00206    0.04112    12.63921   10.16450  
4363.75000 1.00000    7.81538    4.39369    2.74574    46.00145   0.00000    21.59258   1984.84509 0.23122    0.11561    7618.50195 3985.18457 5.11846    4.54165    4888.62988 0.00205    0.04099    12.60386   10.13340  
4364.25000 1.00000    8.07743    4.46085    2.74725    45.90702   0.00000    21.59274   1985.07227 0.23863    0.11932    7669.95654 4028.78589 5.11334    4.55146    4889.22412 0.00206    0.04122    12.66710   10.18905  
4364.75000 1.00000    9.59689    4.76807    2.75532    45.63337   0.00000    21.59289   1985.29944 0.27699    0.13850    7870.41309 4236.84326 5.02779    4.54196    4889.81934 0.00209    0.04187    12.84094   10.34202  
4365.25000 1.00000    10.77234   4.97044    2.77032    45.52059   0.00000    21.59306   1985.52661 0.29952    0.14976    7999.58008 4365.72217 4.98575    4.54232    4890.41650 0.00212    0.04231    12.95811   10.44514  
4365.75000 1.00000    10.68761   5.07721    2.78967    45.89067   0.00000    21.59324   1985.75378 0.29189    0.14595    8153.24805 4388.45117 5.16492    4.70600    4891.01758 0.00219    0.04375    13.34504   10.78563  
4366.25000 1.00000    10.65423   5.37830    2.80588    46.46600   0.00000    21.59344   1985.98096 0.27504    0.13752    8574.58203 4461.33105 5.63943    5.14156    4891.62256 0.00238    0.04762    14.38095   11.69724  
4366.75000 1.00000    10.14996   5.56743    2.81302    47.07477   0.00000    21.59366   1986.20813 0.24765    0.12382    8935.75293 4463.16309 6.15887    5.59074    4892.23096 0.00257    0.05131    15.36819   12.56601  
4367.25000 1.00000    9.67890    5.44533    2.80464    47.14894   0.00000    21.59388   1986.43530 0.23752    0.11876    8845.16895 4391.73633 6.15867    5.56679    4892.83984 0.00254    0.05084    15.24298   12.45582  
4367.75000 1.00000    9.05566    4.87867    2.77830    46.59320   0.00000    21.59408   1986.66248 0.25056    0.12528    8114.45898 4215.38525 5.41889    4.87384    4893.44531 0.00223    0.04453    13.55325   10.96886  
4368.25000 1.00000    7.36294    3.75879    2.74120    45.58390   0.00000    21.59425   1986.88965 0.26101    0.13050    6772.62793 3824.15527 4.18638    3.68559    4894.04395 0.00167    0.03335    10.55812   8.33315   
4368.75000 1.00000    5.78476    3.05391    2.70669    44.59160   0.00000    21.59439   1987.11682 0.24095    0.12048    5998.69629 3516.12695 3.62265    3.10321    4894.63428 0.00137    0.02750    8.99109    6.95416   
4369.25000 1.00000    5.22004    3.00762    2.68830    43.85844   0.00000    21.59450   1987.34399 0.20498    0.10249    6018.45850 3415.84741 3.83418    3.25326    4895.21826 0.00142    0.02843    9.24020    7.17337   
4369.75000 1.00000    6.20978    3.36519    2.67946    43.66702   0.00000    21.59459   1987.57117 0.23534    0.11767    6381.58398 3618.78223 3.99125    3.45350    4895.79980 0.00154    0.03075    9.86106    7.71973   
4370.25000 1.00000    8.01286    3.84904    2.66560    43.52145   0.00000    21.59468   1987.79834 0.28116    0.14058    6816.53760 3905.57544 4.10603    3.63870    4896.37891 0.00166    0.03321    10.52100   8.30048   
4370.75000 1.00000    8.29529    3.85466    2.64480    43.14225   0.00000    21.59475   1988.02551 0.29091    0.14546    6793.58447 3930.13159 4.03076    3.57932    4896.95459 0.00164    0.03278    10.40670   8.19990   
4371.25000 1.00000    7.94693    3.74873    2.62778    42.68932   0.00000    21.59480   1988.25269 0.28573    0.14286    6690.42090 3878.93457 3.97320    3.51436    4897.52539 0.00160    0.03208    10.21689   8.03286   
4371.75000 1.00000    8.06006    3.87103    2.64349    42.97881   0.00000    21.59484   1988.47986 0.28139    0.14070    6841.55713 3915.19092 4.12514    3.65796    4898.09424 0.00167    0.03340    10.57187   8.34524   
4372.25000 1.00000    8.96815    4.27561    2.69687    44.04574   0.00000    21.59491   1988.70703 0.28649    0.14325    7280.97852 4078.84448 4.46513    4.00267    4898.66943 0.00184    0.03682    11.48871   9.15206   
4372.75000 1.00000    10.30401   4.82990    2.76422    45.21511   0.00000    21.59504   1988.93408 0.29449    0.14725    7869.88623 4305.68164 4.90739    4.45526    4899.25781 0.00207    0.04136    12.70518   10.22256  
4373.25000 1.00000    11.39354   5.28270    2.81596    45.80313   0.00000    21.59523   1989.16113 0.29955    0.14977    8349.77148 4487.84131 5.27232    4.82741    4899.86035 0.00225    0.04509    13.70325   11.10086  
4373.75000 1.00000    11.24507   5.40819    2.82871    45.70539   0.00000    21.59546   1989.38843 0.28979    0.14490    8538.16113 4512.37061 5.49805    5.03224    4900.47168 0.00234    0.04688    14.18271   11.52279  
4374.25000 1.00000    9.91181    5.16109    2.81055    45.46576   0.00000    21.59568   1989.61548 0.26392    0.13196    8384.70508 4357.41504 5.55397    5.03411    4901.08350 0.00232    0.04635    14.03960   11.39685  
4374.75000 1.00000    8.29695    4.65918    2.77347    45.27937   0.00000    21.59589   1989.84265 0.23360    0.11680    7932.04541 4095.23853 5.37523    4.79601    4901.68945 0.00217    0.04344    13.26179   10.71237  
4375.25000 1.00000    7.16480    4.12773    2.73572    45.06276   0.00000    21.59605   1990.06982 0.21904    0.10952    7349.53760 3863.06030 4.95397    4.35810    4902.28662 0.00195    0.03902    12.07817   9.67079   
