~Version
 VERS              .         3.0                           : CWLS LOG ASCII STANDARD - VERSION 3.0
 WRAP              .         NO                            : ONE LINE PER DEPTH STEP
 DLM               .         SPACE                         : DELIMITING CHARACTER(SPACE TAB OR COMMA)
~Well Information
#_______________________________________________________________________________
#
#PARAMETER_NAME    .UNIT     VALUE                         : DESCRIPTION
#_______________________________________________________________________________
STRT               .ft       4357.25000                    : First reference value
STOP               .ft       6466.75000                    : Last reference value
STEP               .ft       0.50000                       : Step increment
NULL               .         -9999                         : Missing value
COMP               .         Podolsky Oil Company          : Company
WELL               .         T_R_ McMillen #2              : Well name
FLD                .         Mount Auburn                  : Field
LOC                .                                       : Location
SRVC               .                                       : Service Company
CTRY               .         US                            : Country
STAT               .         Illinois                      : State
CNTY               .                                       : County
API                .                                       : API NUMBER
DATE               .         03-Dec-2018                   : Service Date
LATI               .         39.772784 degrees             : Latitude
LONG               .         -89.203412 degrees            : Longitude
GDAT               .                                       : Geodetic Datum
APD                .ft       15                            : Elevation of Depth Reference (LMF) Above Permanent Datum
BHS                .         OPEN                          : Borehole Status (Open or Cased Hole)
BHT                .degF     103                           : Bottom Hole Temperature
BLI                .ft       6475                          : Bottom Log Interval
BS                 .in       6.75                          : Bit Size
CBDR               .ft       4355                          : Casing Bottom of Driller
CBLO               .ft       4353                          : Logger Casing Shoe Depth
CSIZ               .in       7.625                         : Current Casing Size
CWEI               .lbm/ft   11.6                          : Casing Weight
COUNTRY            .         United States                 : Nation
DCS                .         03-Dec-2018                   : Date Circulation Stopped
DFD                .lbm/gal  9.25                          : Drilling Fluid Density
DFT                .         WATER                         : Drilling Fluid Type
DLAB               .         03-Dec-2018                   : Date Logger At Bottom
EDF                .ft       618                           : Elevation of Drill Floor
EGL                .ft       603                           : Elevation of Ground Level
EKB                .ft       618                           : Elevation of Kelly Bushing
EPD                .ft       603                           : Elevation of Permanent Datum (PDAT) above Mean Sea Level
LMF                .         KB                            : Logging Measured From (Name of Logging Elevation Reference)
LUL                .         Bradford                      : Logging Unit Location
LUN                .         3703                          : Logging Unit Number
MCST               .degF     71.2                          : Mudcake Sample Temperature
MFST               .degF     69.1                          : Mud Filtrate Sample Temperature
MRT                .degF     103                           : Maximum Recorded Temperature
MST                .degF     59.2                          : Mud Sample Temperature
PDAT               .         GL                            : Permanent Datum
PRODUCER-CODE      .         440                           : 
PRODUCER-NAME      .         Schlumberger                  : 
RMB                .ohm.m    0.835368                      : Resistivity of Mud at Bottom Hole Temperature
RMCS               .ohm.m    1.55                          : Resistivity of Mud Cake Sample
RMFS               .ohm.m    1.26                          : Resistivity of Mud Filtrate Sample
RMS                .ohm.m    1.39                          : Resistivity of Mud Sample
RUN                .         2A                            : Run Number
TCS                .         08_00_00                      : Time Circulation Stopped
TDD                .ft       6469                          : Driller Total Depth
TDL                .ft       6475                          : Logger Total Depth
TLAB               .         17_50_00                      : Time Logger At Bottom
TLI                .ft       4353                          : Top Log Interval
~Parameter Information Block
#_______________________________________________________________________________
#
#PARAMETER_NAME    .UNIT     VALUE                         : DESCRIPTION
#_______________________________________________________________________________
SET                .         01_Elan                       : 
TLFamily_ALPH      .         Biot Coefficient              : 
TLFamily_BMK_DYN   .         Bulk Modulus (Dynamic)        : 
TLFamily_BMK_STA   .         Bulk Modulus (Static)         : 
TLFamily_DEN_COM_EXT .         Bulk Density                  : 
TLFamily_FANG      .         Friction Angle                : 
TLFamily_MD        .         Measured Depth                : 
TLFamily_MECH_LITHO .         Mechanical Stratigraphy Flag  : 
TLFamily_OBMW_EXT  .         Pressure Gradient             : 
TLFamily_PPRS_HP_G .         Pore Pressure                 : 
TLFamily_PR_DYN    .         Poisson Ratio (Dynamic)       : 
TLFamily_PR_STA    .         Poisson Ratio (Static)        : 
TLFamily_SHMAX_PHS .         Maximum Horizontal Stress     : 
TLFamily_SHMIN_PHS .         Minimum Horizontal Stress     : 
TLFamily_SMG_DYN   .         Shear Modulus (Dynamic)       : 
TLFamily_SMG_STA   .         Shear Modulus (Static)        : 
TLFamily_SVERTICAL_EXT .         Vertical Stress               : 
TLFamily_TSTR      .         Tensile Strength              : 
TLFamily_UCS       .         Unconfined Compressive Strength: 
TLFamily_YME_DYN   .         Young's Modulus (Dynamic)     : 
TLFamily_YME_STA   .         Young's Modulus (Static)      : 
~Curve Information
#_______________________________________________________________________________
#
#LOGNAME           .UNIT     LOG_ID                        : DESCRIPTION
#_______________________________________________________________________________
MD                 .ft                                     :  {F}
ALPH               .unitless                               : Biot coefficient {F}
BMK_DYN            .Mpsi                                   : Bulk Modulus (Dynamic) {F}
BMK_STA            .Mpsi                                   : Bulk Modulus (Static) {F}
DEN_COM_EXT        .g/cm3                                  : Composite density {F}
FANG               .deg                                    : Friction angle {F}
MECH_LITHO         .unitless                               : Lithology codes between 0 and 6 {F}
OBMW_EXT           .ppg                                    :  {F}
PPRS_HP_G          .psi                                    :  {F}
PR_DYN             .unitless                               : Poisson Ratio (Dynamic) {F}
PR_STA             .unitless                               : Static Poissons ratio {F}
SHMAX_PHS          .psi                                    : Maximum Horizontal Stress {F}
SHMIN_PHS          .psi                                    : Minimum Horizontal Stress {F}
SMG_DYN            .Mpsi                                   : Shear Modulus (Dynamic) {F}
SMG_STA            .Mpsi                                   : Shear Modulus (Static) {F}
SVERTICAL_EXT      .psi                                    :  {F}
TSTR               .Mpsi                                   : Tensile Strength {F}
UCS                .Mpsi                                   : Unconfined compressive strength {F}
YME_DYN            .Mpsi                                   : Young's Modulus (Dynamic) {F}
YME_STA            .Mpsi                                   : Static Youngs modulus {F}
~Ascii
# ...
5319.25000 1.00000    4.40881    2.10726    2.45375    42.06240   0.00000    21.57785   2419.25684 0.25709    0.12855    5389.82568 3725.20996 2.55572    2.08077    5954.51123 0.00090    0.01792    6.42556    4.69649   
5319.75000 1.00000    4.25798    1.97287    2.44075    41.79175   0.00000    21.57775   2419.48438 0.26350    0.13175    5232.45264 3691.80371 2.39103    1.92581    5955.04248 0.00082    0.01649    6.04212    4.35907   
5320.25000 1.00000    3.79055    1.76397    2.41869    40.79842   0.00000    21.57763   2419.71191 0.25520    0.12760    4991.32910 3593.17432 2.21777    1.74769    5955.57031 0.00074    0.01472    5.56750    3.94140   
5320.75000 1.00000    3.38393    1.59706    2.39378    39.56736   0.00000    21.57749   2419.93945 0.24353    0.12177    4794.48340 3502.09473 2.09374    1.61549    5956.09277 0.00067    0.01337    5.20726    3.62439   
5321.25000 1.00000    3.22171    1.55873    2.38045    39.17959   0.00000    21.57734   2420.16675 0.23277    0.11639    4746.78955 3461.31787 2.09510    1.60684    5956.61035 0.00066    0.01322    5.16558    3.58771   
5321.75000 1.00000    3.32732    1.63307    2.38688    39.35046   0.00000    21.57718   2420.39404 0.23103    0.11551    4835.54541 3484.65796 2.18098    1.68861    5957.12598 0.00070    0.01398    5.36970    3.76734   
5322.25000 1.00000    3.53181    1.72821    2.39796    39.59999   0.00000    21.57703   2420.62158 0.23630    0.11815    4949.73340 3533.27856 2.26001    1.77057    5957.64404 0.00074    0.01480    5.58809    3.95952   
5322.75000 1.00000    3.65340    1.81119    2.40044    39.86259   0.00000    21.57689   2420.84912 0.23479    0.11740    5048.80029 3560.41479 2.35400    1.86048    5958.16406 0.00078    0.01564    5.81340    4.15780   
5323.25000 1.00000    3.72775    1.87077    2.39880    40.04724   0.00000    21.57674   2421.07666 0.23247    0.11624    5120.41699 3576.79712 2.42750    1.92953    5958.68457 0.00081    0.01627    5.98365    4.30761   
5323.75000 1.00000    3.83390    1.93221    2.40495    40.28637   0.00000    21.57660   2421.30420 0.23306    0.11653    5193.90625 3601.23291 2.48996    1.99084    5959.20459 0.00084    0.01686    6.14053    4.44567   
5324.25000 1.00000    3.84351    2.00146    2.41861    40.84359   0.00000    21.57646   2421.53174 0.22286    0.11143    5280.34229 3600.96606 2.61323    2.09922    5959.72656 0.00089    0.01779    6.39121    4.66627   
5324.75000 1.00000    3.75721    2.00967    2.42780    41.40612   0.00000    21.57634   2421.75903 0.21233    0.10616    5294.54053 3577.28760 2.67466    2.14657    5960.25195 0.00091    0.01814    6.48512    4.74890   
5325.25000 1.00000    3.60251    1.95959    2.42612    41.76674   0.00000    21.57621   2421.98657 0.20345    0.10173    5236.71826 3536.57422 2.66314    2.12518    5960.77783 0.00089    0.01786    6.40992    4.68273   
5325.75000 1.00000    3.36997    1.88724    2.41470    41.60040   0.00000    21.57609   2422.21387 0.18769    0.09384    5152.25000 3470.44702 2.65846    2.10225    5961.30371 0.00088    0.01751    6.31486    4.59908   
5326.25000 1.00000    3.19571    1.82584    2.40272    41.31799   0.00000    21.57595   2422.44141 0.17561    0.08780    5078.43604 3417.97461 2.64546    2.07558    5961.82520 0.00086    0.01716    6.22004    4.51563   
5326.75000 1.00000    3.16846    1.81491    2.40016    41.17584   0.00000    21.57581   2422.66895 0.17386    0.08693    5065.25244 3409.91284 2.64090    2.06917    5962.34570 0.00085    0.01708    6.20012    4.49810   
5327.25000 1.00000    3.29027    1.85749    2.40870    40.77494   0.00000    21.57567   2422.89648 0.18270    0.09135    5117.09229 3447.81641 2.64823    2.08660    5962.86670 0.00087    0.01732    6.26409    4.55440   
5327.75000 1.00000    3.36793    1.90413    2.42404    41.20859   0.00000    21.57553   2423.12402 0.18400    0.09200    5175.63184 3468.19336 2.69661    2.13430    5963.38965 0.00089    0.01777    6.38558    4.66131   
5328.25000 1.00000    3.49164    1.95771    2.43698    41.25191   0.00000    21.57542   2423.35132 0.18999    0.09500    5240.90430 3503.07202 2.72887    2.17229    5963.91602 0.00091    0.01818    6.49465    4.75730   
5328.75000 1.00000    3.49089    1.99913    2.44957    41.00261   0.00000    21.57530   2423.57886 0.18180    0.09090    5296.57373 3497.29932 2.81979    2.24909    5964.44482 0.00094    0.01882    6.66485    4.90707   
5329.25000 1.00000    3.51949    2.04446    2.46128    40.57129   0.00000    21.57520   2423.80640 0.17672    0.08836    5356.61719 3500.79297 2.90074    2.31978    5964.97705 0.00097    0.01942    6.82671    5.04951   
5329.75000 1.00000    3.51219    2.10042    2.46777    40.47786   0.00000    21.57511   2424.03394 0.16441    0.08221    5435.35400 3489.24316 3.03666    2.43264    5965.51074 0.00102    0.02034    7.07186    5.26524   
5330.25000 1.00000    3.51988    2.14270    2.46664    40.63995   0.00000    21.57502   2424.26123 0.15682    0.07841    5495.15430 3484.75269 3.13266    2.51300    5966.04639 0.00105    0.02099    7.24782    5.42008   
5330.75000 1.00000    3.69968    2.20926    2.45939    41.48645   0.00000    21.57493   2424.48877 0.16901    0.08451    5571.94043 3540.55713 3.14252    2.53923    5966.58008 0.00107    0.02136    7.34729    5.50762   
5331.25000 1.00000    3.80623    2.23226    2.45390    42.06755   0.00000    21.57483   2424.71631 0.17863    0.08932    5594.04199 3574.22925 3.11346    2.52477    5967.11279 0.00107    0.02133    7.33924    5.50053   
5331.75000 1.00000    3.81452    2.18285    2.44507    42.11539   0.00000    21.57473   2424.94360 0.18862    0.09431    5524.92529 3582.75757 2.99781    2.42771    5967.64404 0.00103    0.02054    7.12652    5.31334   
5332.25000 1.00000    3.66915    2.06400    2.42543    41.75116   0.00000    21.57461   2425.17114 0.19244    0.09622    5374.50049 3549.90186 2.83910    2.28075    5968.17285 0.00096    0.01921    6.77091    5.00040   
5332.75000 1.00000    3.49412    1.95414    2.40225    41.36403   0.00000    21.57448   2425.39868 0.19100    0.09550    5238.39551 3506.69922 2.71958    2.16462    5968.69678 0.00091    0.01812    6.47805    4.74269   
5333.25000 1.00000    3.44428    1.92015    2.39415    40.98306   0.00000    21.57434   2425.62622 0.19110    0.09555    5196.19775 3494.90112 2.67974    2.12662    5969.21631 0.00089    0.01777    6.38368    4.65963   
5333.75000 1.00000    3.43426    1.95827    2.40491    40.95365   0.00000    21.57419   2425.85376 0.18222    0.09111    5247.50732 3486.24121 2.76942    2.20158    5969.73584 0.00092    0.01838    6.54810    4.80433   
5334.25000 1.00000    3.55200    2.01705    2.42146    41.31849   0.00000    21.57406   2426.08105 0.18642    0.09321    5319.80225 3518.45947 2.81650    2.25168    5970.25830 0.00094    0.01888    6.68308    4.92311   
5334.75000 1.00000    3.62649    2.08859    2.43340    41.78008   0.00000    21.57393   2426.30859 0.18244    0.09122    5412.02246 3534.24756 2.92186    2.34722    5970.78467 0.00099    0.01973    6.90984    5.12266   
5335.25000 1.00000    3.88822    2.15718    2.44198    41.86917   0.00000    21.57382   2426.53589 0.20169    0.10084    5486.42236 3609.20337 2.89570    2.34652    5971.31201 0.00100    0.01992    6.95944    5.16631   
5335.75000 1.00000    3.95957    2.18751    2.44604    41.95858   0.00000    21.57371   2426.76343 0.20446    0.10223    5522.32568 3627.70483 2.91472    2.36828    5971.84180 0.00101    0.02015    7.02132    5.22076   
5336.25000 1.00000    3.85252    2.18352    2.44273    41.86172   0.00000    21.57360   2426.99097 0.19304    0.09652    5525.12256 3596.81494 2.97373    2.41038    5972.37207 0.00102    0.02042    7.09552    5.28606   
5336.75000 1.00000    3.70638    2.17733    2.43624    41.65384   0.00000    21.57349   2427.21851 0.17602    0.08801    5529.25146 3550.49731 3.06324    2.47344    5972.90088 0.00104    0.02083    7.20483    5.38225   
5337.25000 1.00000    3.61743    2.17893    2.43545    41.48158   0.00000    21.57338   2427.44604 0.16359    0.08179    5540.48438 3518.86401 3.13755    2.52703    5973.42871 0.00106    0.02119    7.30164    5.46745   
