~Version
 VERS              .         3.0                           : CWLS LOG ASCII STANDARD - VERSION 3.0
 WRAP              .         NO                            : ONE LINE PER DEPTH STEP
 DLM               .         SPACE                         : DELIMITING CHARACTER(SPACE TAB OR COMMA)
~Well Information
#_______________________________________________________________________________
#
#PARAMETER_NAME    .UNIT     VALUE                         : DESCRIPTION
#_______________________________________________________________________________
STRT               .ft       4357.25000                    : First reference value
STOP               .ft       6466.75000                    : Last reference value
STEP               .ft       0.50000                       : Step increment
NULL               .         -9999                         : Missing value
COMP               .         Podolsky Oil Company          : Company
WELL               .         T_R_ McMillen #2              : Well name
FLD                .         Mount Auburn                  : Field
LOC                .                                       : Location
SRVC               .                                       : Service Company
CTRY               .         US                            : Country
STAT               .         Illinois                      : State
CNTY               .                                       : County
API                .                                       : API NUMBER
DATE               .         03-Dec-2018                   : Service Date
LATI               .         39.772784 degrees             : Latitude
LONG               .         -89.203412 degrees            : Longitude
GDAT               .                                       : Geodetic Datum
APD                .ft       15                            : Elevation of Depth Reference (LMF) Above Permanent Datum
BHS                .         OPEN                          : Borehole Status (Open or Cased Hole)
BHT                .degF     103                           : Bottom Hole Temperature
BLI                .ft       6475                          : Bottom Log Interval
BS                 .in       6.75                          : Bit Size
CBDR               .ft       4355                          : Casing Bottom of Driller
CBLO               .ft       4353                          : Logger Casing Shoe Depth
CSIZ               .in       7.625                         : Current Casing Size
CWEI               .lbm/ft   11.6                          : Casing Weight
COUNTRY            .         United States                 : Nation
DCS                .         03-Dec-2018                   : Date Circulation Stopped
DFD                .lbm/gal  9.25                          : Drilling Fluid Density
DFT                .         WATER                         : Drilling Fluid Type
DLAB               .         03-Dec-2018                   : Date Logger At Bottom
EDF                .ft       618                           : Elevation of Drill Floor
EGL                .ft       603                           : Elevation of Ground Level
EKB                .ft       618                           : Elevation of Kelly Bushing
EPD                .ft       603                           : Elevation of Permanent Datum (PDAT) above Mean Sea Level
LMF                .         KB                            : Logging Measured From (Name of Logging Elevation Reference)
LUL                .         Bradford                      : Logging Unit Location
LUN                .         3703                          : Logging Unit Number
MCST               .degF     71.2                          : Mudcake Sample Temperature
MFST               .degF     69.1                          : Mud Filtrate Sample Temperature
MRT                .degF     103                           : Maximum Recorded Temperature
MST                .degF     59.2                          : Mud Sample Temperature
PDAT               .         GL                            : Permanent Datum
PRODUCER-CODE      .         440                           : 
PRODUCER-NAME      .         Schlumberger                  : 
RMB                .ohm.m    0.835368                      : Resistivity of Mud at Bottom Hole Temperature
RMCS               .ohm.m    1.55                          : Resistivity of Mud Cake Sample
RMFS               .ohm.m    1.26                          : Resistivity of Mud Filtrate Sample
RMS                .ohm.m    1.39                          : Resistivity of Mud Sample
RUN                .         2A                            : Run Number
TCS                .         08_00_00                      : Time Circulation Stopped
TDD                .ft       6469                          : Driller Total Depth
TDL                .ft       6475                          : Logger Total Depth
TLAB               .         17_50_00                      : Time Logger At Bottom
TLI                .ft       4353                          : Top Log Interval
~Parameter Information Block
#_______________________________________________________________________________
#
#PARAMETER_NAME    .UNIT     VALUE                         : DESCRIPTION
#_______________________________________________________________________________
SET                .         01_Elan                       : 
TLFamily_ALPH      .         Biot Coefficient              : 
TLFamily_BMK_DYN   .         Bulk Modulus (Dynamic)        : 
TLFamily_BMK_STA   .         Bulk Modulus (Static)         : 
TLFamily_DEN_COM_EXT .         Bulk Density                  : 
TLFamily_FANG      .         Friction Angle                : 
TLFamily_MD        .         Measured Depth                : 
TLFamily_MECH_LITHO .         Mechanical Stratigraphy Flag  : 
TLFamily_OBMW_EXT  .         Pressure Gradient             : 
TLFamily_PPRS_HP_G .         Pore Pressure                 : 
TLFamily_PR_DYN    .         Poisson Ratio (Dynamic)       : 
TLFamily_PR_STA    .         Poisson Ratio (Static)        : 
TLFamily_SHMAX_PHS .         Maximum Horizontal Stress     : 
TLFamily_SHMIN_PHS .         Minimum Horizontal Stress     : 
TLFamily_SMG_DYN   .         Shear Modulus (Dynamic)       : 
TLFamily_SMG_STA   .         Shear Modulus (Static)        : 
TLFamily_SVERTICAL_EXT .         Vertical Stress               : 
TLFamily_TSTR      .         Tensile Strength              : 
TLFamily_UCS       .         Unconfined Compressive Strength: 
TLFamily_YME_DYN   .         Young's Modulus (Dynamic)     : 
TLFamily_YME_STA   .         Young's Modulus (Static)      : 
~Curve Information
#_______________________________________________________________________________
#
#LOGNAME           .UNIT     LOG_ID                        : DESCRIPTION
#_______________________________________________________________________________
MD                 .ft                                     :  {F}
ALPH               .unitless                               : Biot coefficient {F}
BMK_DYN            .Mpsi                                   : Bulk Modulus (Dynamic) {F}
BMK_STA            .Mpsi                                   : Bulk Modulus (Static) {F}
DEN_COM_EXT        .g/cm3                                  : Composite density {F}
FANG               .deg                                    : Friction angle {F}
MECH_LITHO         .unitless                               : Lithology codes between 0 and 6 {F}
OBMW_EXT           .ppg                                    :  {F}
PPRS_HP_G          .psi                                    :  {F}
PR_DYN             .unitless                               : Poisson Ratio (Dynamic) {F}
PR_STA             .unitless                               : Static Poissons ratio {F}
SHMAX_PHS          .psi                                    : Maximum Horizontal Stress {F}
SHMIN_PHS          .psi                                    : Minimum Horizontal Stress {F}
SMG_DYN            .Mpsi                                   : Shear Modulus (Dynamic) {F}
SMG_STA            .Mpsi                                   : Shear Modulus (Static) {F}
SVERTICAL_EXT      .psi                                    :  {F}
TSTR               .Mpsi                                   : Tensile Strength {F}
UCS                .Mpsi                                   : Unconfined compressive strength {F}
YME_DYN            .Mpsi                                   : Young's Modulus (Dynamic) {F}
YME_STA            .Mpsi                                   : Static Youngs modulus {F}
~Ascii
# ...
4634.75000 1.00000    5.95247    2.72215    2.66208    41.48224   0.00000    21.63228   2107.96362 0.28329    0.14165    5689.44922 3638.73413 3.01558    2.56339    5201.41357 0.00114    0.02283    7.73974    5.85297   
4635.25000 1.00000    6.16496    2.76060    2.65944    42.47165   0.00000    21.63235   2108.19092 0.28990    0.14495    5723.29297 3668.74243 3.01243    2.56819    5201.98975 0.00115    0.02295    7.77147    5.88090   
4635.75000 1.00000    6.55307    2.83677    2.66670    43.18990   0.00000    21.63241   2108.41797 0.30018    0.15009    5792.74658 3721.38110 3.02127    2.58921    5202.56592 0.00116    0.02326    7.85643    5.95565   
4636.25000 1.00000    7.17850    2.94971    2.67873    43.58122   0.00000    21.63248   2108.64502 0.31473    0.15737    5893.40869 3797.61719 3.03466    2.61974    5203.14355 0.00119    0.02372    7.97955    6.06400   
4636.75000 1.00000    7.49033    3.00088    2.68770    43.73903   0.00000    21.63256   2108.87256 0.32128    0.16064    5938.00146 3832.16138 3.03954    2.63230    5203.72461 0.00120    0.02392    8.03216    6.11030   
4637.25000 1.00000    7.05418    2.88086    2.68106    43.37421   0.00000    21.63265   2109.09961 0.31543    0.15772    5818.03906 3773.86572 2.96931    2.55522    5204.30615 0.00115    0.02310    7.81185    5.91643   
4637.75000 1.00000    6.23870    2.59959    2.66102    42.47800   0.00000    21.63273   2109.32666 0.30680    0.15340    5523.34961 3648.50342 2.76705    2.34356    5204.88525 0.00105    0.02093    7.23195    5.40612   
4638.25000 1.00000    5.52684    2.27755    2.63608    41.12252   0.00000    21.63279   2109.55420 0.30427    0.15214    5172.24707 3521.86646 2.48818    2.06298    5205.45996 0.00091    0.01817    6.49052    4.75366   
4638.75000 1.00000    4.90479    1.98499    2.61472    39.73460   0.00000    21.63282   2109.78125 0.30266    0.15133    4851.19043 3408.44971 2.22913    1.80343    5206.02881 0.00078    0.01562    5.80758    4.15267   
4639.25000 1.00000    4.59165    2.91909    2.59828    38.47077   1.00000    21.63284   2110.00830 0.30933    0.29077    5497.44238 4361.83545 2.00593    1.41951    5206.59326 0.00075    0.01504    5.25287    3.66453   
4639.75000 1.00000    4.56975    2.85422    2.58841    37.51793   1.00000    21.63284   2110.23584 0.31673    0.29773    5436.78418 4369.06641 1.90814    1.33465    5207.15479 0.00071    0.01419    5.02501    3.46401   
4640.25000 1.00000    4.77017    2.93480    2.59159    37.05250   1.00000    21.63284   2110.46289 0.32786    0.30819    5471.25879 4438.53076 1.85513    1.29091    5207.71533 0.00069    0.01383    4.92672    3.37752   
4640.75000 1.00000    4.86266    2.95824    2.60504    36.66955   1.00000    21.63284   2110.68994 0.33421    0.31416    5474.44385 4470.44238 1.81267    1.25500    5208.27686 0.00067    0.01349    4.83699    3.29855   
4641.25000 1.00000    4.56492    2.76656    2.61889    36.18790   1.00000    21.63286   2110.91748 0.32870    0.30897    5357.17188 4388.19482 1.76562    1.21122    5208.84229 0.00065    0.01295    4.69195    3.17091   
4641.75000 1.00000    3.93259    2.38889    2.62683    35.15823   1.00000    21.63289   2111.14453 0.30962    0.29104    5114.40430 4186.45850 1.71504    1.15993    5209.40967 0.00061    0.01220    4.49210    2.99505   
4642.25000 1.00000    3.48139    2.10978    2.62957    33.15260   1.00000    21.63293   2111.37158 0.29364    0.27602    4911.99805 4023.20923 1.66605    1.11099    5209.97852 0.00058    0.01153    4.31055    2.83528   
4642.75000 1.00000    3.39966    2.04739    2.63314    32.05056   1.00000    21.63296   2111.59912 0.29283    0.27526    4864.37158 3998.40112 1.63438    1.08246    5210.54785 0.00056    0.01121    4.22595    2.76083   
4643.25000 1.00000    3.57912    2.14003    2.63879    31.34574   1.00000    21.63301   2111.82617 0.30328    0.28508    4935.18311 4076.23413 1.62071    1.07369    5211.11865 0.00056    0.01121    4.22449    2.75955   
4643.75000 1.00000    3.68196    2.16050    2.62382    30.67548   1.00000    21.63305   2112.05322 0.31436    0.29550    4950.29346 4131.79688 1.56008    1.02312    5211.68994 0.00054    0.01075    4.10103    2.65091   
4644.25000 1.00000    3.48078    1.98427    2.59633    30.41788   1.00000    21.63307   2112.28076 0.31701    0.29799    4826.52832 4085.37915 1.45086    0.92644    5212.25537 0.00049    0.00970    3.82161    2.40502   
4644.75000 1.00000    3.17731    1.73778    2.57711    29.35302   1.00000    21.63307   2112.50781 0.31781    0.29874    4654.13965 4007.83545 1.31781    0.80788    5212.81592 0.00042    0.00840    3.47325    2.09846   
4645.25000 1.00000    2.95139    1.57290    2.58317    28.58345   1.00000    21.63305   2112.73486 0.31510    0.29619    4534.24854 3940.68286 1.24491    0.74196    5213.37305 0.00038    0.00766    3.27436    1.92343   
4645.75000 1.00000    2.91709    1.55696    2.59623    27.94055   1.00000    21.63305   2112.96240 0.31298    0.29420    4519.82227 3925.62720 1.24652    0.74274    5213.93408 0.00038    0.00766    3.27332    1.92252   
4646.25000 1.00000    3.01588    1.66511    2.59840    28.20643   1.00000    21.63306   2113.18945 0.30747    0.28902    4590.35400 3936.27271 1.33230    0.81760    5214.49609 0.00042    0.00844    3.48388    2.10781   
4646.75000 1.00000    3.36738    1.95531    2.60860    29.02391   1.00000    21.63307   2113.41650 0.30598    0.28763    4801.97803 4027.98267 1.50076    0.96749    5215.05908 0.00050    0.01007    3.91993    2.49154   
4647.25000 1.00000    4.01068    2.49360    2.63335    30.46378   1.00000    21.63309   2113.64380 0.30220    0.28407    5201.41650 4195.02393 1.82763    1.25799    5215.62549 0.00066    0.01320    4.75988    3.23069   
4647.75000 1.00000    4.87068    3.20161    2.66941    32.10712   1.00000    21.63314   2113.87085 0.29971    0.28172    5736.23047 4427.67090 2.25183    1.63570    5216.19775 0.00086    0.01729    5.85344    4.19303   
4648.25000 1.00000    5.72180    3.80432    2.69643    33.30762   1.00000    21.63322   2114.09814 0.31235    0.29361    6132.81885 4676.13379 2.45437    1.82086    5216.77783 0.00097    0.01948    6.44201    4.71097   
4648.75000 1.00000    5.96273    3.94159    2.70364    33.40889   1.00000    21.63332   2114.32520 0.31978    0.30060    6195.93506 4745.58350 2.44264    1.81294    5217.36279 0.00098    0.01950    6.44750    4.71580   
4649.25000 1.00000    5.29036    3.40175    2.68279    33.53544   1.00000    21.63342   2114.55273 0.32048    0.30125    5817.65283 4570.66650 2.15771    1.55873    5217.94775 0.00084    0.01671    5.69841    4.05660   
4649.75000 1.00000    4.47518    2.77390    2.64874    33.62690   1.00000    21.63350   2114.77979 0.31748    0.29843    5386.34277 4352.83105 1.85998    1.29189    5218.52588 0.00069    0.01373    4.90096    3.35485   
4650.25000 1.00000    4.18131    2.55975    2.62745    33.52306   1.00000    21.63354   2115.00684 0.31431    0.29545    5239.41016 4269.36719 1.77228    1.21255    5219.09717 0.00064    0.01283    4.65864    3.14160   
4650.75000 1.00000    4.64485    2.88935    2.64260    33.84482   1.00000    21.63357   2115.23438 0.32038    0.30116    5462.71631 4402.98145 1.89563    1.32467    5219.66602 0.00071    0.01412    5.00591    3.44720   
4651.25000 1.00000    5.91838    3.82036    2.68937    34.71569   1.00000    21.63363   2115.46143 0.33038    0.31056    6066.21533 4740.86475 2.26369    1.65669    5220.24072 0.00090    0.01792    6.02316    4.34238   
4651.75000 1.00000    7.20505    4.82274    2.73052    35.82625   1.00000    21.63374   2115.68848 0.33158    0.31168    6727.64014 5065.90186 2.73393    2.07717    5220.82617 0.00113    0.02262    7.28090    5.44919   
4652.25000 1.00000    7.06898    4.78324    2.73967    36.93364   1.00000    21.63387   2115.91602 0.32420    0.30475    6754.07129 5036.13135 2.81546    2.14743    5221.41943 0.00116    0.02327    7.45646    5.60369   
4652.75000 1.00000    6.45035    4.38068    2.72082    37.77273   1.00000    21.63400   2116.14307 0.31322    0.29443    6544.42822 4874.74365 2.75226    2.08711    5222.01172 0.00112    0.02242    7.22866    5.40322   
