~Version
 VERS              .         3.0                           : CWLS LOG ASCII STANDARD - VERSION 3.0
 WRAP              .         NO                            : ONE LINE PER DEPTH STEP
 DLM               .         SPACE                         : DELIMITING CHARACTER(SPACE TAB OR COMMA)
~Well Information
#_______________________________________________________________________________
#
#PARAMETER_NAME    .UNIT     VALUE                         : DESCRIPTION
#_______________________________________________________________________________
STRT               .ft       4357.25000                    : First reference value
STOP               .ft       6466.75000                    : Last reference value
STEP               .ft       0.50000                       : Step increment
NULL               .         -9999                         : Missing value
COMP               .         Podolsky Oil Company          : Company
WELL               .         T_R_ McMillen #2              : Well name
FLD                .         Mount Auburn                  : Field
LOC                .                                       : Location
SRVC               .                                       : Service Company
CTRY               .         US                            : Country
STAT               .         Illinois                      : State
CNTY               .                                       : County
API                .                                       : API NUMBER
DATE               .         03-Dec-2018                   : Service Date
LATI               .         39.772784 degrees             : Latitude
LONG               .         -89.203412 degrees            : Longitude
GDAT               .                                       : Geodetic Datum
APD                .ft       15                            : Elevation of Depth Reference (LMF) Above Permanent Datum
BHS                .         OPEN                          : Borehole Status (Open or Cased Hole)
BHT                .degF     103                           : Bottom Hole Temperature
BLI                .ft       6475                          : Bottom Log Interval
BS                 .in       6.75                          : Bit Size
CBDR               .ft       4355                          : Casing Bottom of Driller
CBLO               .ft       4353                          : Logger Casing Shoe Depth
CSIZ               .in       7.625                         : Current Casing Size
CWEI               .lbm/ft   11.6                          : Casing Weight
COUNTRY            .         United States                 : Nation
DCS                .         03-Dec-2018                   : Date Circulation Stopped
DFD                .lbm/gal  9.25                          : Drilling Fluid Density
DFT                .         WATER                         : Drilling Fluid Type
DLAB               .         03-Dec-2018                   : Date Logger At Bottom
EDF                .ft       618                           : Elevation of Drill Floor
EGL                .ft       603                           : Elevation of Ground Level
EKB                .ft       618                           : Elevation of Kelly Bushing
EPD                .ft       603                           : Elevation of Permanent Datum (PDAT) above Mean Sea Level
LMF                .         KB                            : Logging Measured From (Name of Logging Elevation Reference)
LUL                .         Bradford                      : Logging Unit Location
LUN                .         3703                          : Logging Unit Number
MCST               .degF     71.2                          : Mudcake Sample Temperature
MFST               .degF     69.1                          : Mud Filtrate Sample Temperature
MRT                .degF     103                           : Maximum Recorded Temperature
MST                .degF     59.2                          : Mud Sample Temperature
PDAT               .         GL                            : Permanent Datum
PRODUCER-CODE      .         440                           : 
PRODUCER-NAME      .         Schlumberger                  : 
RMB                .ohm.m    0.835368                      : Resistivity of Mud at Bottom Hole Temperature
RMCS               .ohm.m    1.55                          : Resistivity of Mud Cake Sample
RMFS               .ohm.m    1.26                          : Resistivity of Mud Filtrate Sample
RMS                .ohm.m    1.39                          : Resistivity of Mud Sample
RUN                .         2A                            : Run Number
TCS                .         08_00_00                      : Time Circulation Stopped
TDD                .ft       6469                          : Driller Total Depth
TDL                .ft       6475                          : Logger Total Depth
TLAB               .         17_50_00                      : Time Logger At Bottom
TLI                .ft       4353                          : Top Log Interval
~Parameter Information Block
#_______________________________________________________________________________
#
#PARAMETER_NAME    .UNIT     VALUE                         : DESCRIPTION
#_______________________________________________________________________________
SET                .         01_Elan                       : 
TLFamily_ALPH      .         Biot Coefficient              : 
TLFamily_BMK_DYN   .         Bulk Modulus (Dynamic)        : 
TLFamily_BMK_STA   .         Bulk Modulus (Static)         : 
TLFamily_DEN_COM_EXT .         Bulk Density                  : 
TLFamily_FANG      .         Friction Angle                : 
TLFamily_MD        .         Measured Depth                : 
TLFamily_MECH_LITHO .         Mechanical Stratigraphy Flag  : 
TLFamily_OBMW_EXT  .         Pressure Gradient             : 
TLFamily_PPRS_HP_G .         Pore Pressure                 : 
TLFamily_PR_DYN    .         Poisson Ratio (Dynamic)       : 
TLFamily_PR_STA    .         Poisson Ratio (Static)        : 
TLFamily_SHMAX_PHS .         Maximum Horizontal Stress     : 
TLFamily_SHMIN_PHS .         Minimum Horizontal Stress     : 
TLFamily_SMG_DYN   .         Shear Modulus (Dynamic)       : 
TLFamily_SMG_STA   .         Shear Modulus (Static)        : 
TLFamily_SVERTICAL_EXT .         Vertical Stress               : 
TLFamily_TSTR      .         Tensile Strength              : 
TLFamily_UCS       .         Unconfined Compressive Strength: 
TLFamily_YME_DYN   .         Young's Modulus (Dynamic)     : 
TLFamily_YME_STA   .         Young's Modulus (Static)      : 
~Curve Information
#_______________________________________________________________________________
#
#LOGNAME           .UNIT     LOG_ID                        : DESCRIPTION
#_______________________________________________________________________________
MD                 .ft                                     :  {F}
ALPH               .unitless                               : Biot coefficient {F}
BMK_DYN            .Mpsi                                   : Bulk Modulus (Dynamic) {F}
BMK_STA            .Mpsi                                   : Bulk Modulus (Static) {F}
DEN_COM_EXT        .g/cm3                                  : Composite density {F}
FANG               .deg                                    : Friction angle {F}
MECH_LITHO         .unitless                               : Lithology codes between 0 and 6 {F}
OBMW_EXT           .ppg                                    :  {F}
PPRS_HP_G          .psi                                    :  {F}
PR_DYN             .unitless                               : Poisson Ratio (Dynamic) {F}
PR_STA             .unitless                               : Static Poissons ratio {F}
SHMAX_PHS          .psi                                    : Maximum Horizontal Stress {F}
SHMIN_PHS          .psi                                    : Minimum Horizontal Stress {F}
SMG_DYN            .Mpsi                                   : Shear Modulus (Dynamic) {F}
SMG_STA            .Mpsi                                   : Shear Modulus (Static) {F}
SVERTICAL_EXT      .psi                                    :  {F}
TSTR               .Mpsi                                   : Tensile Strength {F}
UCS                .Mpsi                                   : Unconfined compressive strength {F}
YME_DYN            .Mpsi                                   : Young's Modulus (Dynamic) {F}
YME_STA            .Mpsi                                   : Static Youngs modulus {F}
~Ascii
# ...
6281.25000 1.00000    2.73909    0.95133    2.29199    33.64377   0.00000    21.34512   2856.89453 0.29455    0.14727    4624.11816 3922.15747 1.30414    0.87745    6955.82617 0.00033    0.00654    3.37654    2.01335   
6281.75000 1.00000    2.81735    0.99010    2.30765    33.61769   0.00000    21.34495   2857.12183 0.29478    0.14739    4667.93115 3937.68188 1.33960    0.91281    6956.32471 0.00034    0.00689    3.46898    2.09471   
6282.25000 1.00000    2.84352    0.99249    2.30565    33.57266   0.00000    21.34479   2857.34937 0.29672    0.14836    4673.83057 3944.44116 1.33729    0.91174    6956.82520 0.00034    0.00688    3.46819    2.09400   
6282.75000 1.00000    2.82109    0.96301    2.29429    33.69378   0.00000    21.34462   2857.57690 0.29990    0.14995    4646.36523 3942.81445 1.30282    0.87944    6957.32422 0.00033    0.00658    3.38707    2.02262   
6283.25000 1.00000    2.74222    0.91809    2.27960    33.76288   0.00000    21.34444   2857.80444 0.30084    0.15042    4598.47803 3928.91748 1.25954    0.83695    6957.82031 0.00031    0.00617    3.27692    1.92569   
6283.75000 1.00000    2.61664    0.86911    2.26215    33.59151   0.00000    21.34425   2858.03198 0.29822    0.14911    4540.16211 3903.22168 1.22011    0.79618    6958.31348 0.00029    0.00576    3.16794    1.82979   
6284.25000 1.00000    2.49186    0.83064    2.24172    33.28057   0.00000    21.34406   2858.25952 0.29335    0.14667    4489.29785 3875.02612 1.19445    0.76784    6958.80225 0.00027    0.00547    3.08969    1.76092   
6284.75000 1.00000    2.41421    0.81044    2.22457    33.13040   0.00000    21.34384   2858.48682 0.28929    0.14464    4459.92285 3856.07202 1.18370    0.75481    6959.28662 0.00027    0.00533    3.05225    1.72798   
6285.25000 1.00000    2.39751    0.82118    2.22023    33.20069   0.00000    21.34362   2858.71436 0.28522    0.14261    4465.19434 3848.74951 1.20199    0.77056    6959.76855 0.00027    0.00547    3.08965    1.76089   
6285.75000 1.00000    2.50169    0.86297    2.23334    33.68890   0.00000    21.34340   2858.94189 0.28791    0.14395    4516.99316 3872.37231 1.23595    0.80578    6960.25000 0.00029    0.00582    3.18357    1.84354   
6286.25000 1.00000    2.71530    0.94784    2.26821    34.59246   0.00000    21.34319   2859.16943 0.29294    0.14647    4620.42871 3918.95972 1.30452    0.87684    6960.73633 0.00033    0.00653    3.37334    2.01054   
6286.75000 1.00000    2.93722    1.05121    2.31306    35.48061   0.00000    21.34301   2859.39697 0.29483    0.14742    4738.75928 3963.50732 1.39622    0.96907    6961.23145 0.00037    0.00743    3.61573    2.22384   
6287.25000 1.00000    2.96897    1.13734    2.33898    35.94229   0.00000    21.34286   2859.62451 0.28278    0.14139    4818.98486 3961.37451 1.50825    1.07201    6961.73584 0.00042    0.00838    3.86951    2.44717   
6287.75000 1.00000    2.85894    1.12649    2.32980    35.50281   0.00000    21.34271   2859.85205 0.27400    0.13700    4795.57471 3932.42627 1.52147    1.07894    6962.24268 0.00042    0.00841    3.87671    2.45350   
6288.25000 1.00000    2.78895    1.05393    2.29838    34.91006   0.00000    21.34256   2860.07935 0.28045    0.14022    4722.08594 3923.97095 1.43464    0.99764    6962.74512 0.00038    0.00765    3.67395    2.27507   
6288.75000 1.00000    2.76985    0.99767    2.27040    34.44664   0.00000    21.34238   2860.30688 0.28898    0.14449    4671.41016 3927.64185 1.36035    0.92971    6963.24121 0.00035    0.00703    3.50692    2.12809   
6289.25000 1.00000    2.78555    0.97794    2.25489    34.43074   0.00000    21.34219   2860.53442 0.29404    0.14702    4657.35205 3935.07739 1.33003    0.90284    6963.73193 0.00034    0.00679    3.44223    2.07116   
6289.75000 1.00000    2.78971    0.98239    2.24975    34.77733   0.00000    21.34199   2860.76196 0.29363    0.14681    4661.94434 3935.82373 1.33513    0.90765    6964.22021 0.00034    0.00683    3.45433    2.08181   
6290.25000 1.00000    2.81162    0.99183    2.25417    35.06850   0.00000    21.34178   2860.98950 0.29395    0.14698    4673.23438 3940.58105 1.34315    0.91582    6964.70801 0.00035    0.00691    3.47595    2.10084   
6290.75000 1.00000    2.83849    1.01398    2.26669    35.02847   0.00000    21.34159   2861.21680 0.29247    0.14624    4695.97217 3944.90039 1.36730    0.93884    6965.19775 0.00036    0.00713    3.53439    2.15226   
6291.25000 1.00000    2.85884    1.03958    2.28116    34.60851   0.00000    21.34140   2861.44434 0.28980    0.14490    4720.92383 3947.07397 1.39775    0.96731    6965.68994 0.00037    0.00740    3.60562    2.21495   
6291.75000 1.00000    2.87595    1.05939    2.29406    34.37370   0.00000    21.34122   2861.67188 0.28786    0.14393    4740.61621 3949.21240 1.42117    0.98925    6966.18555 0.00038    0.00760    3.66055    2.26328   
6292.25000 1.00000    2.88913    1.06513    2.29973    34.90126   0.00000    21.34105   2861.89941 0.28807    0.14404    4747.62256 3952.23657 1.42605    0.99423    6966.68311 0.00038    0.00765    3.67372    2.27488   
6292.75000 1.00000    2.90426    1.06247    2.29913    34.66072   0.00000    21.34088   2862.12695 0.28993    0.14497    4747.56348 3956.87329 1.41889    0.98836    6967.18164 0.00038    0.00760    3.66055    2.26328   
6293.25000 1.00000    2.93331    1.05584    2.30113    34.21655   0.00000    21.34071   2862.35449 0.29369    0.14685    4745.82422 3965.51489 1.40333    0.97539    6967.67969 0.00037    0.00749    3.63095    2.23724   
6293.75000 1.00000    2.95198    1.05366    2.30788    33.58284   0.00000    21.34054   2862.58203 0.29570    0.14785    4746.58154 3970.77930 1.39634    0.96975    6968.17969 0.00037    0.00744    3.61848    2.22626   
6294.25000 1.00000    2.93609    1.05242    2.31458    33.69464   0.00000    21.34038   2862.80933 0.29453    0.14726    4743.77246 3967.18555 1.39810    0.97073    6968.68018 0.00037    0.00745    3.61974    2.22737   
6294.75000 1.00000    2.89628    1.05119    2.31750    33.89924   0.00000    21.34022   2863.03687 0.29118    0.14559    4737.83105 3957.34155 1.40521    0.97561    6969.18262 0.00037    0.00748    3.62876    2.23531   
6295.25000 1.00000    2.87500    1.05983    2.32167    34.02829   0.00000    21.34006   2863.26440 0.28770    0.14385    4742.79004 3950.80786 1.42201    0.98998    6969.68457 0.00038    0.00761    3.66224    2.26477   
6295.75000 1.00000    2.90340    1.08141    2.32712    34.04134   0.00000    21.33991   2863.49194 0.28651    0.14326    4765.64160 3955.77466 1.44538    1.01233    6970.18848 0.00039    0.00782    3.71900    2.31472   
6296.25000 1.00000    2.93253    1.11618    2.33322    33.93110   0.00000    21.33976   2863.71948 0.28309    0.14154    4800.39941 3959.22485 1.48726    1.05147    6970.69336 0.00041    0.00818    3.81659    2.40060   
6296.75000 1.00000    2.92874    1.14826    2.33570    33.94474   0.00000    21.33961   2863.94702 0.27699    0.13849    4829.04541 3953.99048 1.53442    1.09382    6971.19971 0.00043    0.00857    3.91888    2.49061   
6297.25000 1.00000    2.88290    1.15326    2.33245    34.18526   0.00000    21.33947   2864.17432 0.27147    0.13574    4828.06787 3940.34790 1.55445    1.10965    6971.70557 0.00043    0.00869    3.95289    2.52054   
6297.75000 1.00000    2.81645    1.14134    2.32455    34.45858   0.00000    21.33932   2864.40186 0.26675    0.13337    4808.75781 3922.66699 1.55583    1.10761    6972.21094 0.00043    0.00865    3.94168    2.51068   
6298.25000 1.00000    2.75239    1.13083    2.31780    34.47340   0.00000    21.33917   2864.62939 0.26174    0.13087    4790.64746 3904.76733 1.55924    1.10735    6972.71387 0.00043    0.00862    3.93470    2.50454   
6298.75000 1.00000    2.76776    1.14960    2.31843    34.67533   0.00000    21.33901   2864.85693 0.25975    0.12987    4810.18359 3906.37134 1.58355    1.12977    6973.21631 0.00044    0.00883    3.98976    2.55298   
6299.25000 1.00000    2.91966    1.20489    2.33297    35.60707   0.00000    21.33885   2865.08447 0.26567    0.13284    4881.37354 3944.12988 1.62165    1.17155    6973.71973 0.00046    0.00926    4.10495    2.65436   
