~Version
 VERS              .         3.0                           : CWLS LOG ASCII STANDARD - VERSION 3.0
 WRAP              .         NO                            : ONE LINE PER DEPTH STEP
 DLM               .         SPACE                         : DELIMITING CHARACTER(SPACE TAB OR COMMA)
~Well Information
#_______________________________________________________________________________
#
#PARAMETER_NAME    .UNIT     VALUE                         : DESCRIPTION
#_______________________________________________________________________________
STRT               .ft       4357.25000                    : First reference value
STOP               .ft       6466.75000                    : Last reference value
STEP               .ft       0.50000                       : Step increment
NULL               .         -9999                         : Missing value
COMP               .         Podolsky Oil Company          : Company
WELL               .         T_R_ McMillen #2              : Well name
FLD                .         Mount Auburn                  : Field
LOC                .                                       : Location
SRVC               .                                       : Service Company
CTRY               .         US                            : Country
STAT               .         Illinois                      : State
CNTY               .                                       : County
API                .                                       : API NUMBER
DATE               .         03-Dec-2018                   : Service Date
LATI               .         39.772784 degrees             : Latitude
LONG               .         -89.203412 degrees            : Longitude
GDAT               .                                       : Geodetic Datum
APD                .ft       15                            : Elevation of Depth Reference (LMF) Above Permanent Datum
BHS                .         OPEN                          : Borehole Status (Open or Cased Hole)
BHT                .degF     103                           : Bottom Hole Temperature
BLI                .ft       6475                          : Bottom Log Interval
BS                 .in       6.75                          : Bit Size
CBDR               .ft       4355                          : Casing Bottom of Driller
CBLO               .ft       4353                          : Logger Casing Shoe Depth
CSIZ               .in       7.625                         : Current Casing Size
CWEI               .lbm/ft   11.6                          : Casing Weight
COUNTRY            .         United States                 : Nation
DCS                .         03-Dec-2018                   : Date Circulation Stopped
DFD                .lbm/gal  9.25                          : Drilling Fluid Density
DFT                .         WATER                         : Drilling Fluid Type
DLAB               .         03-Dec-2018                   : Date Logger At Bottom
EDF                .ft       618                           : Elevation of Drill Floor
EGL                .ft       603                           : Elevation of Ground Level
EKB                .ft       618                           : Elevation of Kelly Bushing
EPD                .ft       603                           : Elevation of Permanent Datum (PDAT) above Mean Sea Level
LMF                .         KB                            : Logging Measured From (Name of Logging Elevation Reference)
LUL                .         Bradford                      : Logging Unit Location
LUN                .         3703                          : Logging Unit Number
MCST               .degF     71.2                          : Mudcake Sample Temperature
MFST               .degF     69.1                          : Mud Filtrate Sample Temperature
MRT                .degF     103                           : Maximum Recorded Temperature
MST                .degF     59.2                          : Mud Sample Temperature
PDAT               .         GL                            : Permanent Datum
PRODUCER-CODE      .         440                           : 
PRODUCER-NAME      .         Schlumberger                  : 
RMB                .ohm.m    0.835368                      : Resistivity of Mud at Bottom Hole Temperature
RMCS               .ohm.m    1.55                          : Resistivity of Mud Cake Sample
RMFS               .ohm.m    1.26                          : Resistivity of Mud Filtrate Sample
RMS                .ohm.m    1.39                          : Resistivity of Mud Sample
RUN                .         2A                            : Run Number
TCS                .         08_00_00                      : Time Circulation Stopped
TDD                .ft       6469                          : Driller Total Depth
TDL                .ft       6475                          : Logger Total Depth
TLAB               .         17_50_00                      : Time Logger At Bottom
TLI                .ft       4353                          : Top Log Interval
~Parameter Information Block
#_______________________________________________________________________________
#
#PARAMETER_NAME    .UNIT     VALUE                         : DESCRIPTION
#_______________________________________________________________________________
SET                .         01_Elan                       : 
TLFamily_ALPH      .         Biot Coefficient              : 
TLFamily_BMK_DYN   .         Bulk Modulus (Dynamic)        : 
TLFamily_BMK_STA   .         Bulk Modulus (Static)         : 
TLFamily_DEN_COM_EXT .         Bulk Density                  : 
TLFamily_FANG      .         Friction Angle                : 
TLFamily_MD        .         Measured Depth                : 
TLFamily_MECH_LITHO .         Mechanical Stratigraphy Flag  : 
TLFamily_OBMW_EXT  .         Pressure Gradient             : 
TLFamily_PPRS_HP_G .         Pore Pressure                 : 
TLFamily_PR_DYN    .         Poisson Ratio (Dynamic)       : 
TLFamily_PR_STA    .         Poisson Ratio (Static)        : 
TLFamily_SHMAX_PHS .         Maximum Horizontal Stress     : 
TLFamily_SHMIN_PHS .         Minimum Horizontal Stress     : 
TLFamily_SMG_DYN   .         Shear Modulus (Dynamic)       : 
TLFamily_SMG_STA   .         Shear Modulus (Static)        : 
TLFamily_SVERTICAL_EXT .         Vertical Stress               : 
TLFamily_TSTR      .         Tensile Strength              : 
TLFamily_UCS       .         Unconfined Compressive Strength: 
TLFamily_YME_DYN   .         Young's Modulus (Dynamic)     : 
TLFamily_YME_STA   .         Young's Modulus (Static)      : 
~Curve Information
#_______________________________________________________________________________
#
#LOGNAME           .UNIT     LOG_ID                        : DESCRIPTION
#_______________________________________________________________________________
MD                 .ft                                     :  {F}
ALPH               .unitless                               : Biot coefficient {F}
BMK_DYN            .Mpsi                                   : Bulk Modulus (Dynamic) {F}
BMK_STA            .Mpsi                                   : Bulk Modulus (Static) {F}
DEN_COM_EXT        .g/cm3                                  : Composite density {F}
FANG               .deg                                    : Friction angle {F}
MECH_LITHO         .unitless                               : Lithology codes between 0 and 6 {F}
OBMW_EXT           .ppg                                    :  {F}
PPRS_HP_G          .psi                                    :  {F}
PR_DYN             .unitless                               : Poisson Ratio (Dynamic) {F}
PR_STA             .unitless                               : Static Poissons ratio {F}
SHMAX_PHS          .psi                                    : Maximum Horizontal Stress {F}
SHMIN_PHS          .psi                                    : Minimum Horizontal Stress {F}
SMG_DYN            .Mpsi                                   : Shear Modulus (Dynamic) {F}
SMG_STA            .Mpsi                                   : Shear Modulus (Static) {F}
SVERTICAL_EXT      .psi                                    :  {F}
TSTR               .Mpsi                                   : Tensile Strength {F}
UCS                .Mpsi                                   : Unconfined compressive strength {F}
YME_DYN            .Mpsi                                   : Young's Modulus (Dynamic) {F}
YME_STA            .Mpsi                                   : Static Youngs modulus {F}
~Ascii
# ...
4486.75000 1.00000    3.77674    2.65622    2.52775    36.62355   1.00000    21.63233   2040.72351 0.21047    0.19784    5384.38428 3776.27759 2.71009    2.01013    5035.51025 0.00100    0.01993    6.56095    4.81563   
4487.25000 1.00000    3.75913    2.64365    2.53144    36.85350   1.00000    21.63227   2040.95068 0.20963    0.19705    5374.23535 3768.49683 2.70715    2.00717    5036.05664 0.00099    0.01988    6.54929    4.80537   
4487.75000 1.00000    4.84014    3.36935    2.57564    37.38964   1.00000    21.63223   2041.17786 0.26125    0.24557    5887.43506 4235.67188 2.74867    2.06470    5036.60693 0.00107    0.02132    6.93351    5.14349   
4488.25000 1.00000    5.21144    3.81087    2.63646    38.05421   1.00000    21.63223   2041.40503 0.22706    0.21343    6433.40527 4273.43750 3.47767    2.69996    5037.16895 0.00136    0.02730    8.53459    6.55244   
4488.75000 1.00000    5.65756    4.19372    2.67824    37.88704   1.00000    21.63229   2041.63220 0.22459    0.21111    6808.10059 4407.32715 3.81715    3.00097    5037.74316 0.00152    0.03034    9.34890    7.26903   
4489.25000 1.00000    5.57131    4.16698    2.68707    38.85446   1.00000    21.63238   2041.85938 0.21122    0.19855    6863.07080 4347.72559 3.98495    3.14418    5038.32422 0.00157    0.03147    9.65329    7.53690   
4489.75000 1.00000    5.76752    3.08503    2.66960    39.47784   0.00000    21.63247   2042.08655 0.23650    0.11825    6111.97021 3584.34741 3.68723    3.15953    5038.90576 0.00140    0.02798    9.11850    7.06628   
4490.25000 1.00000    5.50969    2.80174    2.62323    39.62414   0.00000    21.63253   2042.31372 0.25053    0.12526    5751.63135 3512.33716 3.29747    2.79912    5039.48047 0.00124    0.02472    8.24714    6.29949   
4490.75000 1.00000    4.78866    2.52749    2.56266    39.79436   0.00000    21.63254   2042.54077 0.23171    0.11585    5456.13037 3367.84399 3.12923    2.61036    5040.04395 0.00114    0.02271    7.70858    5.82555   
4491.25000 1.00000    4.21269    2.33535    2.50082    39.89618   0.00000    21.63250   2042.76794 0.20722    0.10361    5254.71240 3241.59424 3.06500    2.51640    5040.59424 0.00108    0.02156    7.40028    5.55425   
4491.75000 1.00000    4.02061    2.24766    2.45643    40.30423   0.00000    21.63240   2042.99512 0.20112    0.10056    5153.84717 3196.00513 3.00136    2.44730    5041.13135 0.00104    0.02085    7.21002    5.38681   
4492.25000 1.00000    3.90867    2.19070    2.43340    40.33145   0.00000    21.63227   2043.22229 0.19827    0.09913    5086.60449 3169.08081 2.95267    2.39690    5041.66113 0.00102    0.02035    7.07618    5.26904   
4492.75000 1.00000    3.85916    2.18305    2.42187    39.99129   0.00000    21.63212   2043.44946 0.19390    0.09695    5081.74170 3156.65479 2.96837    2.40636    5042.18701 0.00102    0.02039    7.08784    5.27930   
4493.25000 1.00000    3.84809    2.19403    2.42321    39.48151   0.00000    21.63196   2043.67664 0.19066    0.09533    5098.94775 3153.54810 2.99926    2.43175    5042.71094 0.00103    0.02060    7.14220    5.32714   
4493.75000 1.00000    3.83368    2.18155    2.42686    39.09094   0.00000    21.63181   2043.90381 0.19115    0.09558    5083.14063 3150.41284 2.98204    2.41591    5043.23584 0.00102    0.02046    7.10412    5.29363   
4494.25000 1.00000    3.86616    2.13954    2.42547    39.05701   0.00000    21.63166   2044.13098 0.20222    0.10111    5020.60938 3160.44580 2.87281    2.32520    5043.76123 0.00099    0.01972    6.90752    5.12062   
4494.75000 1.00000    3.75244    2.05718    2.41648    39.33283   0.00000    21.63150   2044.35815 0.20356    0.10178    4918.19629 3133.72827 2.77265    2.23059    5044.28564 0.00094    0.01885    6.67414    4.91524   
4495.25000 1.00000    3.60889    1.97923    2.40505    39.56230   0.00000    21.63134   2044.58521 0.20064    0.10032    4824.53516 3099.07617 2.69951    2.15682    5044.80762 0.00091    0.01813    6.48225    4.74638   
4495.75000 1.00000    3.56949    1.94999    2.40005    39.41414   0.00000    21.63116   2044.81238 0.20124    0.10062    4788.25244 3090.03735 2.66331    2.12277    5045.32764 0.00089    0.01782    6.39855    4.67272   
4496.25000 1.00000    3.61015    1.97367    2.40218    39.15751   0.00000    21.63099   2045.03955 0.20180    0.10090    4817.35547 3100.16553 2.68732    2.14649    5045.84717 0.00090    0.01805    6.45925    4.72614   
4496.75000 1.00000    3.69565    2.01768    2.40626    38.86125   0.00000    21.63082   2045.26672 0.20397    0.10199    4870.26611 3121.28857 2.72600    2.18622    5046.36719 0.00092    0.01844    6.56406    4.81837   
4497.25000 1.00000    3.79809    2.06370    2.40642    38.58196   0.00000    21.63065   2045.49390 0.20760    0.10380    4924.23242 3146.42407 2.75898    2.22226    5046.88818 0.00094    0.01881    6.66347    4.90585   
4497.75000 1.00000    3.79191    2.06777    2.40582    38.12257   0.00000    21.63048   2045.72107 0.20620    0.10310    4930.62842 3145.05981 2.77079    2.23196    5047.40918 0.00094    0.01889    6.68427    4.92416   
4498.25000 1.00000    3.65727    2.02621    2.41097    37.62545   0.00000    21.63031   2045.94824 0.19790    0.09895    4886.27441 3111.61157 2.76699    2.21833    5047.92969 0.00093    0.01868    6.62916    4.87566   
4498.75000 1.00000    3.51751    1.98128    2.42089    37.37210   0.00000    21.63015   2046.17542 0.18881    0.09440    4837.54932 3075.28003 2.76231    2.20284    5048.45264 0.00092    0.01845    6.56771    4.82159   
4499.25000 1.00000    3.36971    1.93096    2.42299    37.40889   0.00000    21.62999   2046.40259 0.17877    0.08939    4781.79248 3035.02954 2.75481    2.18345    5048.97705 0.00091    0.01818    6.49461    4.75725   
4499.75000 1.00000    3.34898    1.91191    2.40890    37.52886   0.00000    21.62983   2046.62976 0.17976    0.08988    4757.30859 3030.63110 2.72719    2.15835    5049.50098 0.00090    0.01796    6.43486    4.70468   
4500.25000 1.00000    3.65010    1.98605    2.39452    38.09409   0.00000    21.62966   2046.85693 0.20430    0.10215    4832.92334 3112.31470 2.68872    2.15076    5050.02100 0.00091    0.01811    6.47604    4.74092   
4500.75000 1.00000    4.01506    2.07102    2.38394    38.52063   0.00000    21.62948   2047.08398 0.22879    0.11439    4918.14746 3198.24854 2.65858    2.14987    5050.53809 0.00092    0.01833    6.53365    4.79161   
4501.25000 1.00000    4.16621    2.12021    2.38000    38.82397   0.00000    21.62928   2047.31128 0.23535    0.11767    4971.93506 3231.29712 2.67759    2.17580    5051.05371 0.00093    0.01863    6.61553    4.86367   
4501.75000 1.00000    4.11840    2.15523    2.38920    39.10538   0.00000    21.62909   2047.53833 0.22572    0.11286    5022.35059 3222.93774 2.76472    2.24927    5051.56934 0.00096    0.01924    6.77754    5.00624   
4502.25000 1.00000    3.98134    2.18583    2.41936    38.67001   0.00000    21.62891   2047.76538 0.20708    0.10354    5077.12939 3192.45728 2.89839    2.35584    5052.08789 0.00100    0.02006    6.99720    5.19954   
4502.75000 1.00000    4.27573    2.33922    2.46443    39.10767   0.00000    21.62877   2047.99268 0.21289    0.10645    5258.87451 3261.98047 3.03633    2.49612    5052.61475 0.00107    0.02143    7.36551    5.52364   
4503.25000 1.00000    4.76581    2.52538    2.49516    39.44091   0.00000    21.62867   2048.21973 0.23014    0.11507    5462.38232 3370.12817 3.13643    2.61532    5053.15088 0.00114    0.02274    7.71651    5.83253   
4503.75000 1.00000    5.07473    2.63657    2.50795    39.38292   0.00000    21.62858   2048.44702 0.23985    0.11993    5581.26807 3433.78687 3.19436    2.68435    5053.69238 0.00118    0.02351    7.92108    6.01255   
4504.25000 1.00000    5.20489    2.72465    2.51146    39.34092   0.00000    21.62851   2048.67432 0.23871    0.11935    5687.71094 3464.01172 3.29374    2.77962    5054.23535 0.00122    0.02440    8.15996    6.22277   
4504.75000 1.00000    4.78188    2.65111    2.51564    39.20795   0.00000    21.62844   2048.90137 0.21468    0.10734    5637.54102 3381.33911 3.36975    2.82025    5054.77881 0.00122    0.02450    8.18630    6.24595   
