~Version
 VERS              .         3.0                           : CWLS LOG ASCII STANDARD - VERSION 3.0
 WRAP              .         NO                            : ONE LINE PER DEPTH STEP
 DLM               .         SPACE                         : DELIMITING CHARACTER(SPACE TAB OR COMMA)
~Well Information
#_______________________________________________________________________________
#
#PARAMETER_NAME    .UNIT     VALUE                         : DESCRIPTION
#_______________________________________________________________________________
STRT               .ft       4357.25000                    : First reference value
STOP               .ft       6466.75000                    : Last reference value
STEP               .ft       0.50000                       : Step increment
NULL               .         -9999                         : Missing value
COMP               .         Podolsky Oil Company          : Company
WELL               .         T_R_ McMillen #2              : Well name
FLD                .         Mount Auburn                  : Field
LOC                .                                       : Location
SRVC               .                                       : Service Company
CTRY               .         US                            : Country
STAT               .         Illinois                      : State
CNTY               .                                       : County
API                .                                       : API NUMBER
DATE               .         03-Dec-2018                   : Service Date
LATI               .         39.772784 degrees             : Latitude
LONG               .         -89.203412 degrees            : Longitude
GDAT               .                                       : Geodetic Datum
APD                .ft       15                            : Elevation of Depth Reference (LMF) Above Permanent Datum
BHS                .         OPEN                          : Borehole Status (Open or Cased Hole)
BHT                .degF     103                           : Bottom Hole Temperature
BLI                .ft       6475                          : Bottom Log Interval
BS                 .in       6.75                          : Bit Size
CBDR               .ft       4355                          : Casing Bottom of Driller
CBLO               .ft       4353                          : Logger Casing Shoe Depth
CSIZ               .in       7.625                         : Current Casing Size
CWEI               .lbm/ft   11.6                          : Casing Weight
COUNTRY            .         United States                 : Nation
DCS                .         03-Dec-2018                   : Date Circulation Stopped
DFD                .lbm/gal  9.25                          : Drilling Fluid Density
DFT                .         WATER                         : Drilling Fluid Type
DLAB               .         03-Dec-2018                   : Date Logger At Bottom
EDF                .ft       618                           : Elevation of Drill Floor
EGL                .ft       603                           : Elevation of Ground Level
EKB                .ft       618                           : Elevation of Kelly Bushing
EPD                .ft       603                           : Elevation of Permanent Datum (PDAT) above Mean Sea Level
LMF                .         KB                            : Logging Measured From (Name of Logging Elevation Reference)
LUL                .         Bradford                      : Logging Unit Location
LUN                .         3703                          : Logging Unit Number
MCST               .degF     71.2                          : Mudcake Sample Temperature
MFST               .degF     69.1                          : Mud Filtrate Sample Temperature
MRT                .degF     103                           : Maximum Recorded Temperature
MST                .degF     59.2                          : Mud Sample Temperature
PDAT               .         GL                            : Permanent Datum
PRODUCER-CODE      .         440                           : 
PRODUCER-NAME      .         Schlumberger                  : 
RMB                .ohm.m    0.835368                      : Resistivity of Mud at Bottom Hole Temperature
RMCS               .ohm.m    1.55                          : Resistivity of Mud Cake Sample
RMFS               .ohm.m    1.26                          : Resistivity of Mud Filtrate Sample
RMS                .ohm.m    1.39                          : Resistivity of Mud Sample
RUN                .         2A                            : Run Number
TCS                .         08_00_00                      : Time Circulation Stopped
TDD                .ft       6469                          : Driller Total Depth
TDL                .ft       6475                          : Logger Total Depth
TLAB               .         17_50_00                      : Time Logger At Bottom
TLI                .ft       4353                          : Top Log Interval
~Parameter Information Block
#_______________________________________________________________________________
#
#PARAMETER_NAME    .UNIT     VALUE                         : DESCRIPTION
#_______________________________________________________________________________
SET                .         01_Elan                       : 
TLFamily_ALPH      .         Biot Coefficient              : 
TLFamily_BMK_DYN   .         Bulk Modulus (Dynamic)        : 
TLFamily_BMK_STA   .         Bulk Modulus (Static)         : 
TLFamily_DEN_COM_EXT .         Bulk Density                  : 
TLFamily_FANG      .         Friction Angle                : 
TLFamily_MD        .         Measured Depth                : 
TLFamily_MECH_LITHO .         Mechanical Stratigraphy Flag  : 
TLFamily_OBMW_EXT  .         Pressure Gradient             : 
TLFamily_PPRS_HP_G .         Pore Pressure                 : 
TLFamily_PR_DYN    .         Poisson Ratio (Dynamic)       : 
TLFamily_PR_STA    .         Poisson Ratio (Static)        : 
TLFamily_SHMAX_PHS .         Maximum Horizontal Stress     : 
TLFamily_SHMIN_PHS .         Minimum Horizontal Stress     : 
TLFamily_SMG_DYN   .         Shear Modulus (Dynamic)       : 
TLFamily_SMG_STA   .         Shear Modulus (Static)        : 
TLFamily_SVERTICAL_EXT .         Vertical Stress               : 
TLFamily_TSTR      .         Tensile Strength              : 
TLFamily_UCS       .         Unconfined Compressive Strength: 
TLFamily_YME_DYN   .         Young's Modulus (Dynamic)     : 
TLFamily_YME_STA   .         Young's Modulus (Static)      : 
~Curve Information
#_______________________________________________________________________________
#
#LOGNAME           .UNIT     LOG_ID                        : DESCRIPTION
#_______________________________________________________________________________
MD                 .ft                                     :  {F}
ALPH               .unitless                               : Biot coefficient {F}
BMK_DYN            .Mpsi                                   : Bulk Modulus (Dynamic) {F}
BMK_STA            .Mpsi                                   : Bulk Modulus (Static) {F}
DEN_COM_EXT        .g/cm3                                  : Composite density {F}
FANG               .deg                                    : Friction angle {F}
MECH_LITHO         .unitless                               : Lithology codes between 0 and 6 {F}
OBMW_EXT           .ppg                                    :  {F}
PPRS_HP_G          .psi                                    :  {F}
PR_DYN             .unitless                               : Poisson Ratio (Dynamic) {F}
PR_STA             .unitless                               : Static Poissons ratio {F}
SHMAX_PHS          .psi                                    : Maximum Horizontal Stress {F}
SHMIN_PHS          .psi                                    : Minimum Horizontal Stress {F}
SMG_DYN            .Mpsi                                   : Shear Modulus (Dynamic) {F}
SMG_STA            .Mpsi                                   : Shear Modulus (Static) {F}
SVERTICAL_EXT      .psi                                    :  {F}
TSTR               .Mpsi                                   : Tensile Strength {F}
UCS                .Mpsi                                   : Unconfined compressive strength {F}
YME_DYN            .Mpsi                                   : Young's Modulus (Dynamic) {F}
YME_STA            .Mpsi                                   : Static Youngs modulus {F}
~Ascii
# ...
5041.75000 1.00000    4.29870    2.77029    2.50850    34.00825   1.00000    21.62484   2293.01685 0.29405    0.27640    5700.87842 4536.18359 2.05247    1.45587    5656.08789 0.00076    0.01527    5.31199    3.71655   
5042.25000 1.00000    4.40402    2.84427    2.51398    33.92663   1.00000    21.62477   2293.24414 0.29616    0.27839    5754.75244 4571.43555 2.07775    1.47915    5656.63184 0.00078    0.01554    5.38620    3.78186   
5042.75000 1.00000    4.50135    2.92186    2.52396    33.44970   1.00000    21.62472   2293.47168 0.29638    0.27860    5813.75293 4599.49121 2.12102    1.51783    5657.17725 0.00080    0.01596    5.49930    3.88139   
5043.25000 1.00000    4.64710    3.01994    2.54345    32.73257   1.00000    21.62467   2293.69897 0.29990    0.28191    5881.82959 4648.73291 2.14605    1.54137    5657.72461 0.00081    0.01626    5.57930    3.95178   
5043.75000 1.00000    4.83985    3.10241    2.57274    32.03593   1.00000    21.62464   2293.92651 0.31178    0.29308    5919.06934 4727.55322 2.08330    1.48940    5658.27832 0.00079    0.01584    5.46568    3.85180   
5044.25000 1.00000    4.81080    2.97938    2.60241    31.62996   1.00000    21.62463   2294.15381 0.32619    0.30662    5806.86963 4748.59570 1.89148    1.32284    5658.83789 0.00071    0.01416    5.01694    3.45691   
5044.75000 1.00000    4.44721    2.74990    2.61104    32.19096   1.00000    21.62465   2294.38135 0.31773    0.29867    5659.93213 4636.78857 1.84537    1.27893    5659.40332 0.00068    0.01359    4.86343    3.32182   
5045.25000 1.00000    4.05316    2.55800    2.57932    32.64774   1.00000    21.62466   2294.60889 0.29660    0.27880    5538.76270 4476.84961 1.90750    1.32739    5659.96777 0.00070    0.01390    4.94653    3.39494   
5045.75000 1.00000    3.82057    2.46806    2.51980    33.03059   1.00000    21.62464   2294.83643 0.27574    0.25920    5482.88672 4350.12500 2.01484    1.41595    5660.52344 0.00073    0.01463    5.14082    3.56592   
5046.25000 1.00000    3.53665    2.35210    2.45102    32.86621   1.00000    21.62457   2295.06348 0.24455    0.22988    5404.73096 4164.88428 2.17774    1.54981    5661.06396 0.00078    0.01567    5.42062    3.81215   
5046.75000 1.00000    2.99546    2.00499    2.39625    32.35521   1.00000    21.62443   2295.29102 0.20742    0.19498    5092.18994 3863.91797 2.17753    1.53534    5661.59033 0.00075    0.01507    5.25840    3.66939   
5047.25000 1.00000    2.89935    1.90596    2.36824    32.22569   1.00000    21.62426   2295.51855 0.21461    0.20173    4995.83740 3860.50610 2.04373    1.41916    5662.10742 0.00070    0.01397    4.96467    3.41091   
5047.75000 1.00000    3.03523    1.97223    2.36127    32.48103   1.00000    21.62408   2295.74609 0.23219    0.21825    5062.52246 3967.84473 1.97911    1.36835    5662.61963 0.00068    0.01364    4.87726    3.33399   
5048.25000 1.00000    3.16815    2.05597    2.36282    32.68162   1.00000    21.62389   2295.97339 0.24123    0.22675    5140.67578 4041.59644 1.98152    1.37385    5663.13135 0.00069    0.01380    4.91903    3.37074   
5048.75000 1.00000    3.22438    2.08582    2.36652    32.56651   1.00000    21.62370   2296.20093 0.24653    0.23174    5168.07031 4077.80298 1.96697    1.36283    5663.64355 0.00069    0.01374    4.90375    3.35730   
5049.25000 1.00000    3.34845    2.13265    2.37921    32.40675   1.00000    21.62352   2296.42822 0.26257    0.24682    5210.10840 4170.75488 1.88905    1.29919    5664.15723 0.00066    0.01324    4.77012    3.23971   
5049.75000 1.00000    3.50299    2.19615    2.40222    32.09179   1.00000    21.62335   2296.65576 0.27849    0.26178    5264.17285 4269.08984 1.82075    1.24385    5664.67383 0.00064    0.01282    4.65562    3.13895   
5050.25000 1.00000    3.58882    2.24363    2.42710    31.62124   1.00000    21.62321   2296.88330 0.28366    0.26664    5302.67334 4310.61084 1.81453    1.24008    5665.19629 0.00064    0.01283    4.65848    3.14146   
5050.75000 1.00000    3.57080    2.26837    2.44676    31.09505   1.00000    21.62308   2297.11035 0.27455    0.25807    5323.70166 4276.80957 1.89491    1.30862    5665.72412 0.00067    0.01347    4.83030    3.29267   
5051.25000 1.00000    3.62893    2.32126    2.46143    30.82457   1.00000    21.62297   2297.33789 0.27330    0.25690    5367.66602 4290.15186 1.93834    1.34689    5666.25537 0.00069    0.01386    4.93615    3.38581   
5051.75000 1.00000    3.91528    2.48983    2.49191    30.82948   1.00000    21.62287   2297.56543 0.28791    0.27063    5496.44043 4417.76318 1.93430    1.34835    5666.79004 0.00070    0.01404    4.98240    3.42651   
5052.25000 1.00000    4.27046    2.71369    2.54180    30.74824   1.00000    21.62280   2297.79297 0.30029    0.28227    5657.71289 4551.83984 1.96769    1.38234    5667.33350 0.00073    0.01454    5.11713    3.54508   
5052.75000 1.00000    4.54022    2.91190    2.59149    30.43383   1.00000    21.62278   2298.02026 0.30367    0.28545    5801.22510 4634.78418 2.05125    1.45805    5667.88770 0.00077    0.01540    5.34830    3.74850   
5053.25000 1.00000    4.66360    3.03152    2.61250    30.23017   1.00000    21.62279   2298.24780 0.30020    0.28219    5896.90479 4660.97461 2.14990    1.54491    5668.45215 0.00082    0.01631    5.59062    3.96175   
5053.75000 1.00000    4.46102    2.90513    2.60205    30.64633   1.00000    21.62281   2298.47510 0.29343    0.27583    5813.55859 4588.47461 2.13732    1.53136    5669.01807 0.00080    0.01608    5.52897    3.90749   
5054.25000 1.00000    4.15551    2.67671    2.58077    31.42161   1.00000    21.62281   2298.70264 0.28964    0.27226    5642.54932 4492.61475 2.03349    1.43742    5669.58008 0.00075    0.01502    5.24494    3.65754   
5054.75000 1.00000    3.92637    2.45243    2.54661    32.33282   1.00000    21.62280   2298.92993 0.29717    0.27934    5464.90039 4449.71875 1.84182    1.26898    5670.13770 0.00066    0.01327    4.77830    3.24691   
5055.25000 1.00000    3.78166    2.28127    2.50668    33.13421   1.00000    21.62275   2299.15723 0.30726    0.28882    5336.27148 4439.17041 1.67270    1.12138    5670.68652 0.00059    0.01176    4.37331    2.89051   
5055.75000 1.00000    3.82280    2.27823    2.48329    33.79287   1.00000    21.62267   2299.38477 0.31349    0.29468    5335.43799 4468.33105 1.62845    1.08388    5671.22705 0.00057    0.01141    4.27792    2.80657   
5056.25000 1.00000    3.92474    2.37395    2.49152    33.82146   1.00000    21.62259   2299.61230 0.31110    0.29243    5404.34717 4489.32129 1.69641    1.14378    5671.76514 0.00060    0.01204    4.44832    2.95652   
5056.75000 1.00000    4.04883    2.49637    2.51999    33.43606   1.00000    21.62251   2299.83984 0.30717    0.28874    5494.64160 4512.48828 1.79184    1.22769    5672.30713 0.00065    0.01292    4.68448    3.16434   
5057.25000 1.00000    4.08232    2.57056    2.54430    32.97244   1.00000    21.62247   2300.06714 0.29867    0.28075    5555.10547 4499.00586 1.89857    1.32012    5672.85498 0.00069    0.01384    4.93126    3.38151   
5057.75000 1.00000    4.20846    2.63972    2.56066    32.75965   1.00000    21.62243   2300.29443 0.30455    0.28628    5602.41064 4549.77734 1.89152    1.31579    5673.40771 0.00069    0.01386    4.93517    3.38495   
5058.25000 1.00000    4.35555    2.68388    2.56606    32.88263   1.00000    21.62241   2300.52197 0.31666    0.29766    5624.19092 4619.81787 1.81949    1.25547    5673.96338 0.00067    0.01332    4.79129    3.25834   
5058.75000 1.00000    4.34518    2.59725    2.55697    33.09526   1.00000    21.62239   2300.74951 0.32813    0.30844    5556.74219 4644.16016 1.68690    1.14073    5674.51953 0.00061    0.01216    4.48085    2.98515   
5059.25000 1.00000    4.32394    2.51217    2.54152    33.14925   1.00000    21.62236   2300.97681 0.33719    0.31696    5497.46533 4659.49609 1.57935    1.04746    5675.07227 0.00056    0.01120    4.22379    2.75893   
5059.75000 1.00000    4.28015    2.43801    2.53313    32.70358   1.00000    21.62232   2301.20435 0.34214    0.32162    5449.82080 4660.05469 1.51023    0.98721    5675.62207 0.00053    0.01057    4.05388    2.60942   
