~Version
 VERS              .         3.0                           : CWLS LOG ASCII STANDARD - VERSION 3.0
 WRAP              .         NO                            : ONE LINE PER DEPTH STEP
 DLM               .         SPACE                         : DELIMITING CHARACTER(SPACE TAB OR COMMA)
~Well Information
#_______________________________________________________________________________
#
#PARAMETER_NAME    .UNIT     VALUE                         : DESCRIPTION
#_______________________________________________________________________________
STRT               .ft       4357.25000                    : First reference value
STOP               .ft       6466.75000                    : Last reference value
STEP               .ft       0.50000                       : Step increment
NULL               .         -9999                         : Missing value
COMP               .         Podolsky Oil Company          : Company
WELL               .         T_R_ McMillen #2              : Well name
FLD                .         Mount Auburn                  : Field
LOC                .                                       : Location
SRVC               .                                       : Service Company
CTRY               .         US                            : Country
STAT               .         Illinois                      : State
CNTY               .                                       : County
API                .                                       : API NUMBER
DATE               .         03-Dec-2018                   : Service Date
LATI               .         39.772784 degrees             : Latitude
LONG               .         -89.203412 degrees            : Longitude
GDAT               .                                       : Geodetic Datum
APD                .ft       15                            : Elevation of Depth Reference (LMF) Above Permanent Datum
BHS                .         OPEN                          : Borehole Status (Open or Cased Hole)
BHT                .degF     103                           : Bottom Hole Temperature
BLI                .ft       6475                          : Bottom Log Interval
BS                 .in       6.75                          : Bit Size
CBDR               .ft       4355                          : Casing Bottom of Driller
CBLO               .ft       4353                          : Logger Casing Shoe Depth
CSIZ               .in       7.625                         : Current Casing Size
CWEI               .lbm/ft   11.6                          : Casing Weight
COUNTRY            .         United States                 : Nation
DCS                .         03-Dec-2018                   : Date Circulation Stopped
DFD                .lbm/gal  9.25                          : Drilling Fluid Density
DFT                .         WATER                         : Drilling Fluid Type
DLAB               .         03-Dec-2018                   : Date Logger At Bottom
EDF                .ft       618                           : Elevation of Drill Floor
EGL                .ft       603                           : Elevation of Ground Level
EKB                .ft       618                           : Elevation of Kelly Bushing
EPD                .ft       603                           : Elevation of Permanent Datum (PDAT) above Mean Sea Level
LMF                .         KB                            : Logging Measured From (Name of Logging Elevation Reference)
LUL                .         Bradford                      : Logging Unit Location
LUN                .         3703                          : Logging Unit Number
MCST               .degF     71.2                          : Mudcake Sample Temperature
MFST               .degF     69.1                          : Mud Filtrate Sample Temperature
MRT                .degF     103                           : Maximum Recorded Temperature
MST                .degF     59.2                          : Mud Sample Temperature
PDAT               .         GL                            : Permanent Datum
PRODUCER-CODE      .         440                           : 
PRODUCER-NAME      .         Schlumberger                  : 
RMB                .ohm.m    0.835368                      : Resistivity of Mud at Bottom Hole Temperature
RMCS               .ohm.m    1.55                          : Resistivity of Mud Cake Sample
RMFS               .ohm.m    1.26                          : Resistivity of Mud Filtrate Sample
RMS                .ohm.m    1.39                          : Resistivity of Mud Sample
RUN                .         2A                            : Run Number
TCS                .         08_00_00                      : Time Circulation Stopped
TDD                .ft       6469                          : Driller Total Depth
TDL                .ft       6475                          : Logger Total Depth
TLAB               .         17_50_00                      : Time Logger At Bottom
TLI                .ft       4353                          : Top Log Interval
~Parameter Information Block
#_______________________________________________________________________________
#
#PARAMETER_NAME    .UNIT     VALUE                         : DESCRIPTION
#_______________________________________________________________________________
SET                .         01_Elan                       : 
TLFamily_ALPH      .         Biot Coefficient              : 
TLFamily_BMK_DYN   .         Bulk Modulus (Dynamic)        : 
TLFamily_BMK_STA   .         Bulk Modulus (Static)         : 
TLFamily_DEN_COM_EXT .         Bulk Density                  : 
TLFamily_FANG      .         Friction Angle                : 
TLFamily_MD        .         Measured Depth                : 
TLFamily_MECH_LITHO .         Mechanical Stratigraphy Flag  : 
TLFamily_OBMW_EXT  .         Pressure Gradient             : 
TLFamily_PPRS_HP_G .         Pore Pressure                 : 
TLFamily_PR_DYN    .         Poisson Ratio (Dynamic)       : 
TLFamily_PR_STA    .         Poisson Ratio (Static)        : 
TLFamily_SHMAX_PHS .         Maximum Horizontal Stress     : 
TLFamily_SHMIN_PHS .         Minimum Horizontal Stress     : 
TLFamily_SMG_DYN   .         Shear Modulus (Dynamic)       : 
TLFamily_SMG_STA   .         Shear Modulus (Static)        : 
TLFamily_SVERTICAL_EXT .         Vertical Stress               : 
TLFamily_TSTR      .         Tensile Strength              : 
TLFamily_UCS       .         Unconfined Compressive Strength: 
TLFamily_YME_DYN   .         Young's Modulus (Dynamic)     : 
TLFamily_YME_STA   .         Young's Modulus (Static)      : 
~Curve Information
#_______________________________________________________________________________
#
#LOGNAME           .UNIT     LOG_ID                        : DESCRIPTION
#_______________________________________________________________________________
MD                 .ft                                     :  {F}
ALPH               .unitless                               : Biot coefficient {F}
BMK_DYN            .Mpsi                                   : Bulk Modulus (Dynamic) {F}
BMK_STA            .Mpsi                                   : Bulk Modulus (Static) {F}
DEN_COM_EXT        .g/cm3                                  : Composite density {F}
FANG               .deg                                    : Friction angle {F}
MECH_LITHO         .unitless                               : Lithology codes between 0 and 6 {F}
OBMW_EXT           .ppg                                    :  {F}
PPRS_HP_G          .psi                                    :  {F}
PR_DYN             .unitless                               : Poisson Ratio (Dynamic) {F}
PR_STA             .unitless                               : Static Poissons ratio {F}
SHMAX_PHS          .psi                                    : Maximum Horizontal Stress {F}
SHMIN_PHS          .psi                                    : Minimum Horizontal Stress {F}
SMG_DYN            .Mpsi                                   : Shear Modulus (Dynamic) {F}
SMG_STA            .Mpsi                                   : Shear Modulus (Static) {F}
SVERTICAL_EXT      .psi                                    :  {F}
TSTR               .Mpsi                                   : Tensile Strength {F}
UCS                .Mpsi                                   : Unconfined compressive strength {F}
YME_DYN            .Mpsi                                   : Young's Modulus (Dynamic) {F}
YME_STA            .Mpsi                                   : Static Youngs modulus {F}
~Ascii
# ...
4764.25000 1.00000    8.69274    3.91319    2.73170    45.61145   0.00000    21.64054   2166.82349 0.30011    0.15006    7057.53760 4199.80273 4.00944    3.57217    5348.69385 0.00164    0.03285    10.42544   8.21639   
4764.75000 1.00000    8.54982    3.89217    2.72678    45.53237   0.00000    21.64067   2167.05078 0.29692    0.14846    7043.72900 4184.44043 4.01626    3.57411    5349.28467 0.00164    0.03282    10.41757   8.20946   
4765.25000 1.00000    8.51328    3.89760    2.72719    45.94527   0.00000    21.64079   2167.27832 0.29540    0.14770    7054.45313 4183.06299 4.03382    3.58924    5349.87549 0.00165    0.03295    10.45084   8.23874   
4765.75000 1.00000    8.50111    3.92862    2.72898    46.37639   0.00000    21.64091   2167.50537 0.29302    0.14651    7096.20703 4189.19141 4.08236    3.63377    5350.46680 0.00167    0.03335    10.55718   8.33232   
4766.25000 1.00000    8.60606    3.97980    2.72612    46.67129   0.00000    21.64103   2167.73291 0.29321    0.14660    7153.04150 4209.15039 4.12852    3.67986    5351.05713 0.00169    0.03380    10.67805   8.43869   
4766.75000 1.00000    8.74826    4.03164    2.72329    46.71008   0.00000    21.64115   2167.95996 0.29454    0.14727    7207.07568 4232.16992 4.16547    3.71863    5351.64746 0.00171    0.03420    10.78470   8.53254   
4767.25000 1.00000    9.01470    4.12706    2.72804    46.36333   0.00000    21.64126   2168.18750 0.29701    0.14851    7305.73291 4274.37012 4.23257    3.78920    5352.23730 0.00175    0.03492    10.97936   8.70384   
4767.75000 1.00000    9.27130    4.20048    2.73680    46.34695   0.00000    21.64138   2168.41455 0.30032    0.15016    7376.71924 4310.35107 4.27126    3.83296    5352.82861 0.00177    0.03540    11.10798   8.81702   
4768.25000 1.00000    9.48904    4.25771    2.74020    46.47958   0.00000    21.64151   2168.64209 0.30325    0.15162    7430.50586 4339.32520 4.29769    3.86398    5353.42139 0.00179    0.03575    11.20192   8.89969   
4768.75000 1.00000    9.56823    4.28279    2.73842    46.59103   0.00000    21.64165   2168.86963 0.30404    0.15202    7455.77637 4350.98584 4.31350    3.88099    5354.01563 0.00180    0.03593    11.24994   8.94195   
4769.25000 1.00000    9.53298    4.28094    2.73126    46.46676   0.00000    21.64177   2169.09668 0.30317    0.15158    7456.96631 4348.46094 4.31957    3.88563    5354.60840 0.00180    0.03596    11.25826   8.94927   
4769.75000 1.00000    9.48816    4.27033    2.72378    46.24152   0.00000    21.64189   2169.32397 0.30252    0.15126    7447.76123 4343.16455 4.31572    3.88075    5355.19922 0.00180    0.03590    11.24259   8.93548   
4770.25000 1.00000    9.45848    4.24985    2.72028    46.03405   0.00000    21.64201   2169.55127 0.30284    0.15142    7424.39355 4336.53564 4.29419    3.85982    5355.78857 0.00179    0.03571    11.18925   8.88854   
4770.75000 1.00000    9.45406    4.23592    2.72311    45.83297   0.00000    21.64212   2169.77832 0.30350    0.15175    7407.14063 4333.19580 4.27566    3.84243    5356.37793 0.00178    0.03555    11.14662   8.85102   
4771.25000 1.00000    9.43268    4.21343    2.72389    45.36871   0.00000    21.64224   2170.00586 0.30416    0.15208    7380.46240 4326.65527 4.24932    3.81726    5356.96777 0.00177    0.03531    11.08362   8.79559   
4771.75000 1.00000    9.39212    4.20003    2.72558    45.06966   0.00000    21.64235   2170.23315 0.30378    0.15189    7367.23828 4320.98730 4.24044    3.80781    5357.55713 0.00176    0.03521    11.05725   8.77238   
4772.25000 1.00000    9.28883    4.20589    2.73488    44.75830   0.00000    21.64247   2170.46045 0.30051    0.15026    7384.69531 4315.48926 4.27451    3.83651    5358.14893 0.00177    0.03544    11.11810   8.82593   
4772.75000 1.00000    9.15750    4.20816    2.74838    44.92962   0.00000    21.64260   2170.68799 0.29651    0.14825    7400.63184 4306.80762 4.31195    3.86728    5358.74219 0.00178    0.03567    11.18095   8.88123   
4773.25000 1.00000    9.07767    4.20986    2.75640    45.37591   0.00000    21.64274   2170.91504 0.29397    0.14699    7411.14746 4301.50195 4.33601    3.88706    5359.33789 0.00179    0.03583    11.22137   8.91681   
4773.75000 1.00000    9.14308    4.22067    2.75439    45.75716   0.00000    21.64289   2171.14258 0.29533    0.14766    7419.00342 4309.19482 4.33399    3.88726    5359.93457 0.00179    0.03585    11.22789   8.92255   
4774.25000 1.00000    9.32753    4.23936    2.75205    46.07318   0.00000    21.64303   2171.36963 0.29970    0.14985    7425.54736 4327.26514 4.31235    3.87285    5360.53125 0.00179    0.03578    11.20956   8.90642   
4774.75000 1.00000    9.69283    4.27215    2.75417    45.85721   0.00000    21.64317   2171.59717 0.30798    0.15399    7434.37695 4360.09131 4.26892    3.84286    5361.12695 0.00178    0.03562    11.16731   8.86924   
4775.25000 1.00000    9.70279    4.25449    2.75600    45.63500   0.00000    21.64331   2171.82471 0.30919    0.15460    7411.28955 4356.69092 4.24232    3.81825    5361.72412 0.00177    0.03540    11.10804   8.81708   
4775.75000 1.00000    9.17220    4.11037    2.74630    46.04853   0.00000    21.64346   2172.05176 0.30266    0.15133    7274.35791 4286.86816 4.16846    3.73436    5362.32080 0.00172    0.03448    10.86019   8.59897   
4776.25000 1.00000    8.79668    3.99976    2.73024    46.77694   0.00000    21.64359   2172.27881 0.29802    0.14901    7166.59717 4234.24512 4.10645    3.66544    5362.91455 0.00169    0.03373    10.66052   8.42325   
4776.75000 1.00000    8.74483    4.02734    2.72219    47.02153   0.00000    21.64371   2172.50635 0.29469    0.14735    7207.61279 4236.75098 4.16013    3.71358    5363.50488 0.00171    0.03415    10.77219   8.52152   
4777.25000 1.00000    8.80822    4.12424    2.72446    46.87407   0.00000    21.64382   2172.73340 0.29070    0.14535    7328.48779 4263.58594 4.28501    3.83113    5364.09424 0.00176    0.03523    11.06132   8.77597   
4777.75000 1.00000    8.98444    4.17749    2.73197    46.45831   0.00000    21.64394   2172.96094 0.29303    0.14652    7380.74902 4289.63477 4.31422    3.86389    5364.68457 0.00178    0.03558    11.15686   8.86004   
4778.25000 1.00000    9.14979    4.20040    2.73876    46.45183   0.00000    21.64407   2173.18848 0.29673    0.14837    7394.47363 4307.65234 4.30277    3.85853    5365.27734 0.00178    0.03559    11.15910   8.86201   
4778.75000 1.00000    9.24264    4.25010    2.74204    46.45244   0.00000    21.64420   2173.41553 0.29659    0.14829    7450.44043 4326.26172 4.35000    3.90522    5365.87061 0.00180    0.03605    11.28033   8.96869   
4779.25000 1.00000    9.34425    4.30345    2.74148    46.96425   0.00000    21.64433   2173.64307 0.29649    0.14825    7510.31934 4346.36621 4.40020    3.95494    5366.46484 0.00183    0.03653    11.40966   9.08250   
4779.75000 1.00000    9.46140    4.31256    2.73648    47.33040   0.00000    21.64446   2173.87012 0.29938    0.14969    7510.89160 4357.18164 4.38255    3.94214    5367.05811 0.00182    0.03645    11.38915   9.06445   
4780.25000 1.00000    9.49811    4.35616    2.73645    46.84805   0.00000    21.64458   2174.09766 0.29795    0.14898    7564.40479 4370.35742 4.43562    3.99256    5367.65039 0.00185    0.03692    11.51444   9.17471   
4780.75000 1.00000    9.71850    4.35260    2.74060    45.86660   0.00000    21.64471   2174.32520 0.30429    0.15215    7538.79492 4384.89746 4.37470    3.94237    5368.24365 0.00183    0.03654    11.41180   9.08438   
4781.25000 1.00000    9.68924    4.31643    2.74063    44.91896   0.00000    21.64484   2174.55225 0.30548    0.15274    7495.23633 4374.47852 4.33120    3.90095    5368.83740 0.00181    0.03615    11.30858   8.99355   
4781.75000 1.00000    9.24868    4.28640    2.73576    44.94575   0.00000    21.64497   2174.77954 0.29464    0.14732    7499.11475 4336.83203 4.40118    3.95285    5369.43066 0.00182    0.03648    11.39588   9.07037   
4782.25000 1.00000    8.94147    4.25388    2.72928    44.88042   0.00000    21.64510   2175.00684 0.28697    0.14348    7488.90918 4305.84521 4.44025    3.97883    5370.02295 0.00183    0.03660    11.42893   9.09945   
