~Version
 VERS              .         3.0                           : CWLS LOG ASCII STANDARD - VERSION 3.0
 WRAP              .         NO                            : ONE LINE PER DEPTH STEP
 DLM               .         SPACE                         : DELIMITING CHARACTER(SPACE TAB OR COMMA)
~Well Information
#_______________________________________________________________________________
#
#PARAMETER_NAME    .UNIT     VALUE                         : DESCRIPTION
#_______________________________________________________________________________
STRT               .ft       4357.25000                    : First reference value
STOP               .ft       6466.75000                    : Last reference value
STEP               .ft       0.50000                       : Step increment
NULL               .         -9999                         : Missing value
COMP               .         Podolsky Oil Company          : Company
WELL               .         T_R_ McMillen #2              : Well name
FLD                .         Mount Auburn                  : Field
LOC                .                                       : Location
SRVC               .                                       : Service Company
CTRY               .         US                            : Country
STAT               .         Illinois                      : State
CNTY               .                                       : County
API                .                                       : API NUMBER
DATE               .         03-Dec-2018                   : Service Date
LATI               .         39.772784 degrees             : Latitude
LONG               .         -89.203412 degrees            : Longitude
GDAT               .                                       : Geodetic Datum
APD                .ft       15                            : Elevation of Depth Reference (LMF) Above Permanent Datum
BHS                .         OPEN                          : Borehole Status (Open or Cased Hole)
BHT                .degF     103                           : Bottom Hole Temperature
BLI                .ft       6475                          : Bottom Log Interval
BS                 .in       6.75                          : Bit Size
CBDR               .ft       4355                          : Casing Bottom of Driller
CBLO               .ft       4353                          : Logger Casing Shoe Depth
CSIZ               .in       7.625                         : Current Casing Size
CWEI               .lbm/ft   11.6                          : Casing Weight
COUNTRY            .         United States                 : Nation
DCS                .         03-Dec-2018                   : Date Circulation Stopped
DFD                .lbm/gal  9.25                          : Drilling Fluid Density
DFT                .         WATER                         : Drilling Fluid Type
DLAB               .         03-Dec-2018                   : Date Logger At Bottom
EDF                .ft       618                           : Elevation of Drill Floor
EGL                .ft       603                           : Elevation of Ground Level
EKB                .ft       618                           : Elevation of Kelly Bushing
EPD                .ft       603                           : Elevation of Permanent Datum (PDAT) above Mean Sea Level
LMF                .         KB                            : Logging Measured From (Name of Logging Elevation Reference)
LUL                .         Bradford                      : Logging Unit Location
LUN                .         3703                          : Logging Unit Number
MCST               .degF     71.2                          : Mudcake Sample Temperature
MFST               .degF     69.1                          : Mud Filtrate Sample Temperature
MRT                .degF     103                           : Maximum Recorded Temperature
MST                .degF     59.2                          : Mud Sample Temperature
PDAT               .         GL                            : Permanent Datum
PRODUCER-CODE      .         440                           : 
PRODUCER-NAME      .         Schlumberger                  : 
RMB                .ohm.m    0.835368                      : Resistivity of Mud at Bottom Hole Temperature
RMCS               .ohm.m    1.55                          : Resistivity of Mud Cake Sample
RMFS               .ohm.m    1.26                          : Resistivity of Mud Filtrate Sample
RMS                .ohm.m    1.39                          : Resistivity of Mud Sample
RUN                .         2A                            : Run Number
TCS                .         08_00_00                      : Time Circulation Stopped
TDD                .ft       6469                          : Driller Total Depth
TDL                .ft       6475                          : Logger Total Depth
TLAB               .         17_50_00                      : Time Logger At Bottom
TLI                .ft       4353                          : Top Log Interval
~Parameter Information Block
#_______________________________________________________________________________
#
#PARAMETER_NAME    .UNIT     VALUE                         : DESCRIPTION
#_______________________________________________________________________________
SET                .         01_Elan                       : 
TLFamily_ALPH      .         Biot Coefficient              : 
TLFamily_BMK_DYN   .         Bulk Modulus (Dynamic)        : 
TLFamily_BMK_STA   .         Bulk Modulus (Static)         : 
TLFamily_DEN_COM_EXT .         Bulk Density                  : 
TLFamily_FANG      .         Friction Angle                : 
TLFamily_MD        .         Measured Depth                : 
TLFamily_MECH_LITHO .         Mechanical Stratigraphy Flag  : 
TLFamily_OBMW_EXT  .         Pressure Gradient             : 
TLFamily_PPRS_HP_G .         Pore Pressure                 : 
TLFamily_PR_DYN    .         Poisson Ratio (Dynamic)       : 
TLFamily_PR_STA    .         Poisson Ratio (Static)        : 
TLFamily_SHMAX_PHS .         Maximum Horizontal Stress     : 
TLFamily_SHMIN_PHS .         Minimum Horizontal Stress     : 
TLFamily_SMG_DYN   .         Shear Modulus (Dynamic)       : 
TLFamily_SMG_STA   .         Shear Modulus (Static)        : 
TLFamily_SVERTICAL_EXT .         Vertical Stress               : 
TLFamily_TSTR      .         Tensile Strength              : 
TLFamily_UCS       .         Unconfined Compressive Strength: 
TLFamily_YME_DYN   .         Young's Modulus (Dynamic)     : 
TLFamily_YME_STA   .         Young's Modulus (Static)      : 
~Curve Information
#_______________________________________________________________________________
#
#LOGNAME           .UNIT     LOG_ID                        : DESCRIPTION
#_______________________________________________________________________________
MD                 .ft                                     :  {F}
ALPH               .unitless                               : Biot coefficient {F}
BMK_DYN            .Mpsi                                   : Bulk Modulus (Dynamic) {F}
BMK_STA            .Mpsi                                   : Bulk Modulus (Static) {F}
DEN_COM_EXT        .g/cm3                                  : Composite density {F}
FANG               .deg                                    : Friction angle {F}
MECH_LITHO         .unitless                               : Lithology codes between 0 and 6 {F}
OBMW_EXT           .ppg                                    :  {F}
PPRS_HP_G          .psi                                    :  {F}
PR_DYN             .unitless                               : Poisson Ratio (Dynamic) {F}
PR_STA             .unitless                               : Static Poissons ratio {F}
SHMAX_PHS          .psi                                    : Maximum Horizontal Stress {F}
SHMIN_PHS          .psi                                    : Minimum Horizontal Stress {F}
SMG_DYN            .Mpsi                                   : Shear Modulus (Dynamic) {F}
SMG_STA            .Mpsi                                   : Shear Modulus (Static) {F}
SVERTICAL_EXT      .psi                                    :  {F}
TSTR               .Mpsi                                   : Tensile Strength {F}
UCS                .Mpsi                                   : Unconfined compressive strength {F}
YME_DYN            .Mpsi                                   : Young's Modulus (Dynamic) {F}
YME_STA            .Mpsi                                   : Static Youngs modulus {F}
~Ascii
# ...
6410.75000 1.00000    8.19166    4.08983    2.75528    42.07094   0.00000    21.34679   2915.81641 0.27107    0.13554    8250.77246 5100.33936 4.42610    3.93804    7099.84277 0.00180    0.03594    11.25179   8.94358   
6411.25000 1.00000    8.33029    4.11263    2.76297    43.00637   0.00000    21.34692   2916.04395 0.27479    0.13740    8267.68848 5121.01172 4.41496    3.93335    7100.44043 0.00180    0.03596    11.25630   8.94754   
6411.75000 1.00000    8.34847    4.09940    2.76326    43.02063   0.00000    21.34706   2916.27148 0.27638    0.13819    8248.90430 5121.39502 4.38797    3.90939    7101.04004 0.00179    0.03575    11.20141   8.89924   
6412.25000 1.00000    8.21941    4.05333    2.75111    42.46824   0.00000    21.34719   2916.49902 0.27470    0.13735    8200.92188 5099.11230 4.35825    3.87726    7101.63818 0.00177    0.03541    11.11093   8.81961   
6412.75000 1.00000    8.13020    3.99763    2.73381    42.11901   0.00000    21.34732   2916.72656 0.27519    0.13759    8136.58838 5080.11035 4.29998    3.82060    7102.23340 0.00174    0.03487    10.96657   8.69258   
6413.25000 1.00000    7.98690    3.96160    2.72073    42.06815   0.00000    21.34743   2916.95410 0.27216    0.13608    8102.93994 5057.29590 4.29131    3.80705    7102.82471 0.00173    0.03469    10.91845   8.65023   
6413.75000 1.00000    7.75466    3.96700    2.71620    42.28820   0.00000    21.34754   2917.18140 0.26213    0.13107    8133.14258 5027.63086 4.38442    3.88189    7103.41406 0.00176    0.03525    11.06745   8.78135   
6414.25000 1.00000    7.52782    3.95104    2.71262    42.99927   0.00000    21.34764   2917.40894 0.25319    0.12659    8136.22607 4993.27832 4.44778    3.92868    7104.00244 0.00178    0.03555    11.14780   8.85206   
6414.75000 1.00000    7.41796    3.93226    2.71292    43.23521   0.00000    21.34774   2917.63647 0.24949    0.12475    8123.33398 4974.69336 4.46161    3.93580    7104.59033 0.00178    0.03556    11.14950   8.85356   
6415.25000 1.00000    7.40223    3.92605    2.71631    42.68633   0.00000    21.34784   2917.86401 0.24924    0.12462    8116.92773 4971.86084 4.45748    3.93133    7105.17871 0.00178    0.03551    11.13696   8.84252   
6415.75000 1.00000    7.40528    3.93398    2.71614    41.80062   0.00000    21.34795   2918.09155 0.24874    0.12437    8127.70703 4973.45361 4.47013    3.94282    7105.76807 0.00178    0.03561    11.16404   8.86636   
6416.25000 1.00000    7.24831    3.89725    2.71042    42.14792   0.00000    21.34805   2918.31885 0.24402    0.12201    8095.93750 4944.88281 4.47450    3.93882    7106.35596 0.00177    0.03549    11.13270   8.83877   
6416.75000 1.00000    6.89091    3.75341    2.70282    42.95145   0.00000    21.34815   2918.54639 0.23777    0.11889    7940.12549 4871.77539 4.37958    3.83544    7106.94287 0.00172    0.03441    10.84186   8.58284   
6417.25000 1.00000    6.72597    3.61287    2.69794    44.06285   0.00000    21.34825   2918.77393 0.24154    0.12077    7766.04395 4832.13037 4.20052    3.66739    7107.52832 0.00164    0.03287    10.43025   8.22062   
6417.75000 1.00000    6.77351    3.52439    2.68924    43.84089   0.00000    21.34834   2919.00146 0.25211    0.12605    7642.14014 4833.19238 4.02302    3.51118    7108.11279 0.00158    0.03154    10.07452   7.90757   
6418.25000 1.00000    6.77487    3.43457    2.67382    43.39288   0.00000    21.34842   2919.22900 0.26009    0.13005    7523.81299 4825.24365 3.86956    3.37321    7108.69531 0.00152    0.03034    9.75202    7.62377   
6418.75000 1.00000    6.59987    3.30227    2.66258    43.50208   0.00000    21.34850   2919.45654 0.26298    0.13149    7366.47217 4785.26465 3.71575    3.22651    7109.27344 0.00145    0.02897    9.38582    7.30152   
6419.25000 1.00000    6.09930    3.10744    2.66093    41.79076   0.00000    21.34856   2919.68408 0.25443    0.12721    7152.70264 4686.27881 3.58207    3.08303    7109.85059 0.00137    0.02748    8.98690    6.95047   
6419.75000 1.00000    5.44014    2.82748    2.65700    41.68074   0.00000    21.34863   2919.91162 0.24314    0.12157    6837.23340 4547.58594 3.37214    2.86206    7110.42676 0.00126    0.02523    8.38409    6.42000   
6420.25000 1.00000    5.02885    2.55160    2.64075    41.77845   0.00000    21.34870   2920.13892 0.24677    0.12339    6509.73242 4456.71680 3.06420    2.56627    7111.00195 0.00112    0.02246    7.64070    5.76582   
6420.75000 1.00000    4.86264    2.39113    2.62332    41.01917   0.00000    21.34875   2920.36646 0.25436    0.12718    6318.57080 4420.45947 2.85676    2.37264    7111.57275 0.00103    0.02069    7.16679    5.34878   
6421.25000 1.00000    4.87021    2.40020    2.62505    39.56461   0.00000    21.34879   2920.59399 0.25379    0.12690    6329.62939 4422.39648 2.86908    2.38404    7112.14160 0.00104    0.02079    7.19447    5.37314   
6421.75000 1.00000    5.10400    3.64835    2.64743    36.92009   1.00000    21.34884   2920.82153 0.24661    0.23182    7431.61475 5525.29736 3.11233    2.38290    7112.71143 0.00122    0.02440    7.75975    5.87058   
6422.25000 1.00000    5.45961    3.98713    2.67667    38.09534   1.00000    21.34890   2921.04907 0.23567    0.22153    7772.02832 5590.56104 3.50372    2.72683    7113.28760 0.00139    0.02776    8.65888    6.66181   
6422.75000 1.00000    6.04382    4.42230    2.69740    38.24184   1.00000    21.34899   2921.27637 0.24833    0.23343    8112.95166 5819.18018 3.65534    2.86721    7113.86914 0.00148    0.02950    9.12618    7.07303   
6423.25000 1.00000    6.54289    4.74078    2.70474    38.52472   1.00000    21.34908   2921.50391 0.26803    0.25195    8290.53320 6036.19580 3.59084    2.81792    7114.45508 0.00147    0.02943    9.10657    7.05578   
6423.75000 1.00000    6.69557    4.82239    2.70146    39.20786   1.00000    21.34918   2921.73145 0.27607    0.25950    8315.41211 6105.43652 3.52498    2.76247    7115.04150 0.00145    0.02902    8.99621    6.95867   
6424.25000 1.00000    6.68890    4.81259    2.69980    39.34089   1.00000    21.34927   2921.95898 0.27683    0.26022    8303.67969 6106.05176 3.50733    2.74703    7115.62646 0.00144    0.02887    8.95652    6.92374   
6424.75000 1.00000    6.76848    4.88002    2.70716    39.62616   1.00000    21.34937   2922.18652 0.27644    0.25985    8360.95215 6128.43701 3.55641    2.79064    7116.21191 0.00147    0.02933    9.07908    7.03159   
6425.25000 1.00000    7.03966    5.07602    2.71819    39.91074   1.00000    21.34947   2922.41406 0.28085    0.26400    8493.95313 6219.38135 3.61339    2.84321    7116.79980 0.00150    0.02999    9.25642    7.18765   
6425.75000 1.00000    7.35158    5.29121    2.72651    39.91757   1.00000    21.34958   2922.64160 0.28711    0.26989    8625.57617 6324.44678 3.64780    2.87641    7117.38965 0.00152    0.03049    9.39027    7.30544   
6426.25000 1.00000    7.54198    3.48905    2.73116    39.97832   0.00000    21.34969   2922.86865 0.28908    0.14454    7541.57813 4940.93457 3.70215    3.25080    7117.98096 0.00148    0.02957    9.54470    7.44134   
6426.75000 1.00000    7.38569    3.59290    2.73449    40.28553   0.00000    21.34980   2923.09619 0.27506    0.13753    7683.92383 4936.24219 3.90888    3.43460    7118.57275 0.00156    0.03115    9.96809    7.81392   
6427.25000 1.00000    -9999.00000 -9999.00000 2.73702    40.64556   0.00000    21.34992   2923.32373 -9999.00000 -9999.00000 -9999.00000 -9999.00000 -9999.00000 -9999.00000 7119.16553 -9999.00000 -9999.00000 -9999.00000 -9999.00000
6427.75000 1.00000    -9999.00000 -9999.00000 2.74146    41.26326   0.00000    21.35004   2923.55127 -9999.00000 -9999.00000 -9999.00000 -9999.00000 -9999.00000 -9999.00000 7119.75928 -9999.00000 -9999.00000 -9999.00000 -9999.00000
6428.25000 1.00000    -9999.00000 -9999.00000 2.74202    41.47440   0.00000    21.35016   2923.77881 -9999.00000 -9999.00000 -9999.00000 -9999.00000 -9999.00000 -9999.00000 7120.35352 -9999.00000 -9999.00000 -9999.00000 -9999.00000
6428.75000 1.00000    -9999.00000 -9999.00000 2.73290    41.49689   0.00000    21.35028   2924.00635 -9999.00000 -9999.00000 -9999.00000 -9999.00000 -9999.00000 -9999.00000 7120.94775 -9999.00000 -9999.00000 -9999.00000 -9999.00000
