~Version
 VERS              .         3.0                           : CWLS LOG ASCII STANDARD - VERSION 3.0
 WRAP              .         NO                            : ONE LINE PER DEPTH STEP
 DLM               .         SPACE                         : DELIMITING CHARACTER(SPACE TAB OR COMMA)
~Well Information
#_______________________________________________________________________________
#
#PARAMETER_NAME    .UNIT     VALUE                         : DESCRIPTION
#_______________________________________________________________________________
STRT               .ft       4357.25000                    : First reference value
STOP               .ft       6466.75000                    : Last reference value
STEP               .ft       0.50000                       : Step increment
NULL               .         -9999                         : Missing value
COMP               .         Podolsky Oil Company          : Company
WELL               .         T_R_ McMillen #2              : Well name
FLD                .         Mount Auburn                  : Field
LOC                .                                       : Location
SRVC               .                                       : Service Company
CTRY               .         US                            : Country
STAT               .         Illinois                      : State
CNTY               .                                       : County
API                .                                       : API NUMBER
DATE               .         03-Dec-2018                   : Service Date
LATI               .         39.772784 degrees             : Latitude
LONG               .         -89.203412 degrees            : Longitude
GDAT               .                                       : Geodetic Datum
APD                .ft       15                            : Elevation of Depth Reference (LMF) Above Permanent Datum
BHS                .         OPEN                          : Borehole Status (Open or Cased Hole)
BHT                .degF     103                           : Bottom Hole Temperature
BLI                .ft       6475                          : Bottom Log Interval
BS                 .in       6.75                          : Bit Size
CBDR               .ft       4355                          : Casing Bottom of Driller
CBLO               .ft       4353                          : Logger Casing Shoe Depth
CSIZ               .in       7.625                         : Current Casing Size
CWEI               .lbm/ft   11.6                          : Casing Weight
COUNTRY            .         United States                 : Nation
DCS                .         03-Dec-2018                   : Date Circulation Stopped
DFD                .lbm/gal  9.25                          : Drilling Fluid Density
DFT                .         WATER                         : Drilling Fluid Type
DLAB               .         03-Dec-2018                   : Date Logger At Bottom
EDF                .ft       618                           : Elevation of Drill Floor
EGL                .ft       603                           : Elevation of Ground Level
EKB                .ft       618                           : Elevation of Kelly Bushing
EPD                .ft       603                           : Elevation of Permanent Datum (PDAT) above Mean Sea Level
LMF                .         KB                            : Logging Measured From (Name of Logging Elevation Reference)
LUL                .         Bradford                      : Logging Unit Location
LUN                .         3703                          : Logging Unit Number
MCST               .degF     71.2                          : Mudcake Sample Temperature
MFST               .degF     69.1                          : Mud Filtrate Sample Temperature
MRT                .degF     103                           : Maximum Recorded Temperature
MST                .degF     59.2                          : Mud Sample Temperature
PDAT               .         GL                            : Permanent Datum
PRODUCER-CODE      .         440                           : 
PRODUCER-NAME      .         Schlumberger                  : 
RMB                .ohm.m    0.835368                      : Resistivity of Mud at Bottom Hole Temperature
RMCS               .ohm.m    1.55                          : Resistivity of Mud Cake Sample
RMFS               .ohm.m    1.26                          : Resistivity of Mud Filtrate Sample
RMS                .ohm.m    1.39                          : Resistivity of Mud Sample
RUN                .         2A                            : Run Number
TCS                .         08_00_00                      : Time Circulation Stopped
TDD                .ft       6469                          : Driller Total Depth
TDL                .ft       6475                          : Logger Total Depth
TLAB               .         17_50_00                      : Time Logger At Bottom
TLI                .ft       4353                          : Top Log Interval
~Parameter Information Block
#_______________________________________________________________________________
#
#PARAMETER_NAME    .UNIT     VALUE                         : DESCRIPTION
#_______________________________________________________________________________
SET                .         01_Elan                       : 
TLFamily_ALPH      .         Biot Coefficient              : 
TLFamily_BMK_DYN   .         Bulk Modulus (Dynamic)        : 
TLFamily_BMK_STA   .         Bulk Modulus (Static)         : 
TLFamily_DEN_COM_EXT .         Bulk Density                  : 
TLFamily_FANG      .         Friction Angle                : 
TLFamily_MD        .         Measured Depth                : 
TLFamily_MECH_LITHO .         Mechanical Stratigraphy Flag  : 
TLFamily_OBMW_EXT  .         Pressure Gradient             : 
TLFamily_PPRS_HP_G .         Pore Pressure                 : 
TLFamily_PR_DYN    .         Poisson Ratio (Dynamic)       : 
TLFamily_PR_STA    .         Poisson Ratio (Static)        : 
TLFamily_SHMAX_PHS .         Maximum Horizontal Stress     : 
TLFamily_SHMIN_PHS .         Minimum Horizontal Stress     : 
TLFamily_SMG_DYN   .         Shear Modulus (Dynamic)       : 
TLFamily_SMG_STA   .         Shear Modulus (Static)        : 
TLFamily_SVERTICAL_EXT .         Vertical Stress               : 
TLFamily_TSTR      .         Tensile Strength              : 
TLFamily_UCS       .         Unconfined Compressive Strength: 
TLFamily_YME_DYN   .         Young's Modulus (Dynamic)     : 
TLFamily_YME_STA   .         Young's Modulus (Static)      : 
~Curve Information
#_______________________________________________________________________________
#
#LOGNAME           .UNIT     LOG_ID                        : DESCRIPTION
#_______________________________________________________________________________
MD                 .ft                                     :  {F}
ALPH               .unitless                               : Biot coefficient {F}
BMK_DYN            .Mpsi                                   : Bulk Modulus (Dynamic) {F}
BMK_STA            .Mpsi                                   : Bulk Modulus (Static) {F}
DEN_COM_EXT        .g/cm3                                  : Composite density {F}
FANG               .deg                                    : Friction angle {F}
MECH_LITHO         .unitless                               : Lithology codes between 0 and 6 {F}
OBMW_EXT           .ppg                                    :  {F}
PPRS_HP_G          .psi                                    :  {F}
PR_DYN             .unitless                               : Poisson Ratio (Dynamic) {F}
PR_STA             .unitless                               : Static Poissons ratio {F}
SHMAX_PHS          .psi                                    : Maximum Horizontal Stress {F}
SHMIN_PHS          .psi                                    : Minimum Horizontal Stress {F}
SMG_DYN            .Mpsi                                   : Shear Modulus (Dynamic) {F}
SMG_STA            .Mpsi                                   : Shear Modulus (Static) {F}
SVERTICAL_EXT      .psi                                    :  {F}
TSTR               .Mpsi                                   : Tensile Strength {F}
UCS                .Mpsi                                   : Unconfined compressive strength {F}
YME_DYN            .Mpsi                                   : Young's Modulus (Dynamic) {F}
YME_STA            .Mpsi                                   : Static Youngs modulus {F}
~Ascii
# ...
5448.75000 1.00000    4.03693    2.36807    2.47629    41.86058   0.00000    21.54705   2478.17358 0.18263    0.09131    5822.48828 3694.11963 3.25008    2.66046    6090.81689 0.00113    0.02263    7.68727    5.80679   
5449.25000 1.00000    3.95567    2.35731    2.47735    41.70769   0.00000    21.54697   2478.40112 0.17468    0.08734    5816.26367 3669.14771 3.28649    2.68390    6091.35352 0.00114    0.02276    7.72115    5.83661   
5449.75000 1.00000    3.71664    2.29456    2.46251    41.48109   0.00000    21.54689   2478.62866 0.15465    0.07732    5753.76953 3593.18262 3.33490    2.70073    6091.89014 0.00113    0.02268    7.70129    5.81913   
5450.25000 1.00000    3.53076    2.20610    2.43947    41.07838   0.00000    21.54680   2478.85596 0.14512    0.07256    5646.73779 3536.69824 3.28264    2.63755    6092.42236 0.00110    0.02200    7.51802    5.65786   
5450.75000 1.00000    3.45601    2.14403    2.42204    40.72997   0.00000    21.54668   2479.08350 0.14674    0.07337    5564.68896 3519.43481 3.19399    2.55657    6092.94922 0.00106    0.02128    7.32531    5.48827   
5451.25000 1.00000    3.48888    2.12815    2.41760    40.62750   0.00000    21.54656   2479.31104 0.15521    0.07760    5538.59619 3536.54712 3.12397    2.50256    6093.47363 0.00104    0.02088    7.21766    5.39354   
5451.75000 1.00000    3.54906    2.14688    2.42215    40.86449   0.00000    21.54644   2479.53857 0.16026    0.08013    5559.71826 3556.81299 3.11769    2.50363    6093.99805 0.00105    0.02094    7.23464    5.40848   
5452.25000 1.00000    3.63935    2.18658    2.42827    41.43169   0.00000    21.54632   2479.76611 0.16515    0.08257    5607.65576 3584.18042 3.13772    2.52934    6094.52344 0.00106    0.02123    7.31183    5.47641   
5452.75000 1.00000    3.74466    2.23974    2.43225    41.62134   0.00000    21.54620   2479.99365 0.16921    0.08461    5672.93506 3614.22046 3.17824    2.57339    6095.05029 0.00108    0.02168    7.43209    5.58224   
5453.25000 1.00000    3.81894    2.25794    2.43011    41.62894   0.00000    21.54609   2480.22095 0.17552    0.08776    5691.53613 3637.80444 3.16249    2.56716    6095.57715 0.00108    0.02169    7.43512    5.58491   
5453.75000 1.00000    3.87668    2.24796    2.42318    41.42227   0.00000    21.54597   2480.44824 0.18452    0.09226    5672.46143 3658.47852 3.09747    2.51748    6096.10303 0.00107    0.02133    7.33805    5.49949   
5454.25000 1.00000    3.85364    2.19270    2.41525    40.87868   0.00000    21.54585   2480.67578 0.19155    0.09578    5598.72412 3657.43970 2.99267    2.42661    6096.62793 0.00103    0.02056    7.13186    5.31804   
5454.75000 1.00000    3.67906    2.10738    2.40822    40.27465   0.00000    21.54573   2480.90332 0.18565    0.09282    5495.72363 3611.26660 2.92631    2.35557    6097.15088 0.00099    0.01984    6.93914    5.14845   
5455.25000 1.00000    3.43833    2.01785    2.40311    39.56829   0.00000    21.54560   2481.13086 0.17070    0.08535    5390.29639 3540.12549 2.90143    2.31271    6097.67236 0.00096    0.01930    6.79342    5.02021   
5455.75000 1.00000    3.27488    1.95263    2.39889    39.39228   0.00000    21.54546   2481.35840 0.16004    0.08002    5311.62549 3489.29297 2.87921    2.27792    6098.19287 0.00094    0.01887    6.67999    4.92039   
5456.25000 1.00000    3.34547    1.94962    2.40009    40.02021   0.00000    21.54532   2481.58594 0.17140    0.08570    5303.58594 3518.06616 2.81536    2.23190    6098.71289 0.00093    0.01856    6.59586    4.84635   
5456.75000 1.00000    3.48120    1.97506    2.40352    40.01579   0.00000    21.54518   2481.81348 0.18523    0.09262    5330.84033 3563.48071 2.77353    2.20920    6099.23389 0.00092    0.01848    6.57457    4.82762   
5457.25000 1.00000    3.47521    1.99714    2.40609    39.55738   0.00000    21.54505   2482.04077 0.18006    0.09003    5360.93311 3558.19409 2.82661    2.25342    6099.75488 0.00094    0.01884    6.67114    4.91260   
5457.75000 1.00000    3.37614    2.00519    2.40965    39.54332   0.00000    21.54492   2482.26831 0.16421    0.08211    5378.38721 3519.89771 2.92126    2.32311    6100.27686 0.00097    0.01933    6.80195    5.02771   
5458.25000 1.00000    3.35312    2.00653    2.41353    39.81042   0.00000    21.54479   2482.49585 0.16043    0.08022    5382.14697 3510.72998 2.94357    2.33927    6100.79883 0.00097    0.01944    6.83164    5.05384   
5458.75000 1.00000    3.32481    1.99532    2.41926    40.56354   0.00000    21.54466   2482.72339 0.15849    0.07924    5368.86523 3501.90723 2.94038    2.33370    6101.32275 0.00097    0.01937    6.81279    5.03725   
5459.25000 1.00000    3.19850    1.96899    2.42404    40.65880   0.00000    21.54454   2482.95093 0.14380    0.07190    5341.77588 3454.44946 2.98823    2.35916    6101.84766 0.00097    0.01945    6.83586    5.05756   
5459.75000 1.00000    3.14244    1.95673    2.42785    40.35205   0.00000    21.54442   2483.17822 0.13690    0.06845    5329.15869 3432.38525 3.01083    2.37097    6102.37305 0.00097    0.01949    6.84605    5.06653   
5460.25000 1.00000    3.13494    1.98059    2.43231    40.55031   0.00000    21.54431   2483.40576 0.12973    0.06486    5364.54736 3422.15039 3.08249    2.42800    6102.89941 0.00100    0.01994    6.96473    5.17096   
5460.75000 1.00000    3.27872    2.04685    2.43664    40.77169   0.00000    21.54420   2483.63306 0.13940    0.06970    5447.03076 3470.93970 3.11296    2.47011    6103.42676 0.00102    0.02042    7.09382    5.28456   
5461.25000 1.00000    3.41521    2.11017    2.44018    41.43773   0.00000    21.54409   2483.86060 0.14764    0.07382    5525.16406 3515.19092 3.14572    2.51247    6103.95557 0.00104    0.02089    7.22031    5.39587   
5461.75000 1.00000    3.40519    2.13719    2.44212    41.62182   0.00000    21.54399   2484.08813 0.14005    0.07003    5565.89502 3504.78687 3.22533    2.57639    6104.48438 0.00107    0.02139    7.35410    5.51361   
5462.25000 1.00000    3.38266    2.14465    2.44567    41.65963   0.00000    21.54388   2484.31567 0.13462    0.06731    5579.83398 3493.17603 3.26790    2.60832    6105.01416 0.00108    0.02162    7.41567    5.56779   
5462.75000 1.00000    3.53259    2.17522    2.45019    41.95629   0.00000    21.54378   2484.54321 0.15193    0.07597    5607.67383 3550.28613 3.20223    2.57173    6105.54443 0.00107    0.02148    7.37750    5.53420   
5463.25000 1.00000    3.75582    2.21354    2.45267    42.29676   0.00000    21.54368   2484.77051 0.17564    0.08782    5640.26855 3627.34106 3.10868    2.51616    6106.07568 0.00106    0.02122    7.30939    5.47426   
5463.75000 1.00000    3.78051    2.21038    2.45140    42.37291   0.00000    21.54358   2484.99805 0.17940    0.08970    5633.89453 3636.46631 3.08299    2.49678    6106.60742 0.00105    0.02108    7.27215    5.44150   
5464.25000 1.00000    3.73696    2.19951    2.44709    41.82135   0.00000    21.54349   2485.22559 0.17583    0.08791    5622.85596 3623.30957 3.09083    2.49943    6107.13867 0.00105    0.02107    7.26856    5.43833   
5464.75000 1.00000    3.64512    2.18849    2.44457    41.30801   0.00000    21.54338   2485.45313 0.16558    0.08279    5616.15967 3592.35522 3.13753    2.52976    6107.66895 0.00106    0.02124    7.31407    5.47838   
5465.25000 1.00000    3.60499    2.18090    2.44258    41.14786   0.00000    21.54328   2485.68066 0.16143    0.08071    5609.56201 3578.85815 3.15273    2.53838    6108.19873 0.00106    0.02127    7.32332    5.48652   
5465.75000 1.00000    3.67550    2.20134    2.43736    41.19744   0.00000    21.54318   2485.90820 0.16725    0.08363    5631.94385 3601.91382 3.14330    2.53754    6108.72754 0.00107    0.02133    7.33805    5.49949   
5466.25000 1.00000    3.50087    2.19666    2.43376    41.39119   0.00000    21.54307   2486.13574 0.14244    0.07122    5644.47021 3534.25146 3.28705    2.63777    6109.25586 0.00110    0.02197    7.51055    5.65128   
5466.75000 1.00000    3.49608    2.21370    2.43931    41.52634   0.00000    21.54296   2486.36279 0.13797    0.06898    5670.62207 3528.47144 3.33669    2.67769    6109.78271 0.00111    0.02228    7.59411    5.72482   
