~Version
 VERS              .         3.0                           : CWLS LOG ASCII STANDARD - VERSION 3.0
 WRAP              .         NO                            : ONE LINE PER DEPTH STEP
 DLM               .         SPACE                         : DELIMITING CHARACTER(SPACE TAB OR COMMA)
~Well Information
#_______________________________________________________________________________
#
#PARAMETER_NAME    .UNIT     VALUE                         : DESCRIPTION
#_______________________________________________________________________________
STRT               .ft       4357.25000                    : First reference value
STOP               .ft       6466.75000                    : Last reference value
STEP               .ft       0.50000                       : Step increment
NULL               .         -9999                         : Missing value
COMP               .         Podolsky Oil Company          : Company
WELL               .         T_R_ McMillen #2              : Well name
FLD                .         Mount Auburn                  : Field
LOC                .                                       : Location
SRVC               .                                       : Service Company
CTRY               .         US                            : Country
STAT               .         Illinois                      : State
CNTY               .                                       : County
API                .                                       : API NUMBER
DATE               .         03-Dec-2018                   : Service Date
LATI               .         39.772784 degrees             : Latitude
LONG               .         -89.203412 degrees            : Longitude
GDAT               .                                       : Geodetic Datum
APD                .ft       15                            : Elevation of Depth Reference (LMF) Above Permanent Datum
BHS                .         OPEN                          : Borehole Status (Open or Cased Hole)
BHT                .degF     103                           : Bottom Hole Temperature
BLI                .ft       6475                          : Bottom Log Interval
BS                 .in       6.75                          : Bit Size
CBDR               .ft       4355                          : Casing Bottom of Driller
CBLO               .ft       4353                          : Logger Casing Shoe Depth
CSIZ               .in       7.625                         : Current Casing Size
CWEI               .lbm/ft   11.6                          : Casing Weight
COUNTRY            .         United States                 : Nation
DCS                .         03-Dec-2018                   : Date Circulation Stopped
DFD                .lbm/gal  9.25                          : Drilling Fluid Density
DFT                .         WATER                         : Drilling Fluid Type
DLAB               .         03-Dec-2018                   : Date Logger At Bottom
EDF                .ft       618                           : Elevation of Drill Floor
EGL                .ft       603                           : Elevation of Ground Level
EKB                .ft       618                           : Elevation of Kelly Bushing
EPD                .ft       603                           : Elevation of Permanent Datum (PDAT) above Mean Sea Level
LMF                .         KB                            : Logging Measured From (Name of Logging Elevation Reference)
LUL                .         Bradford                      : Logging Unit Location
LUN                .         3703                          : Logging Unit Number
MCST               .degF     71.2                          : Mudcake Sample Temperature
MFST               .degF     69.1                          : Mud Filtrate Sample Temperature
MRT                .degF     103                           : Maximum Recorded Temperature
MST                .degF     59.2                          : Mud Sample Temperature
PDAT               .         GL                            : Permanent Datum
PRODUCER-CODE      .         440                           : 
PRODUCER-NAME      .         Schlumberger                  : 
RMB                .ohm.m    0.835368                      : Resistivity of Mud at Bottom Hole Temperature
RMCS               .ohm.m    1.55                          : Resistivity of Mud Cake Sample
RMFS               .ohm.m    1.26                          : Resistivity of Mud Filtrate Sample
RMS                .ohm.m    1.39                          : Resistivity of Mud Sample
RUN                .         2A                            : Run Number
TCS                .         08_00_00                      : Time Circulation Stopped
TDD                .ft       6469                          : Driller Total Depth
TDL                .ft       6475                          : Logger Total Depth
TLAB               .         17_50_00                      : Time Logger At Bottom
TLI                .ft       4353                          : Top Log Interval
~Parameter Information Block
#_______________________________________________________________________________
#
#PARAMETER_NAME    .UNIT     VALUE                         : DESCRIPTION
#_______________________________________________________________________________
SET                .         01_Elan                       : 
TLFamily_ALPH      .         Biot Coefficient              : 
TLFamily_BMK_DYN   .         Bulk Modulus (Dynamic)        : 
TLFamily_BMK_STA   .         Bulk Modulus (Static)         : 
TLFamily_DEN_COM_EXT .         Bulk Density                  : 
TLFamily_FANG      .         Friction Angle                : 
TLFamily_MD        .         Measured Depth                : 
TLFamily_MECH_LITHO .         Mechanical Stratigraphy Flag  : 
TLFamily_OBMW_EXT  .         Pressure Gradient             : 
TLFamily_PPRS_HP_G .         Pore Pressure                 : 
TLFamily_PR_DYN    .         Poisson Ratio (Dynamic)       : 
TLFamily_PR_STA    .         Poisson Ratio (Static)        : 
TLFamily_SHMAX_PHS .         Maximum Horizontal Stress     : 
TLFamily_SHMIN_PHS .         Minimum Horizontal Stress     : 
TLFamily_SMG_DYN   .         Shear Modulus (Dynamic)       : 
TLFamily_SMG_STA   .         Shear Modulus (Static)        : 
TLFamily_SVERTICAL_EXT .         Vertical Stress               : 
TLFamily_TSTR      .         Tensile Strength              : 
TLFamily_UCS       .         Unconfined Compressive Strength: 
TLFamily_YME_DYN   .         Young's Modulus (Dynamic)     : 
TLFamily_YME_STA   .         Young's Modulus (Static)      : 
~Curve Information
#_______________________________________________________________________________
#
#LOGNAME           .UNIT     LOG_ID                        : DESCRIPTION
#_______________________________________________________________________________
MD                 .ft                                     :  {F}
ALPH               .unitless                               : Biot coefficient {F}
BMK_DYN            .Mpsi                                   : Bulk Modulus (Dynamic) {F}
BMK_STA            .Mpsi                                   : Bulk Modulus (Static) {F}
DEN_COM_EXT        .g/cm3                                  : Composite density {F}
FANG               .deg                                    : Friction angle {F}
MECH_LITHO         .unitless                               : Lithology codes between 0 and 6 {F}
OBMW_EXT           .ppg                                    :  {F}
PPRS_HP_G          .psi                                    :  {F}
PR_DYN             .unitless                               : Poisson Ratio (Dynamic) {F}
PR_STA             .unitless                               : Static Poissons ratio {F}
SHMAX_PHS          .psi                                    : Maximum Horizontal Stress {F}
SHMIN_PHS          .psi                                    : Minimum Horizontal Stress {F}
SMG_DYN            .Mpsi                                   : Shear Modulus (Dynamic) {F}
SMG_STA            .Mpsi                                   : Shear Modulus (Static) {F}
SVERTICAL_EXT      .psi                                    :  {F}
TSTR               .Mpsi                                   : Tensile Strength {F}
UCS                .Mpsi                                   : Unconfined compressive strength {F}
YME_DYN            .Mpsi                                   : Young's Modulus (Dynamic) {F}
YME_STA            .Mpsi                                   : Static Youngs modulus {F}
~Ascii
# ...
5596.75000 1.00000    3.27930    2.03367    2.49013    38.18658   0.00000    21.51440   2545.50879 0.14254    0.07127    5496.06592 3542.71265 3.07799    2.44169    6246.83252 0.00101    0.02019    7.03342    5.23141   
5597.25000 1.00000    3.76999    2.21876    2.51164    37.40350   0.00000    21.51434   2545.73608 0.17650    0.08825    5715.02051 3700.23779 3.10989    2.51848    6247.37305 0.00106    0.02125    7.31757    5.48147   
5597.75000 1.00000    4.20246    2.41502    2.53323    37.34269   0.00000    21.51430   2545.96362 0.19349    0.09674    5948.74121 3817.62183 3.23785    2.66390    6247.91943 0.00114    0.02279    7.72867    5.84323   
5598.25000 1.00000    4.08969    2.50573    2.53701    37.24687   0.00000    21.51427   2546.19116 0.16493    0.08246    6091.24121 3771.57471 3.52899    2.89958    6248.46924 0.00123    0.02463    8.22203    6.27739   
5598.75000 1.00000    3.92034    2.46176    2.51713    37.67941   0.00000    21.51424   2546.41870 0.15070    0.07535    6049.75000 3716.61304 3.57014    2.91642    6249.01807 0.00123    0.02461    8.21630    6.27234   
5599.25000 1.00000    3.86932    2.40396    2.49362    39.09776   0.00000    21.51419   2546.64624 0.15472    0.07736    5970.94336 3707.61523 3.47095    2.82916    6249.56201 0.00119    0.02386    8.01597    6.09605   
5599.75000 1.00000    3.90276    2.37598    2.48290    41.24865   0.00000    21.51413   2546.87378 0.16451    0.08225    5926.05322 3724.96387 3.37313    2.75136    6250.10156 0.00116    0.02326    7.85607    5.95534   
5600.25000 1.00000    3.95143    2.37037    2.48007    41.69332   0.00000    21.51406   2547.10107 0.17180    0.08590    5912.69531 3743.28149 3.32017    2.71177    6250.63965 0.00115    0.02298    7.78115    5.88942   
5600.75000 1.00000    3.80564    2.32865    2.47483    41.28382   0.00000    21.51398   2547.32861 0.16043    0.08022    5869.27539 3697.43335 3.34081    2.71480    6251.17676 0.00114    0.02288    7.75358    5.86515   
5601.25000 1.00000    3.70685    2.29729    2.47450    41.12345   0.00000    21.51391   2547.55615 0.15270    0.07635    5835.45508 3665.33496 3.35060    2.71265    6251.71289 0.00114    0.02277    7.72444    5.83951   
5601.75000 1.00000    3.86211    2.32349    2.48528    41.25118   0.00000    21.51383   2547.78369 0.16895    0.08447    5856.09961 3719.45776 3.28133    2.67080    6252.25000 0.00113    0.02257    7.67139    5.79283   
5602.25000 1.00000    3.86458    2.32000    2.49431    41.29398   0.00000    21.51377   2548.01123 0.16991    0.08496    5851.11475 3721.11987 3.27111    2.66249    6252.78906 0.00113    0.02251    7.65384    5.77738   
5602.75000 1.00000    3.67457    2.25181    2.48574    40.91669   0.00000    21.51371   2548.23853 0.15716    0.07858    5773.79395 3662.21045 3.26612    2.63948    6253.32959 0.00111    0.02215    7.55883    5.69377   
5603.25000 1.00000    3.43914    2.15462    2.46786    40.63344   0.00000    21.51364   2548.46582 0.14173    0.07086    5658.45605 3586.20654 3.23759    2.59031    6253.86670 0.00108    0.02153    7.39289    5.54774   
5603.75000 1.00000    3.38180    2.10811    2.46021    40.79030   0.00000    21.51355   2548.69336 0.14271    0.07135    5597.08789 3572.79785 3.17221    2.53036    6254.40088 0.00105    0.02100    7.24980    5.42182   
5604.25000 1.00000    3.62838    2.14850    2.46789    41.15739   0.00000    21.51347   2548.92090 0.17113    0.08556    5632.68848 3664.12866 3.05673    2.46070    6254.93457 0.00103    0.02066    7.15965    5.34249   
5604.75000 1.00000    3.87936    2.17539    2.47280    40.80597   0.00000    21.51339   2549.14844 0.19756    0.09878    5651.85107 3745.43677 2.93913    2.38302    6255.47021 0.00101    0.02021    7.03958    5.23683   
5605.25000 1.00000    3.75766    2.09346    2.46317    39.81186   0.00000    21.51331   2549.37598 0.19778    0.09889    5550.46875 3716.51367 2.84442    2.29244    6256.00586 0.00097    0.01937    6.81395    5.03828   
5605.75000 1.00000    3.37211    1.93211    2.44308    38.83500   0.00000    21.51322   2549.60352 0.17888    0.08944    5355.56152 3608.05981 2.75565    2.18438    6256.53857 0.00091    0.01819    6.49715    4.75949   
5606.25000 1.00000    3.05434    1.79320    2.42748    38.23187   0.00000    21.51312   2549.83105 0.16059    0.08029    5182.48145 3510.44995 2.67973    2.09004    6257.06641 0.00086    0.01716    6.22012    4.51571   
5606.75000 1.00000    3.03825    1.76748    2.42879    38.63423   0.00000    21.51301   2550.05859 0.16393    0.08196    5149.26318 3510.31128 2.63177    2.04869    6257.59229 0.00084    0.01681    6.12639    4.43322   
5607.25000 1.00000    3.25171    1.83745    2.43850    40.07576   0.00000    21.51290   2550.28589 0.18137    0.09069    5236.31885 3581.37085 2.63108    2.06868    6258.11963 0.00086    0.01714    6.21655    4.51257   
5607.75000 1.00000    3.47019    1.95032    2.44825    41.46355   0.00000    21.51280   2550.51318 0.18861    0.09431    5376.79736 3641.49609 2.72729    2.16913    6258.64893 0.00091    0.01814    6.48339    4.74738   
5608.25000 1.00000    3.52723    2.04816    2.45089    42.08446   0.00000    21.51271   2550.74072 0.17705    0.08852    5504.30811 3646.14282 2.90338    2.32271    6259.17969 0.00097    0.01945    6.83481    5.05664   
5608.75000 1.00000    3.50754    2.08943    2.44780    41.99319   0.00000    21.51262   2550.96826 0.16599    0.08299    5562.35938 3631.48486 3.01432    2.41359    6259.71094 0.00101    0.02018    7.02934    5.22782   
5609.25000 1.00000    3.45578    2.08367    2.44863    41.47127   0.00000    21.51252   2551.19580 0.15958    0.07979    5558.55078 3612.44531 3.04355    2.43263    6260.24121 0.00101    0.02029    7.05848    5.25346   
5609.75000 1.00000    3.45247    2.07919    2.46087    40.83004   0.00000    21.51243   2551.42334 0.16003    0.08001    5552.80371 3612.30859 3.03549    2.42562    6260.77246 0.00101    0.02023    7.04250    5.23940   
5610.25000 1.00000    3.60470    2.10917    2.47563    39.84233   0.00000    21.51235   2551.65088 0.17559    0.08779    5583.33350 3665.14551 2.98423    2.39773    6261.30713 0.00101    0.02013    7.01646    5.21648   
5610.75000 1.00000    3.77259    2.14723    2.48650    38.48487   0.00000    21.51228   2551.87817 0.18994    0.09497    5624.01758 3717.79199 2.94903    2.38278    6261.84473 0.00101    0.02014    7.01835    5.21815   
5611.25000 1.00000    3.92674    2.16328    2.49555    37.14584   0.00000    21.51221   2552.10571 0.20492    0.10246    5636.42529 3764.27759 2.88491    2.34018    6262.38379 0.00099    0.01989    6.95219    5.15992   
5611.75000 1.00000    3.93306    2.18165    2.50309    36.44238   0.00000    21.51216   2552.33325 0.20253    0.10127    5660.56543 3764.78564 2.91874    2.36972    6262.92578 0.00101    0.02014    7.01976    5.21939   
5612.25000 1.00000    3.76937    2.15910    2.50122    36.81305   0.00000    21.51210   2552.56079 0.18740    0.09370    5641.01465 3716.00537 2.97702    2.40626    6263.46875 0.00102    0.02033    7.06984    5.26346   
5612.75000 1.00000    3.60198    2.09938    2.48147    38.07839   0.00000    21.51204   2552.78833 0.17712    0.08856    5571.44238 3667.05884 2.96398    2.38048    6264.00977 0.00100    0.01998    6.97795    5.18260   
5613.25000 1.00000    3.44124    2.02876    2.45802    39.56783   0.00000    21.51197   2553.01563 0.16887    0.08444    5485.72754 3619.88379 2.92457    2.33230    6264.54590 0.00097    0.01946    6.83690    5.05848   
5613.75000 1.00000    3.27926    1.98398    2.44528    40.53497   0.00000    21.51188   2553.24292 0.15378    0.07689    5434.67627 3563.85693 2.95209    2.33852    6265.07666 0.00097    0.01937    6.81211    5.03666   
5614.25000 1.00000    3.21905    1.97943    2.44634    40.52148   0.00000    21.51178   2553.47046 0.14487    0.07243    5432.73047 3538.71704 2.99558    2.36752    6265.60693 0.00098    0.01954    6.85911    5.07801   
5614.75000 1.00000    3.41057    2.04651    2.46170    40.80439   0.00000    21.51168   2553.69800 0.16063    0.08031    5512.95215 3604.86426 2.99178    2.38511    6266.13770 0.00099    0.01986    6.94470    5.15334   
