~Version
 VERS              .         3.0                           : CWLS LOG ASCII STANDARD - VERSION 3.0
 WRAP              .         NO                            : ONE LINE PER DEPTH STEP
 DLM               .         SPACE                         : DELIMITING CHARACTER(SPACE TAB OR COMMA)
~Well Information
#_______________________________________________________________________________
#
#PARAMETER_NAME    .UNIT     VALUE                         : DESCRIPTION
#_______________________________________________________________________________
STRT               .ft       4357.25000                    : First reference value
STOP               .ft       6466.75000                    : Last reference value
STEP               .ft       0.50000                       : Step increment
NULL               .         -9999                         : Missing value
COMP               .         Podolsky Oil Company          : Company
WELL               .         T_R_ McMillen #2              : Well name
FLD                .         Mount Auburn                  : Field
LOC                .                                       : Location
SRVC               .                                       : Service Company
CTRY               .         US                            : Country
STAT               .         Illinois                      : State
CNTY               .                                       : County
API                .                                       : API NUMBER
DATE               .         03-Dec-2018                   : Service Date
LATI               .         39.772784 degrees             : Latitude
LONG               .         -89.203412 degrees            : Longitude
GDAT               .                                       : Geodetic Datum
APD                .ft       15                            : Elevation of Depth Reference (LMF) Above Permanent Datum
BHS                .         OPEN                          : Borehole Status (Open or Cased Hole)
BHT                .degF     103                           : Bottom Hole Temperature
BLI                .ft       6475                          : Bottom Log Interval
BS                 .in       6.75                          : Bit Size
CBDR               .ft       4355                          : Casing Bottom of Driller
CBLO               .ft       4353                          : Logger Casing Shoe Depth
CSIZ               .in       7.625                         : Current Casing Size
CWEI               .lbm/ft   11.6                          : Casing Weight
COUNTRY            .         United States                 : Nation
DCS                .         03-Dec-2018                   : Date Circulation Stopped
DFD                .lbm/gal  9.25                          : Drilling Fluid Density
DFT                .         WATER                         : Drilling Fluid Type
DLAB               .         03-Dec-2018                   : Date Logger At Bottom
EDF                .ft       618                           : Elevation of Drill Floor
EGL                .ft       603                           : Elevation of Ground Level
EKB                .ft       618                           : Elevation of Kelly Bushing
EPD                .ft       603                           : Elevation of Permanent Datum (PDAT) above Mean Sea Level
LMF                .         KB                            : Logging Measured From (Name of Logging Elevation Reference)
LUL                .         Bradford                      : Logging Unit Location
LUN                .         3703                          : Logging Unit Number
MCST               .degF     71.2                          : Mudcake Sample Temperature
MFST               .degF     69.1                          : Mud Filtrate Sample Temperature
MRT                .degF     103                           : Maximum Recorded Temperature
MST                .degF     59.2                          : Mud Sample Temperature
PDAT               .         GL                            : Permanent Datum
PRODUCER-CODE      .         440                           : 
PRODUCER-NAME      .         Schlumberger                  : 
RMB                .ohm.m    0.835368                      : Resistivity of Mud at Bottom Hole Temperature
RMCS               .ohm.m    1.55                          : Resistivity of Mud Cake Sample
RMFS               .ohm.m    1.26                          : Resistivity of Mud Filtrate Sample
RMS                .ohm.m    1.39                          : Resistivity of Mud Sample
RUN                .         2A                            : Run Number
TCS                .         08_00_00                      : Time Circulation Stopped
TDD                .ft       6469                          : Driller Total Depth
TDL                .ft       6475                          : Logger Total Depth
TLAB               .         17_50_00                      : Time Logger At Bottom
TLI                .ft       4353                          : Top Log Interval
~Parameter Information Block
#_______________________________________________________________________________
#
#PARAMETER_NAME    .UNIT     VALUE                         : DESCRIPTION
#_______________________________________________________________________________
SET                .         01_Elan                       : 
TLFamily_ALPH      .         Biot Coefficient              : 
TLFamily_BMK_DYN   .         Bulk Modulus (Dynamic)        : 
TLFamily_BMK_STA   .         Bulk Modulus (Static)         : 
TLFamily_DEN_COM_EXT .         Bulk Density                  : 
TLFamily_FANG      .         Friction Angle                : 
TLFamily_MD        .         Measured Depth                : 
TLFamily_MECH_LITHO .         Mechanical Stratigraphy Flag  : 
TLFamily_OBMW_EXT  .         Pressure Gradient             : 
TLFamily_PPRS_HP_G .         Pore Pressure                 : 
TLFamily_PR_DYN    .         Poisson Ratio (Dynamic)       : 
TLFamily_PR_STA    .         Poisson Ratio (Static)        : 
TLFamily_SHMAX_PHS .         Maximum Horizontal Stress     : 
TLFamily_SHMIN_PHS .         Minimum Horizontal Stress     : 
TLFamily_SMG_DYN   .         Shear Modulus (Dynamic)       : 
TLFamily_SMG_STA   .         Shear Modulus (Static)        : 
TLFamily_SVERTICAL_EXT .         Vertical Stress               : 
TLFamily_TSTR      .         Tensile Strength              : 
TLFamily_UCS       .         Unconfined Compressive Strength: 
TLFamily_YME_DYN   .         Young's Modulus (Dynamic)     : 
TLFamily_YME_STA   .         Young's Modulus (Static)      : 
~Curve Information
#_______________________________________________________________________________
#
#LOGNAME           .UNIT     LOG_ID                        : DESCRIPTION
#_______________________________________________________________________________
MD                 .ft                                     :  {F}
ALPH               .unitless                               : Biot coefficient {F}
BMK_DYN            .Mpsi                                   : Bulk Modulus (Dynamic) {F}
BMK_STA            .Mpsi                                   : Bulk Modulus (Static) {F}
DEN_COM_EXT        .g/cm3                                  : Composite density {F}
FANG               .deg                                    : Friction angle {F}
MECH_LITHO         .unitless                               : Lithology codes between 0 and 6 {F}
OBMW_EXT           .ppg                                    :  {F}
PPRS_HP_G          .psi                                    :  {F}
PR_DYN             .unitless                               : Poisson Ratio (Dynamic) {F}
PR_STA             .unitless                               : Static Poissons ratio {F}
SHMAX_PHS          .psi                                    : Maximum Horizontal Stress {F}
SHMIN_PHS          .psi                                    : Minimum Horizontal Stress {F}
SMG_DYN            .Mpsi                                   : Shear Modulus (Dynamic) {F}
SMG_STA            .Mpsi                                   : Shear Modulus (Static) {F}
SVERTICAL_EXT      .psi                                    :  {F}
TSTR               .Mpsi                                   : Tensile Strength {F}
UCS                .Mpsi                                   : Unconfined compressive strength {F}
YME_DYN            .Mpsi                                   : Young's Modulus (Dynamic) {F}
YME_STA            .Mpsi                                   : Static Youngs modulus {F}
~Ascii
# ...
5855.75000 1.00000    3.33820    1.79345    2.41195    39.49190   0.00000    21.46675   2663.32813 0.20208    0.10104    5309.48047 3749.82324 2.48202    1.94957    6521.49219 0.00081    0.01621    5.96717    4.29311   
5856.25000 1.00000    3.41661    1.79916    2.40949    39.31139   0.00000    21.46664   2663.55566 0.21075    0.10538    5317.31934 3775.78296 2.44868    1.92692    6522.01416 0.00080    0.01607    5.92948    4.25994   
5856.75000 1.00000    3.47760    1.81169    2.40793    39.01745   0.00000    21.46652   2663.78320 0.21566    0.10783    5333.21533 3794.01733 2.44018    1.92400    6522.53662 0.00080    0.01608    5.93287    4.26293   
5857.25000 1.00000    3.39564    1.78392    2.40352    38.71268   0.00000    21.46641   2664.01050 0.21108    0.10554    5299.24316 3771.61401 2.43028    1.90954    6523.05811 0.00080    0.01591    5.88651    4.22213   
5857.75000 1.00000    3.32630    1.72724    2.39671    38.55796   0.00000    21.46629   2664.23779 0.21337    0.10668    5230.64063 3757.36743 2.35732    1.84159    6523.57813 0.00076    0.01529    5.72059    4.07612   
5858.25000 1.00000    3.33613    1.71641    2.39521    38.74099   0.00000    21.46616   2664.46533 0.21661    0.10831    5218.32471 3762.46436 2.33129    1.81983    6524.09766 0.00076    0.01511    5.67255    4.03384   
5858.75000 1.00000    3.38360    1.75246    2.40406    39.17891   0.00000    21.46604   2664.69263 0.21552    0.10776    5262.22754 3772.98853 2.37566    1.86155    6524.61670 0.00077    0.01550    5.77534    4.12430   
5859.25000 1.00000    3.46828    1.80794    2.41638    39.59221   0.00000    21.46592   2664.91992 0.21526    0.10763    5329.94434 3792.86377 2.43788    1.92135    6525.13867 0.00080    0.01606    5.92533    4.25629   
5859.75000 1.00000    3.44590    1.83095    2.42127    39.61891   0.00000    21.46582   2665.14746 0.20835    0.10417    5357.94824 3782.67212 2.49517    1.96910    6525.66260 0.00082    0.01645    6.03005    4.34844   
5860.25000 1.00000    3.43408    1.83596    2.42080    39.59613   0.00000    21.46571   2665.37500 0.20596    0.10298    5364.30322 3778.25293 2.51188    1.98256    6526.18750 0.00083    0.01655    6.05848    4.37346   
5860.75000 1.00000    3.39235    1.85490    2.42045    39.78277   0.00000    21.46560   2665.60254 0.19706    0.09853    5388.03516 3761.09668 2.57548    2.03367    6526.71240 0.00085    0.01695    6.16603    4.46811   
5861.25000 1.00000    3.35943    1.87107    2.41794    39.93626   0.00000    21.46550   2665.82983 0.18951    0.09475    5408.85254 3746.56592 2.63072    2.07786    6527.23633 0.00086    0.01730    6.25850    4.54948   
5861.75000 1.00000    3.40081    1.89726    2.41346    39.96613   0.00000    21.46539   2666.05713 0.18985    0.09492    5441.80420 3757.22559 2.65944    2.10572    6527.76025 0.00088    0.01756    6.32865    4.61121   
5862.25000 1.00000    3.56236    1.91595    2.41173    39.84655   0.00000    21.46527   2666.28442 0.20662    0.10331    5463.56641 3810.28394 2.59845    2.06660    6528.28223 0.00087    0.01734    6.27070    4.56021   
5862.75000 1.00000    3.76637    1.94017    2.41717    39.81974   0.00000    21.46516   2666.51196 0.22499    0.11250    5491.85986 3869.93677 2.53664    2.02740    6528.80518 0.00086    0.01714    6.21472    4.51096   
5863.25000 1.00000    3.70922    1.95026    2.42078    39.73019   0.00000    21.46506   2666.73926 0.21724    0.10862    5504.98096 3852.55884 2.58491    2.06553    6529.32959 0.00087    0.01743    6.29292    4.57977   
5863.75000 1.00000    3.61841    1.91759    2.41735    39.63046   0.00000    21.46495   2666.96680 0.21283    0.10642    5465.86963 3828.72778 2.57024    2.04643    6529.85400 0.00086    0.01721    6.23454    4.52840   
5864.25000 1.00000    3.61759    1.88460    2.41451    39.74891   0.00000    21.46484   2667.19434 0.21853    0.10927    5425.77881 3832.55884 2.50686    1.99153    6530.37744 0.00084    0.01674    6.10939    4.41826   
5864.75000 1.00000    3.60365    1.86999    2.41719    40.10511   0.00000    21.46473   2667.42163 0.21954    0.10977    5408.33301 3830.22803 2.48619    1.97263    6530.90039 0.00083    0.01657    6.06402    4.37834   
5865.25000 1.00000    3.68251    1.86492    2.42165    40.09180   0.00000    21.46462   2667.64893 0.22883    0.11442    5402.72559 3854.11255 2.43787    1.93577    6531.42480 0.00082    0.01630    5.99147    4.31450   
5865.75000 1.00000    3.63980    1.85664    2.42197    39.68672   0.00000    21.46452   2667.87646 0.22575    0.11288    5392.92139 3842.88647 2.44307    1.93754    6531.94922 0.00081    0.01629    5.98920    4.31250   
5866.25000 1.00000    3.44746    1.83137    2.41933    39.51102   0.00000    21.46441   2668.10376 0.20846    0.10423    5361.87061 3786.53271 2.49512    1.96917    6532.47461 0.00082    0.01645    6.03049    4.34883   
5866.75000 1.00000    3.46376    1.83951    2.42421    39.21234   0.00000    21.46431   2668.33105 0.20891    0.10445    5372.10742 3791.00171 2.50209    1.97638    6532.99854 0.00083    0.01652    6.04960    4.36565   
5867.25000 1.00000    3.65219    1.90046    2.43946    39.36569   0.00000    21.46420   2668.55859 0.21958    0.10979    5446.55420 3842.84131 2.51924    2.00464    6533.52441 0.00084    0.01687    6.14485    4.44946   
5867.75000 1.00000    3.79393    1.98663    2.45548    39.71629   0.00000    21.46412   2668.78613 0.22016    0.11008    5551.08838 3876.32886 2.61041    2.09345    6534.05469 0.00089    0.01772    6.37021    4.64779   
5868.25000 1.00000    3.73482    2.00273    2.45866    39.87869   0.00000    21.46404   2669.01343 0.21104    0.10552    5572.41162 3857.30176 2.67342    2.14389    6534.58691 0.00091    0.01811    6.47525    4.74022   
5868.75000 1.00000    3.50308    1.93876    2.44894    39.36137   0.00000    21.46396   2669.24072 0.19510    0.09755    5496.47998 3790.30322 2.68118    2.13272    6535.11963 0.00089    0.01786    6.40856    4.68153   
5869.25000 1.00000    3.22422    1.85267    2.43437    39.08751   0.00000    21.46387   2669.46826 0.17408    0.08704    5391.07568 3701.90503 2.68513    2.11146    6535.64893 0.00087    0.01747    6.30509    4.59048   
5869.75000 1.00000    3.09603    1.78970    2.42358    38.94139   0.00000    21.46377   2669.69580 0.16819    0.08410    5311.47119 3663.62524 2.63814    2.05981    6536.17529 0.00085    0.01695    6.16371    4.46606   
5870.25000 1.00000    3.23379    1.77653    2.41824    38.85350   0.00000    21.46366   2669.92285 0.19154    0.09577    5295.43018 3722.57056 2.51142    1.96607    6536.70068 0.00081    0.01628    5.98493    4.30874   
5870.75000 1.00000    3.38279    1.77547    2.41781    39.00235   0.00000    21.46355   2670.15039 0.21111    0.10555    5296.00586 3775.69580 2.42076    1.90039    6537.22363 0.00079    0.01582    5.86359    4.20196   
5871.25000 1.00000    3.44896    1.77952    2.42040    38.82728   0.00000    21.46345   2670.37793 0.21820    0.10910    5302.04248 3796.79810 2.39346    1.88156    6537.74805 0.00079    0.01570    5.83144    4.17367   
5871.75000 1.00000    3.39387    1.75681    2.41603    38.31730   0.00000    21.46334   2670.60522 0.21593    0.10797    5274.42236 3782.54785 2.37863    1.86484    6538.27197 0.00078    0.01553    5.78451    4.13237   
5872.25000 1.00000    3.30472    1.70832    2.40009    38.18179   0.00000    21.46323   2670.83252 0.21434    0.10717    5215.39746 3760.70825 2.33220    1.81836    6538.79492 0.00075    0.01508    5.66417    4.02647   
5872.75000 1.00000    3.25761    1.68594    2.38747    38.78818   0.00000    21.46310   2671.06006 0.21283    0.10642    5188.05615 3748.68579 2.31397    1.79921    6539.31299 0.00074    0.01489    5.61290    3.98135   
5873.25000 1.00000    3.27588    1.72027    2.39441    39.39102   0.00000    21.46298   2671.28760 0.20843    0.10422    5229.39502 3749.56421 2.37118    1.84979    6539.83105 0.00077    0.01533    5.73083    4.08513   
5873.75000 1.00000    3.40764    1.77806    2.41443    39.17116   0.00000    21.46285   2671.51489 0.21362    0.10681    5301.03125 3785.06323 2.41236    1.89496    6540.35059 0.00079    0.01579    5.85536    4.19471   
