~Version
 VERS              .         3.0                           : CWLS LOG ASCII STANDARD - VERSION 3.0
 WRAP              .         NO                            : ONE LINE PER DEPTH STEP
 DLM               .         SPACE                         : DELIMITING CHARACTER(SPACE TAB OR COMMA)
~Well Information
#_______________________________________________________________________________
#
#PARAMETER_NAME    .UNIT     VALUE                         : DESCRIPTION
#_______________________________________________________________________________
STRT               .ft       4357.25000                    : First reference value
STOP               .ft       6466.75000                    : Last reference value
STEP               .ft       0.50000                       : Step increment
NULL               .         -9999                         : Missing value
COMP               .         Podolsky Oil Company          : Company
WELL               .         T_R_ McMillen #2              : Well name
FLD                .         Mount Auburn                  : Field
LOC                .                                       : Location
SRVC               .                                       : Service Company
CTRY               .         US                            : Country
STAT               .         Illinois                      : State
CNTY               .                                       : County
API                .                                       : API NUMBER
DATE               .         03-Dec-2018                   : Service Date
LATI               .         39.772784 degrees             : Latitude
LONG               .         -89.203412 degrees            : Longitude
GDAT               .                                       : Geodetic Datum
APD                .ft       15                            : Elevation of Depth Reference (LMF) Above Permanent Datum
BHS                .         OPEN                          : Borehole Status (Open or Cased Hole)
BHT                .degF     103                           : Bottom Hole Temperature
BLI                .ft       6475                          : Bottom Log Interval
BS                 .in       6.75                          : Bit Size
CBDR               .ft       4355                          : Casing Bottom of Driller
CBLO               .ft       4353                          : Logger Casing Shoe Depth
CSIZ               .in       7.625                         : Current Casing Size
CWEI               .lbm/ft   11.6                          : Casing Weight
COUNTRY            .         United States                 : Nation
DCS                .         03-Dec-2018                   : Date Circulation Stopped
DFD                .lbm/gal  9.25                          : Drilling Fluid Density
DFT                .         WATER                         : Drilling Fluid Type
DLAB               .         03-Dec-2018                   : Date Logger At Bottom
EDF                .ft       618                           : Elevation of Drill Floor
EGL                .ft       603                           : Elevation of Ground Level
EKB                .ft       618                           : Elevation of Kelly Bushing
EPD                .ft       603                           : Elevation of Permanent Datum (PDAT) above Mean Sea Level
LMF                .         KB                            : Logging Measured From (Name of Logging Elevation Reference)
LUL                .         Bradford                      : Logging Unit Location
LUN                .         3703                          : Logging Unit Number
MCST               .degF     71.2                          : Mudcake Sample Temperature
MFST               .degF     69.1                          : Mud Filtrate Sample Temperature
MRT                .degF     103                           : Maximum Recorded Temperature
MST                .degF     59.2                          : Mud Sample Temperature
PDAT               .         GL                            : Permanent Datum
PRODUCER-CODE      .         440                           : 
PRODUCER-NAME      .         Schlumberger                  : 
RMB                .ohm.m    0.835368                      : Resistivity of Mud at Bottom Hole Temperature
RMCS               .ohm.m    1.55                          : Resistivity of Mud Cake Sample
RMFS               .ohm.m    1.26                          : Resistivity of Mud Filtrate Sample
RMS                .ohm.m    1.39                          : Resistivity of Mud Sample
RUN                .         2A                            : Run Number
TCS                .         08_00_00                      : Time Circulation Stopped
TDD                .ft       6469                          : Driller Total Depth
TDL                .ft       6475                          : Logger Total Depth
TLAB               .         17_50_00                      : Time Logger At Bottom
TLI                .ft       4353                          : Top Log Interval
~Parameter Information Block
#_______________________________________________________________________________
#
#PARAMETER_NAME    .UNIT     VALUE                         : DESCRIPTION
#_______________________________________________________________________________
SET                .         01_Elan                       : 
TLFamily_ALPH      .         Biot Coefficient              : 
TLFamily_BMK_DYN   .         Bulk Modulus (Dynamic)        : 
TLFamily_BMK_STA   .         Bulk Modulus (Static)         : 
TLFamily_DEN_COM_EXT .         Bulk Density                  : 
TLFamily_FANG      .         Friction Angle                : 
TLFamily_MD        .         Measured Depth                : 
TLFamily_MECH_LITHO .         Mechanical Stratigraphy Flag  : 
TLFamily_OBMW_EXT  .         Pressure Gradient             : 
TLFamily_PPRS_HP_G .         Pore Pressure                 : 
TLFamily_PR_DYN    .         Poisson Ratio (Dynamic)       : 
TLFamily_PR_STA    .         Poisson Ratio (Static)        : 
TLFamily_SHMAX_PHS .         Maximum Horizontal Stress     : 
TLFamily_SHMIN_PHS .         Minimum Horizontal Stress     : 
TLFamily_SMG_DYN   .         Shear Modulus (Dynamic)       : 
TLFamily_SMG_STA   .         Shear Modulus (Static)        : 
TLFamily_SVERTICAL_EXT .         Vertical Stress               : 
TLFamily_TSTR      .         Tensile Strength              : 
TLFamily_UCS       .         Unconfined Compressive Strength: 
TLFamily_YME_DYN   .         Young's Modulus (Dynamic)     : 
TLFamily_YME_STA   .         Young's Modulus (Static)      : 
~Curve Information
#_______________________________________________________________________________
#
#LOGNAME           .UNIT     LOG_ID                        : DESCRIPTION
#_______________________________________________________________________________
MD                 .ft                                     :  {F}
ALPH               .unitless                               : Biot coefficient {F}
BMK_DYN            .Mpsi                                   : Bulk Modulus (Dynamic) {F}
BMK_STA            .Mpsi                                   : Bulk Modulus (Static) {F}
DEN_COM_EXT        .g/cm3                                  : Composite density {F}
FANG               .deg                                    : Friction angle {F}
MECH_LITHO         .unitless                               : Lithology codes between 0 and 6 {F}
OBMW_EXT           .ppg                                    :  {F}
PPRS_HP_G          .psi                                    :  {F}
PR_DYN             .unitless                               : Poisson Ratio (Dynamic) {F}
PR_STA             .unitless                               : Static Poissons ratio {F}
SHMAX_PHS          .psi                                    : Maximum Horizontal Stress {F}
SHMIN_PHS          .psi                                    : Minimum Horizontal Stress {F}
SMG_DYN            .Mpsi                                   : Shear Modulus (Dynamic) {F}
SMG_STA            .Mpsi                                   : Shear Modulus (Static) {F}
SVERTICAL_EXT      .psi                                    :  {F}
TSTR               .Mpsi                                   : Tensile Strength {F}
UCS                .Mpsi                                   : Unconfined compressive strength {F}
YME_DYN            .Mpsi                                   : Young's Modulus (Dynamic) {F}
YME_STA            .Mpsi                                   : Static Youngs modulus {F}
~Ascii
# ...
6003.75000 1.00000    2.98867    1.33463    2.32680    36.38316   0.00000    21.42980   2730.64111 0.24865    0.12433    4856.38330 3786.12207 1.80481    1.33783    6674.80762 0.00054    0.01076    4.50717    3.00831   
6004.25000 1.00000    2.84369    1.33600    2.32727    36.15962   0.00000    21.42963   2730.86865 0.23089    0.11545    4843.85107 3738.42798 1.86515    1.38178    6675.31152 0.00055    0.01108    4.59159    3.08260   
6004.75000 1.00000    2.82825    1.34528    2.33713    36.23840   0.00000    21.42947   2731.09595 0.22691    0.11346    4852.16162 3731.30054 1.88855    1.40108    6675.81592 0.00056    0.01124    4.63417    3.12007   
6005.25000 1.00000    2.94986    1.36822    2.34970    36.76734   0.00000    21.42932   2731.32324 0.23756    0.11878    4887.95068 3769.03394 1.87665    1.39865    6676.32422 0.00056    0.01128    4.64495    3.12956   
6005.75000 1.00000    3.01230    1.35754    2.34785    37.21775   0.00000    21.42917   2731.55078 0.24694    0.12347    4882.94727 3790.99512 1.83401    1.36494    6676.83301 0.00055    0.01101    4.57379    3.06694   
6006.25000 1.00000    2.87478    1.30385    2.32070    37.03135   0.00000    21.42901   2731.77832 0.24139    0.12070    4815.30762 3756.20605 1.79661    1.32388    6677.34082 0.00053    0.01059    4.46060    2.96733   
6006.75000 1.00000    2.63228    1.22626    2.28340    36.33355   0.00000    21.42883   2732.00586 0.22627    0.11314    4709.63037 3686.80420 1.76271    1.27853    6677.84082 0.00050    0.01007    4.32314    2.84636   
6007.25000 1.00000    2.53811    1.15720    2.26282    35.95995   0.00000    21.42863   2732.23340 0.22871    0.11436    4629.32764 3668.19653 1.68118    1.20141    6678.33350 0.00047    0.00936    4.13137    2.67760   
6007.75000 1.00000    2.56718    1.12553    2.26183    35.67401   0.00000    21.42842   2732.46045 0.24000    0.12000    4603.70264 3687.19727 1.61483    1.14563    6678.82324 0.00044    0.00889    4.00479    2.56622   
6008.25000 1.00000    2.67823    1.12833    2.26855    35.09138   0.00000    21.42821   2732.68799 0.25358    0.12679    4622.25293 3725.32520 1.57940    1.12116    6679.31396 0.00044    0.00872    3.95980    2.52662   
6008.75000 1.00000    2.75766    1.13998    2.27543    35.20655   0.00000    21.42800   2732.91553 0.26051    0.13026    4643.86230 3748.84277 1.57178    1.11877    6679.80615 0.00044    0.00873    3.96251    2.52901   
6009.25000 1.00000    2.80140    1.16731    2.28107    35.35052   0.00000    21.42780   2733.14282 0.26005    0.13002    4675.24902 3758.00708 1.60044    1.14655    6680.29980 0.00045    0.00899    4.03325    2.59126   
6009.75000 1.00000    2.81312    1.18315    2.28260    35.33870   0.00000    21.42761   2733.37036 0.25825    0.12912    4691.95264 3759.25757 1.62149    1.16587    6680.79395 0.00046    0.00917    4.08048    2.63282   
6010.25000 1.00000    2.85388    1.20999    2.28931    36.16544   0.00000    21.42741   2733.59790 0.25758    0.12879    4722.67529 3767.67725 1.65044    1.19375    6681.28906 0.00047    0.00943    4.15111    2.69497   
6010.75000 1.00000    2.98755    1.27449    2.31052    36.40112   0.00000    21.42722   2733.82520 0.25987    0.12993    4800.04736 3798.26465 1.70827    1.25223    6681.78662 0.00050    0.01000    4.30440    2.82987   
6011.25000 1.00000    3.10245    1.36070    2.33891    36.17076   0.00000    21.42705   2734.05273 0.25615    0.12808    4897.09033 3820.40674 1.80677    1.34585    6682.28906 0.00054    0.01088    4.53915    3.03645   
6011.75000 1.00000    3.08008    1.40655    2.35633    36.06930   0.00000    21.42690   2734.28027 0.24526    0.12263    4942.49902 3807.76636 1.89021    1.41842    6682.79785 0.00058    0.01151    4.70763    3.18472   
6012.25000 1.00000    2.97174    1.40717    2.35746    36.13134   0.00000    21.42676   2734.50732 0.23244    0.11622    4934.27100 3773.11377 1.93549    1.45145    6683.30859 0.00059    0.01175    4.77075    3.24026   
6012.75000 1.00000    2.95679    1.39294    2.35690    36.40575   0.00000    21.42661   2734.73486 0.23346    0.11673    4918.28418 3770.90869 1.91686    1.43422    6683.81934 0.00058    0.01159    4.72871    3.20326   
6013.25000 1.00000    3.03978    1.41268    2.35927    37.04858   0.00000    21.42647   2734.96240 0.23950    0.11975    4946.35205 3795.01831 1.91656    1.43917    6684.33008 0.00058    0.01167    4.75115    3.22302   
6013.75000 1.00000    3.12845    1.45871    2.36224    37.61434   0.00000    21.42632   2735.18994 0.24090    0.12045    5002.08350 3816.15405 1.95970    1.48241    6684.84180 0.00060    0.01209    4.86356    3.32193   
6014.25000 1.00000    3.14460    1.49265    2.36455    37.48720   0.00000    21.42619   2735.41748 0.23634    0.11817    5039.74854 3816.45752 2.01181    1.52911    6685.35449 0.00063    0.01251    4.97457    3.41962   
6014.75000 1.00000    3.20045    1.51969    2.37297    37.44696   0.00000    21.42605   2735.64478 0.23762    0.11881    5072.89160 3830.24634 2.03548    1.55331    6685.86621 0.00064    0.01274    5.03831    3.47572   
6015.25000 1.00000    3.28197    1.55559    2.38649    37.91360   0.00000    21.42592   2735.87207 0.24006    0.12003    5117.07080 3850.51025 2.06390    1.58320    6686.38232 0.00065    0.01304    5.11871    3.54646   
6015.75000 1.00000    3.29207    1.56775    2.38703    38.19216   0.00000    21.42579   2736.09961 0.23896    0.11948    5131.18555 3852.25537 2.08080    1.59866    6686.89990 0.00066    0.01318    5.15608    3.57935   
6016.25000 1.00000    3.05129    1.47629    2.36280    37.65937   0.00000    21.42567   2736.32715 0.22843    0.11422    5016.51563 3789.75732 2.02364    1.53345    6687.41602 0.00062    0.01250    4.97180    3.41718   
6016.75000 1.00000    2.77360    1.34153    2.32924    36.97748   0.00000    21.42552   2736.55444 0.22031    0.11016    4848.92969 3718.30225 1.90708    1.41328    6687.92529 0.00057    0.01131    4.65447    3.13793   
6017.25000 1.00000    2.69220    1.27664    2.31423    36.58788   0.00000    21.42535   2736.78198 0.22335    0.11168    4773.22949 3702.95972 1.82643    1.33784    6688.42822 0.00053    0.01062    4.46873    2.97448   
6017.75000 1.00000    2.71757    1.31335    2.32363    36.58476   0.00000    21.42518   2737.00928 0.21869    0.10935    4814.08643 3704.10352 1.88185    1.38748    6688.93018 0.00055    0.01106    4.58681    3.07839   
6018.25000 1.00000    2.79422    1.38897    2.34166    36.91759   0.00000    21.42501   2737.23682 0.21271    0.10635    4901.93555 3715.84473 1.98588    1.48261    6689.43506 0.00060    0.01192    4.81658    3.28059   
6018.75000 1.00000    2.92102    1.45553    2.35590    37.71494   0.00000    21.42486   2737.46436 0.21588    0.10794    4985.26270 3749.12427 2.04767    1.54517    6689.94336 0.00063    0.01252    4.97946    3.42392   
6019.25000 1.00000    3.02676    1.53912    2.36716    38.53680   0.00000    21.42472   2737.69189 0.21254    0.10627    5085.53564 3770.85596 2.15268    1.64335    6690.45508 0.00067    0.01342    5.22043    3.63598   
6019.75000 1.00000    3.19043    1.63808    2.37826    38.95459   0.00000    21.42459   2737.91895 0.21377    0.10688    5206.97021 3810.70703 2.25713    1.74533    6690.96875 0.00072    0.01439    5.47926    3.86375   
6020.25000 1.00000    3.37314    1.72486    2.38833    39.09290   0.00000    21.42446   2738.14648 0.21942    0.10971    5314.35547 3858.42407 2.32839    1.81991    6691.48486 0.00076    0.01513    5.67859    4.03916   
6020.75000 1.00000    3.41531    1.74409    2.39313    38.87403   0.00000    21.42434   2738.37402 0.22078    0.11039    5338.22363 3869.52954 2.34344    1.83587    6692.00293 0.00076    0.01529    5.72166    4.07706   
6021.25000 1.00000    3.35196    1.71785    2.39476    38.71408   0.00000    21.42422   2738.60156 0.21823    0.10911    5306.08447 3853.06909 2.32589    1.81627    6692.52197 0.00075    0.01509    5.66693    4.02890   
6021.75000 1.00000    3.28407    1.66514    2.39190    38.48603   0.00000    21.42410   2738.82910 0.22006    0.11003    5243.02832 3839.06299 2.26056    1.75496    6693.04102 0.00073    0.01453    5.51604    3.89611   
