~Version
 VERS              .         3.0                           : CWLS LOG ASCII STANDARD - VERSION 3.0
 WRAP              .         NO                            : ONE LINE PER DEPTH STEP
 DLM               .         SPACE                         : DELIMITING CHARACTER(SPACE TAB OR COMMA)
~Well Information
#_______________________________________________________________________________
#
#PARAMETER_NAME    .UNIT     VALUE                         : DESCRIPTION
#_______________________________________________________________________________
STRT               .ft       4357.25000                    : First reference value
STOP               .ft       6466.75000                    : Last reference value
STEP               .ft       0.50000                       : Step increment
NULL               .         -9999                         : Missing value
COMP               .         Podolsky Oil Company          : Company
WELL               .         T_R_ McMillen #2              : Well name
FLD                .         Mount Auburn                  : Field
LOC                .                                       : Location
SRVC               .                                       : Service Company
CTRY               .         US                            : Country
STAT               .         Illinois                      : State
CNTY               .                                       : County
API                .                                       : API NUMBER
DATE               .         03-Dec-2018                   : Service Date
LATI               .         39.772784 degrees             : Latitude
LONG               .         -89.203412 degrees            : Longitude
GDAT               .                                       : Geodetic Datum
APD                .ft       15                            : Elevation of Depth Reference (LMF) Above Permanent Datum
BHS                .         OPEN                          : Borehole Status (Open or Cased Hole)
BHT                .degF     103                           : Bottom Hole Temperature
BLI                .ft       6475                          : Bottom Log Interval
BS                 .in       6.75                          : Bit Size
CBDR               .ft       4355                          : Casing Bottom of Driller
CBLO               .ft       4353                          : Logger Casing Shoe Depth
CSIZ               .in       7.625                         : Current Casing Size
CWEI               .lbm/ft   11.6                          : Casing Weight
COUNTRY            .         United States                 : Nation
DCS                .         03-Dec-2018                   : Date Circulation Stopped
DFD                .lbm/gal  9.25                          : Drilling Fluid Density
DFT                .         WATER                         : Drilling Fluid Type
DLAB               .         03-Dec-2018                   : Date Logger At Bottom
EDF                .ft       618                           : Elevation of Drill Floor
EGL                .ft       603                           : Elevation of Ground Level
EKB                .ft       618                           : Elevation of Kelly Bushing
EPD                .ft       603                           : Elevation of Permanent Datum (PDAT) above Mean Sea Level
LMF                .         KB                            : Logging Measured From (Name of Logging Elevation Reference)
LUL                .         Bradford                      : Logging Unit Location
LUN                .         3703                          : Logging Unit Number
MCST               .degF     71.2                          : Mudcake Sample Temperature
MFST               .degF     69.1                          : Mud Filtrate Sample Temperature
MRT                .degF     103                           : Maximum Recorded Temperature
MST                .degF     59.2                          : Mud Sample Temperature
PDAT               .         GL                            : Permanent Datum
PRODUCER-CODE      .         440                           : 
PRODUCER-NAME      .         Schlumberger                  : 
RMB                .ohm.m    0.835368                      : Resistivity of Mud at Bottom Hole Temperature
RMCS               .ohm.m    1.55                          : Resistivity of Mud Cake Sample
RMFS               .ohm.m    1.26                          : Resistivity of Mud Filtrate Sample
RMS                .ohm.m    1.39                          : Resistivity of Mud Sample
RUN                .         2A                            : Run Number
TCS                .         08_00_00                      : Time Circulation Stopped
TDD                .ft       6469                          : Driller Total Depth
TDL                .ft       6475                          : Logger Total Depth
TLAB               .         17_50_00                      : Time Logger At Bottom
TLI                .ft       4353                          : Top Log Interval
~Parameter Information Block
#_______________________________________________________________________________
#
#PARAMETER_NAME    .UNIT     VALUE                         : DESCRIPTION
#_______________________________________________________________________________
SET                .         01_Elan                       : 
TLFamily_ALPH      .         Biot Coefficient              : 
TLFamily_BMK_DYN   .         Bulk Modulus (Dynamic)        : 
TLFamily_BMK_STA   .         Bulk Modulus (Static)         : 
TLFamily_DEN_COM_EXT .         Bulk Density                  : 
TLFamily_FANG      .         Friction Angle                : 
TLFamily_MD        .         Measured Depth                : 
TLFamily_MECH_LITHO .         Mechanical Stratigraphy Flag  : 
TLFamily_OBMW_EXT  .         Pressure Gradient             : 
TLFamily_PPRS_HP_G .         Pore Pressure                 : 
TLFamily_PR_DYN    .         Poisson Ratio (Dynamic)       : 
TLFamily_PR_STA    .         Poisson Ratio (Static)        : 
TLFamily_SHMAX_PHS .         Maximum Horizontal Stress     : 
TLFamily_SHMIN_PHS .         Minimum Horizontal Stress     : 
TLFamily_SMG_DYN   .         Shear Modulus (Dynamic)       : 
TLFamily_SMG_STA   .         Shear Modulus (Static)        : 
TLFamily_SVERTICAL_EXT .         Vertical Stress               : 
TLFamily_TSTR      .         Tensile Strength              : 
TLFamily_UCS       .         Unconfined Compressive Strength: 
TLFamily_YME_DYN   .         Young's Modulus (Dynamic)     : 
TLFamily_YME_STA   .         Young's Modulus (Static)      : 
~Curve Information
#_______________________________________________________________________________
#
#LOGNAME           .UNIT     LOG_ID                        : DESCRIPTION
#_______________________________________________________________________________
MD                 .ft                                     :  {F}
ALPH               .unitless                               : Biot coefficient {F}
BMK_DYN            .Mpsi                                   : Bulk Modulus (Dynamic) {F}
BMK_STA            .Mpsi                                   : Bulk Modulus (Static) {F}
DEN_COM_EXT        .g/cm3                                  : Composite density {F}
FANG               .deg                                    : Friction angle {F}
MECH_LITHO         .unitless                               : Lithology codes between 0 and 6 {F}
OBMW_EXT           .ppg                                    :  {F}
PPRS_HP_G          .psi                                    :  {F}
PR_DYN             .unitless                               : Poisson Ratio (Dynamic) {F}
PR_STA             .unitless                               : Static Poissons ratio {F}
SHMAX_PHS          .psi                                    : Maximum Horizontal Stress {F}
SHMIN_PHS          .psi                                    : Minimum Horizontal Stress {F}
SMG_DYN            .Mpsi                                   : Shear Modulus (Dynamic) {F}
SMG_STA            .Mpsi                                   : Shear Modulus (Static) {F}
SVERTICAL_EXT      .psi                                    :  {F}
TSTR               .Mpsi                                   : Tensile Strength {F}
UCS                .Mpsi                                   : Unconfined compressive strength {F}
YME_DYN            .Mpsi                                   : Young's Modulus (Dynamic) {F}
YME_STA            .Mpsi                                   : Static Youngs modulus {F}
~Ascii
# ...
5171.25000 1.00000    4.70477    2.11146    2.50513    37.40019   0.00000    21.61634   2351.92529 0.27710    0.13855    5305.40918 3696.64819 2.46347    2.01095    5799.11426 0.00087    0.01742    6.29220    4.57913   
5171.75000 1.00000    4.62035    2.08610    2.50703    38.44571   0.00000    21.61627   2352.15283 0.27465    0.13733    5277.82861 3681.30371 2.45050    1.99566    5799.65674 0.00086    0.01726    6.24707    4.53943   
5172.25000 1.00000    4.59241    2.11935    2.52653    39.42881   0.00000    21.61621   2352.38037 0.26875    0.13437    5318.63916 3679.20508 2.51112    2.04929    5800.20117 0.00089    0.01772    6.37197    4.64933   
5172.75000 1.00000    4.56527    2.20625    2.55332    39.47414   0.00000    21.61617   2352.60791 0.25595    0.12798    5426.05518 3679.68457 2.66126    2.18296    5800.75049 0.00094    0.01889    6.68484    4.92466   
5173.25000 1.00000    4.46631    2.31364    2.56371    38.83217   0.00000    21.61615   2352.83521 0.23389    0.11694    5568.20117 3663.87720 2.88978    2.38040    5801.30566 0.00103    0.02056    7.13131    5.31755   
5173.75000 1.00000    4.16554    2.34272    2.54588    37.94601   0.00000    21.61612   2353.06274 0.20118    0.10059    5631.63477 3591.19849 3.10878    2.55054    5801.86084 0.00109    0.02182    7.46843    5.61421   
5174.25000 1.00000    3.77908    2.27158    2.50423    38.37163   0.00000    21.61608   2353.29004 0.16775    0.08388    5572.84766 3479.78369 3.22568    2.61633    5802.41016 0.00110    0.02206    7.53358    5.67155   
5174.75000 1.00000    3.39179    2.14953    2.45715    39.24037   0.00000    21.61600   2353.51758 0.13506    0.06753    5442.76416 3352.82739 3.27160    2.61242    5802.94873 0.00108    0.02166    7.42689    5.57766   
5175.25000 1.00000    3.06088    2.03426    2.42146    40.27552   0.00000    21.61588   2353.74512 0.10140    0.05070    5314.91162 3227.17236 3.32323    2.60967    5803.47852 0.00106    0.02126    7.32042    5.48397   
5175.75000 1.00000    2.94084    1.98857    2.40350    40.85563   0.00000    21.61574   2353.97266 0.08786    0.04393    5262.48340 3177.46094 3.34244    2.60628    5804.00195 0.00105    0.02108    7.27221    5.44155   
5176.25000 1.00000    2.98200    2.00311    2.39966    40.97383   0.00000    21.61559   2354.20020 0.09297    0.04649    5279.02246 3195.62158 3.33152    2.60425    5804.52197 0.00106    0.02112    7.28253    5.45063   
5176.75000 1.00000    3.13914    2.04966    2.40241    40.42643   0.00000    21.61544   2354.42749 0.11322    0.05661    5327.61816 3263.34790 3.27206    2.58034    5805.04248 0.00106    0.02113    7.28501    5.45281   
5177.25000 1.00000    3.30390    2.09032    2.40951    40.32121   0.00000    21.61529   2354.65479 0.13365    0.06682    5366.85254 3329.83154 3.20308    2.54628    5805.56348 0.00105    0.02105    7.26234    5.43286   
5177.75000 1.00000    3.42499    2.09969    2.42106    40.68011   0.00000    21.61515   2354.88232 0.15146    0.07573    5366.29346 3378.79053 3.11021    2.48438    5806.08594 0.00103    0.02067    7.16254    5.34503   
5178.25000 1.00000    3.51500    2.08410    2.42658    41.33123   0.00000    21.61502   2355.10986 0.16814    0.08407    5334.97705 3415.90283 2.99574    2.39884    5806.61182 0.00100    0.02006    6.99890    5.20103   
5178.75000 1.00000    3.48527    2.03259    2.41968    41.58079   0.00000    21.61489   2355.33740 0.17435    0.08718    5265.80127 3413.44019 2.89938    2.31545    5807.13721 0.00097    0.01936    6.80978    5.03461   
5179.25000 1.00000    3.25829    1.94116    2.40079    41.04903   0.00000    21.61475   2355.56494 0.15996    0.07998    5156.77148 3344.90259 2.86548    2.26484    5807.66113 0.00094    0.01875    6.64768    4.89196   
5179.75000 1.00000    3.21063    1.87091    2.38732    40.63437   0.00000    21.61459   2355.79224 0.16803    0.08401    5063.37305 3340.27808 2.73754    2.15387    5808.17969 0.00089    0.01781    6.39505    4.66965   
5180.25000 1.00000    3.25651    1.88190    2.39356    40.25666   0.00000    21.61443   2356.01953 0.17261    0.08631    5075.89697 3355.87329 2.72758    2.15003    5808.69727 0.00089    0.01782    6.39680    4.67118   
5180.75000 1.00000    3.52652    1.99010    2.41164    40.33041   0.00000    21.61428   2356.24707 0.18828    0.09414    5205.89502 3434.19922 2.77531    2.21462    5809.21680 0.00093    0.01856    6.59569    4.84621   
5181.25000 1.00000    3.71501    2.10629    2.42774    40.92148   0.00000    21.61414   2356.47461 0.19033    0.09517    5350.28271 3481.64160 2.89939    2.33580    5809.74121 0.00099    0.01970    6.90248    5.11618   
5181.75000 1.00000    3.71984    2.19177    2.43430    41.41424   0.00000    21.61402   2356.70215 0.17505    0.08752    5468.90723 3473.79370 3.08611    2.49389    5810.26807 0.00105    0.02101    7.25265    5.42433   
5182.25000 1.00000    3.75784    2.23560    2.43574    41.66482   0.00000    21.61390   2356.92969 0.17175    0.08588    5527.53613 3481.30371 3.15809    2.55779    5810.79590 0.00108    0.02156    7.40101    5.55489   
5182.75000 1.00000    3.74196    2.23632    2.43549    41.90984   0.00000    21.61377   2357.15723 0.16951    0.08475    5530.60791 3476.04517 3.17234    2.56820    5811.32373 0.00108    0.02164    7.42015    5.57173   
5183.25000 1.00000    3.63001    2.18797    2.43479    41.89662   0.00000    21.61365   2357.38452 0.16356    0.08178    5473.88818 3443.80103 3.14877    2.53761    5811.85156 0.00106    0.02129    7.32759    5.49028   
5183.75000 1.00000    3.53779    2.12286    2.43254    41.53625   0.00000    21.61353   2357.61182 0.16353    0.08176    5390.58057 3420.78979 3.06919    2.46224    5812.37939 0.00103    0.02060    7.14219    5.32712   
5184.25000 1.00000    3.49443    2.10027    2.43099    41.27098   0.00000    21.61340   2357.83936 0.16185    0.08093    5362.99219 3408.74512 3.05106    2.44281    5812.90576 0.00102    0.02040    7.08977    5.28100   
5184.75000 1.00000    3.51730    2.10905    2.42830    41.38082   0.00000    21.61327   2358.06689 0.16339    0.08169    5373.46143 3416.02148 3.05308    2.44680    5813.43262 0.00102    0.02045    7.10383    5.29337   
5185.25000 1.00000    3.40510    2.09918    2.42469    41.63406   0.00000    21.61314   2358.29443 0.14843    0.07422    5371.58203 3374.67822 3.12717    2.49613    5813.95850 0.00104    0.02075    7.18269    5.36277   
5185.75000 1.00000    3.34204    2.07028    2.41875    41.64384   0.00000    21.61301   2358.52197 0.14466    0.07233    5336.76904 3355.13403 3.11249    2.47704    5814.48389 0.00103    0.02054    7.12546    5.31241   
5186.25000 1.00000    3.41761    2.03294    2.40651    41.36963   0.00000    21.61287   2358.74951 0.16455    0.08227    5275.80371 3392.62720 2.95339    2.35397    5815.00781 0.00098    0.01961    6.87872    5.09528   
5186.75000 1.00000    3.47290    2.01203    2.39529    41.38845   0.00000    21.61272   2358.97656 0.17677    0.08838    5242.47656 3416.24268 2.86180    2.28279    5815.52832 0.00095    0.01908    6.73535    4.96911   
5187.25000 1.00000    3.50622    2.04189    2.39443    41.49694   0.00000    21.61257   2359.20410 0.17540    0.08770    5281.34717 3423.77197 2.90482    2.32197    5816.04639 0.00097    0.01943    6.82866    5.05122   
5187.75000 1.00000    3.68214    2.12800    2.40372    41.68340   0.00000    21.61242   2359.43164 0.18218    0.09109    5386.18066 3472.14331 2.96975    2.39255    5816.56592 0.00101    0.02015    7.02155    5.22097   
5188.25000 1.00000    3.77193    2.21280    2.41384    41.94637   0.00000    21.61227   2359.65918 0.17786    0.08893    5496.66797 3491.86768 3.09485    2.50600    5817.08789 0.00106    0.02115    7.29058    5.45771   
5188.75000 1.00000    3.78725    2.23836    2.41391    42.21474   0.00000    21.61213   2359.88672 0.17507    0.08754    5531.57178 3494.14893 3.14169    2.54678    5817.61133 0.00107    0.02150    7.38345    5.53943   
5189.25000 1.00000    3.85308    2.20787    2.40671    42.22900   0.00000    21.61199   2360.11426 0.18881    0.09440    5482.44141 3518.61914 3.02588    2.45478    5818.13428 0.00104    0.02079    7.19435    5.37303   
