~Version
 VERS              .         3.0                           : CWLS LOG ASCII STANDARD - VERSION 3.0
 WRAP              .         NO                            : ONE LINE PER DEPTH STEP
 DLM               .         SPACE                         : DELIMITING CHARACTER(SPACE TAB OR COMMA)
~Well Information
#_______________________________________________________________________________
#
#PARAMETER_NAME    .UNIT     VALUE                         : DESCRIPTION
#_______________________________________________________________________________
STRT               .ft       4357.25000                    : First reference value
STOP               .ft       6466.75000                    : Last reference value
STEP               .ft       0.50000                       : Step increment
NULL               .         -9999                         : Missing value
COMP               .         Podolsky Oil Company          : Company
WELL               .         T_R_ McMillen #2              : Well name
FLD                .         Mount Auburn                  : Field
LOC                .                                       : Location
SRVC               .                                       : Service Company
CTRY               .         US                            : Country
STAT               .         Illinois                      : State
CNTY               .                                       : County
API                .                                       : API NUMBER
DATE               .         03-Dec-2018                   : Service Date
LATI               .         39.772784 degrees             : Latitude
LONG               .         -89.203412 degrees            : Longitude
GDAT               .                                       : Geodetic Datum
APD                .ft       15                            : Elevation of Depth Reference (LMF) Above Permanent Datum
BHS                .         OPEN                          : Borehole Status (Open or Cased Hole)
BHT                .degF     103                           : Bottom Hole Temperature
BLI                .ft       6475                          : Bottom Log Interval
BS                 .in       6.75                          : Bit Size
CBDR               .ft       4355                          : Casing Bottom of Driller
CBLO               .ft       4353                          : Logger Casing Shoe Depth
CSIZ               .in       7.625                         : Current Casing Size
CWEI               .lbm/ft   11.6                          : Casing Weight
COUNTRY            .         United States                 : Nation
DCS                .         03-Dec-2018                   : Date Circulation Stopped
DFD                .lbm/gal  9.25                          : Drilling Fluid Density
DFT                .         WATER                         : Drilling Fluid Type
DLAB               .         03-Dec-2018                   : Date Logger At Bottom
EDF                .ft       618                           : Elevation of Drill Floor
EGL                .ft       603                           : Elevation of Ground Level
EKB                .ft       618                           : Elevation of Kelly Bushing
EPD                .ft       603                           : Elevation of Permanent Datum (PDAT) above Mean Sea Level
LMF                .         KB                            : Logging Measured From (Name of Logging Elevation Reference)
LUL                .         Bradford                      : Logging Unit Location
LUN                .         3703                          : Logging Unit Number
MCST               .degF     71.2                          : Mudcake Sample Temperature
MFST               .degF     69.1                          : Mud Filtrate Sample Temperature
MRT                .degF     103                           : Maximum Recorded Temperature
MST                .degF     59.2                          : Mud Sample Temperature
PDAT               .         GL                            : Permanent Datum
PRODUCER-CODE      .         440                           : 
PRODUCER-NAME      .         Schlumberger                  : 
RMB                .ohm.m    0.835368                      : Resistivity of Mud at Bottom Hole Temperature
RMCS               .ohm.m    1.55                          : Resistivity of Mud Cake Sample
RMFS               .ohm.m    1.26                          : Resistivity of Mud Filtrate Sample
RMS                .ohm.m    1.39                          : Resistivity of Mud Sample
RUN                .         2A                            : Run Number
TCS                .         08_00_00                      : Time Circulation Stopped
TDD                .ft       6469                          : Driller Total Depth
TDL                .ft       6475                          : Logger Total Depth
TLAB               .         17_50_00                      : Time Logger At Bottom
TLI                .ft       4353                          : Top Log Interval
~Parameter Information Block
#_______________________________________________________________________________
#
#PARAMETER_NAME    .UNIT     VALUE                         : DESCRIPTION
#_______________________________________________________________________________
SET                .         01_Elan                       : 
TLFamily_ALPH      .         Biot Coefficient              : 
TLFamily_BMK_DYN   .         Bulk Modulus (Dynamic)        : 
TLFamily_BMK_STA   .         Bulk Modulus (Static)         : 
TLFamily_DEN_COM_EXT .         Bulk Density                  : 
TLFamily_FANG      .         Friction Angle                : 
TLFamily_MD        .         Measured Depth                : 
TLFamily_MECH_LITHO .         Mechanical Stratigraphy Flag  : 
TLFamily_OBMW_EXT  .         Pressure Gradient             : 
TLFamily_PPRS_HP_G .         Pore Pressure                 : 
TLFamily_PR_DYN    .         Poisson Ratio (Dynamic)       : 
TLFamily_PR_STA    .         Poisson Ratio (Static)        : 
TLFamily_SHMAX_PHS .         Maximum Horizontal Stress     : 
TLFamily_SHMIN_PHS .         Minimum Horizontal Stress     : 
TLFamily_SMG_DYN   .         Shear Modulus (Dynamic)       : 
TLFamily_SMG_STA   .         Shear Modulus (Static)        : 
TLFamily_SVERTICAL_EXT .         Vertical Stress               : 
TLFamily_TSTR      .         Tensile Strength              : 
TLFamily_UCS       .         Unconfined Compressive Strength: 
TLFamily_YME_DYN   .         Young's Modulus (Dynamic)     : 
TLFamily_YME_STA   .         Young's Modulus (Static)      : 
~Curve Information
#_______________________________________________________________________________
#
#LOGNAME           .UNIT     LOG_ID                        : DESCRIPTION
#_______________________________________________________________________________
MD                 .ft                                     :  {F}
ALPH               .unitless                               : Biot coefficient {F}
BMK_DYN            .Mpsi                                   : Bulk Modulus (Dynamic) {F}
BMK_STA            .Mpsi                                   : Bulk Modulus (Static) {F}
DEN_COM_EXT        .g/cm3                                  : Composite density {F}
FANG               .deg                                    : Friction angle {F}
MECH_LITHO         .unitless                               : Lithology codes between 0 and 6 {F}
OBMW_EXT           .ppg                                    :  {F}
PPRS_HP_G          .psi                                    :  {F}
PR_DYN             .unitless                               : Poisson Ratio (Dynamic) {F}
PR_STA             .unitless                               : Static Poissons ratio {F}
SHMAX_PHS          .psi                                    : Maximum Horizontal Stress {F}
SHMIN_PHS          .psi                                    : Minimum Horizontal Stress {F}
SMG_DYN            .Mpsi                                   : Shear Modulus (Dynamic) {F}
SMG_STA            .Mpsi                                   : Shear Modulus (Static) {F}
SVERTICAL_EXT      .psi                                    :  {F}
TSTR               .Mpsi                                   : Tensile Strength {F}
UCS                .Mpsi                                   : Unconfined compressive strength {F}
YME_DYN            .Mpsi                                   : Young's Modulus (Dynamic) {F}
YME_STA            .Mpsi                                   : Static Youngs modulus {F}
~Ascii
# ...
6133.25000 1.00000    3.52667    1.70780    2.41753    37.53978   0.00000    21.38926   2789.55469 0.23923    0.11962    5359.70215 3967.17603 2.22633    1.74066    6805.91748 0.00073    0.01453    5.51788    3.89773   
6133.75000 1.00000    3.71695    1.78034    2.43482    37.87437   0.00000    21.38917   2789.78223 0.24598    0.12299    5447.91064 4013.44385 2.27332    1.79308    6806.44287 0.00075    0.01508    5.66504    4.02723   
6134.25000 1.00000    3.55170    1.79673    2.42930    37.66790   0.00000    21.38909   2790.00977 0.22662    0.11331    5462.62500 3964.87744 2.37471    1.87218    6806.97119 0.00078    0.01568    5.82574    4.16865   
6134.75000 1.00000    3.47969    1.73734    2.40747    37.05719   0.00000    21.38899   2790.23706 0.22919    0.11460    5392.30078 3950.53760 2.29985    1.80220    6807.49609 0.00075    0.01504    5.65393    4.01746   
6135.25000 1.00000    3.46615    1.68158    2.39275    36.57651   0.00000    21.38888   2790.46460 0.23746    0.11873    5328.96875 3953.54688 2.20614    1.71928    6808.01709 0.00072    0.01432    5.46002    3.84681   
6135.75000 1.00000    3.34790    1.65648    2.39103    36.73650   0.00000    21.38877   2790.69214 0.22908    0.11454    5295.86963 3920.94067 2.21389    1.71866    6808.53516 0.00071    0.01425    5.44208    3.83103   
6136.25000 1.00000    3.29776    1.63811    2.39634    36.77129   0.00000    21.38865   2790.91968 0.22674    0.11337    5273.10889 3907.86768 2.20375    1.70655    6809.05371 0.00071    0.01412    5.40687    3.80005   
6136.75000 1.00000    3.22681    1.59718    2.39106    36.82625   0.00000    21.38854   2791.14722 0.22613    0.11307    5223.90430 3891.36157 2.16220    1.66568    6809.57324 0.00069    0.01373    5.30230    3.70802   
6137.25000 1.00000    3.09263    1.54026    2.37557    36.79577   0.00000    21.38842   2791.37451 0.22085    0.11042    5152.83105 3855.92969 2.12142    1.62113    6810.09033 0.00066    0.01327    5.17986    3.60028   
6137.75000 1.00000    2.98593    1.48450    2.36064    36.64038   0.00000    21.38829   2791.60205 0.21847    0.10923    5084.21777 3829.10107 2.06973    1.56890    6810.60400 0.00064    0.01276    5.04380    3.48055   
6138.25000 1.00000    2.92783    1.45387    2.35230    36.34007   0.00000    21.38815   2791.82935 0.21716    0.10858    5046.50488 3814.49292 2.04111    1.54001    6811.11426 0.00062    0.01248    4.96870    3.41446   
6138.75000 1.00000    2.92754    1.48712    2.35908    36.23948   0.00000    21.38802   2792.05688 0.21002    0.10501    5082.93506 3807.14502 2.10478    1.59474    6811.62451 0.00065    0.01295    5.09363    3.52440   
6139.25000 1.00000    3.12605    1.56697    2.38028    36.19625   0.00000    21.38788   2792.28442 0.21973    0.10987    5185.62012 3863.67505 2.15488    1.65243    6812.13672 0.00068    0.01356    5.25677    3.66796   
6139.75000 1.00000    3.40664    1.66156    2.40559    36.97099   0.00000    21.38777   2792.51196 0.23464    0.11732    5306.38330 3940.58301 2.19658    1.70725    6812.65527 0.00071    0.01418    5.42396    3.81509   
6140.25000 1.00000    3.54780    1.70645    2.42028    37.81370   0.00000    21.38766   2792.73950 0.24160    0.12080    5362.73242 3977.10107 2.21513    1.73204    6813.17773 0.00072    0.01447    5.50060    3.88253   
6140.75000 1.00000    3.49432    1.69633    2.41432    38.07453   0.00000    21.38757   2792.96680 0.23786    0.11893    5349.57031 3963.05396 2.21999    1.73315    6813.70313 0.00072    0.01445    5.49606    3.87853   
6141.25000 1.00000    3.31410    1.63506    2.38934    37.59608   0.00000    21.38746   2793.19434 0.22917    0.11459    5273.15625 3916.22778 2.19060    1.69616    6814.22461 0.00070    0.01404    5.38527    3.78104   
6141.75000 1.00000    3.10164    1.58801    2.36492    37.22715   0.00000    21.38734   2793.42188 0.21238    0.10619    5208.99512 3852.18164 2.20745    1.69602    6814.74023 0.00070    0.01392    5.35254    3.75223   
6142.25000 1.00000    3.01262    1.56899    2.35526    37.75568   0.00000    21.38721   2793.64941 0.20432    0.10216    5182.27783 3823.05225 2.21891    1.69903    6815.25195 0.00069    0.01389    5.34456    3.74522   
6142.75000 1.00000    3.08231    1.58218    2.36095    38.01501   0.00000    21.38707   2793.87695 0.21103    0.10552    5201.78076 3846.80469 2.20645    1.69372    6815.76270 0.00069    0.01389    5.34417    3.74487   
6143.25000 1.00000    3.17862    1.61083    2.37355    37.63783   0.00000    21.38693   2794.10449 0.21765    0.10883    5239.90479 3876.05444 2.21117    1.70481    6816.27490 0.00070    0.01404    5.38486    3.78068   
6143.75000 1.00000    3.20109    1.63419    2.38307    37.14426   0.00000    21.38681   2794.33203 0.21587    0.10794    5267.79980 3879.90479 2.24411    1.73487    6816.79053 0.00072    0.01431    5.45710    3.84425   
6144.25000 1.00000    3.14515    1.63315    2.38269    36.91907   0.00000    21.38669   2794.55933 0.20891    0.10446    5264.03564 3860.30371 2.27190    1.75466    6817.30762 0.00072    0.01444    5.49307    3.87590   
6144.75000 1.00000    3.09226    1.60102    2.37327    37.10623   0.00000    21.38657   2794.78687 0.20848    0.10424    5224.75684 3847.61304 2.23785    1.72143    6817.82324 0.00071    0.01413    5.40879    3.80174   
6145.25000 1.00000    3.01522    1.55315    2.35960    37.00400   0.00000    21.38644   2795.01440 0.20804    0.10402    5166.14844 3829.17554 2.18616    1.67122    6818.33691 0.00068    0.01365    5.28194    3.69011   
6145.75000 1.00000    2.90582    1.50676    2.34934    36.79499   0.00000    21.38630   2795.24194 0.20264    0.10132    5106.61377 3797.53809 2.15542    1.63634    6818.84717 0.00066    0.01329    5.18441    3.60428   
6146.25000 1.00000    2.83461    1.47202    2.34368    36.63308   0.00000    21.38615   2795.46948 0.19992    0.09996    5062.47803 3777.63037 2.12666    1.60606    6819.35645 0.00065    0.01299    5.10364    3.53320   
6146.75000 1.00000    2.77828    1.45032    2.34294    36.27878   0.00000    21.38601   2795.69702 0.19632    0.09816    5033.76416 3760.07520 2.11576    1.59211    6819.86377 0.00064    0.01283    5.06226    3.49678   
6147.25000 1.00000    2.85640    1.46262    2.35373    36.51792   0.00000    21.38586   2795.92432 0.20526    0.10263    5054.52734 3789.47192 2.09556    1.58132    6820.37256 0.00064    0.01279    5.05138    3.48722   
6147.75000 1.00000    3.08527    1.51215    2.37519    37.13027   0.00000    21.38572   2796.15186 0.22552    0.11276    5127.09717 3864.14868 2.07305    1.57869    6820.88379 0.00065    0.01290    5.08113    3.51339   
6148.25000 1.00000    3.43322    1.57532    2.39936    37.45104   0.00000    21.38560   2796.37939 0.25219    0.12610    5218.04346 3962.69263 2.03830    1.56919    6821.40039 0.00065    0.01299    5.10468    3.53411   
6148.75000 1.00000    3.53164    1.63851    2.40899    37.57079   0.00000    21.38550   2796.60693 0.25125    0.12562    5291.67969 3983.77197 2.10632    1.63488    6821.92188 0.00068    0.01361    5.27105    3.68053   
6149.25000 1.00000    3.44805    1.59263    2.39131    37.42132   0.00000    21.38539   2796.83447 0.25075    0.12537    5237.99219 3965.57544 2.06143    1.59052    6822.44336 0.00066    0.01319    5.15666    3.57986   
6149.75000 1.00000    3.16711    1.44381    2.35349    36.93864   0.00000    21.38527   2797.06201 0.24790    0.12395    5061.93750 3902.57617 1.91943    1.44920    6822.95947 0.00059    0.01182    4.79053    3.25766   
6150.25000 1.00000    2.82911    1.33078    2.32090    36.49360   0.00000    21.38512   2797.28955 0.23010    0.11505    4914.02832 3811.39624 1.86225    1.37829    6823.46680 0.00055    0.01104    4.58150    3.07372   
6150.75000 1.00000    2.69278    1.32452    2.31473    36.18930   0.00000    21.38495   2797.51685 0.21254    0.10627    4892.30420 3760.93628 1.91511    1.41421    6823.96875 0.00056    0.01127    4.64432    3.12900   
6151.25000 1.00000    2.73696    1.40399    2.33307    37.35173   0.00000    21.38479   2797.74438 0.20076    0.10038    4981.50098 3757.78613 2.04623    1.52964    6824.47119 0.00061    0.01228    4.91406    3.36638   
