~Version
 VERS              .         3.0                           : CWLS LOG ASCII STANDARD - VERSION 3.0
 WRAP              .         NO                            : ONE LINE PER DEPTH STEP
 DLM               .         SPACE                         : DELIMITING CHARACTER(SPACE TAB OR COMMA)
~Well Information
#_______________________________________________________________________________
#
#PARAMETER_NAME    .UNIT     VALUE                         : DESCRIPTION
#_______________________________________________________________________________
STRT               .ft       4357.25000                    : First reference value
STOP               .ft       6466.75000                    : Last reference value
STEP               .ft       0.50000                       : Step increment
NULL               .         -9999                         : Missing value
COMP               .         Podolsky Oil Company          : Company
WELL               .         T_R_ McMillen #2              : Well name
FLD                .         Mount Auburn                  : Field
LOC                .                                       : Location
SRVC               .                                       : Service Company
CTRY               .         US                            : Country
STAT               .         Illinois                      : State
CNTY               .                                       : County
API                .                                       : API NUMBER
DATE               .         03-Dec-2018                   : Service Date
LATI               .         39.772784 degrees             : Latitude
LONG               .         -89.203412 degrees            : Longitude
GDAT               .                                       : Geodetic Datum
APD                .ft       15                            : Elevation of Depth Reference (LMF) Above Permanent Datum
BHS                .         OPEN                          : Borehole Status (Open or Cased Hole)
BHT                .degF     103                           : Bottom Hole Temperature
BLI                .ft       6475                          : Bottom Log Interval
BS                 .in       6.75                          : Bit Size
CBDR               .ft       4355                          : Casing Bottom of Driller
CBLO               .ft       4353                          : Logger Casing Shoe Depth
CSIZ               .in       7.625                         : Current Casing Size
CWEI               .lbm/ft   11.6                          : Casing Weight
COUNTRY            .         United States                 : Nation
DCS                .         03-Dec-2018                   : Date Circulation Stopped
DFD                .lbm/gal  9.25                          : Drilling Fluid Density
DFT                .         WATER                         : Drilling Fluid Type
DLAB               .         03-Dec-2018                   : Date Logger At Bottom
EDF                .ft       618                           : Elevation of Drill Floor
EGL                .ft       603                           : Elevation of Ground Level
EKB                .ft       618                           : Elevation of Kelly Bushing
EPD                .ft       603                           : Elevation of Permanent Datum (PDAT) above Mean Sea Level
LMF                .         KB                            : Logging Measured From (Name of Logging Elevation Reference)
LUL                .         Bradford                      : Logging Unit Location
LUN                .         3703                          : Logging Unit Number
MCST               .degF     71.2                          : Mudcake Sample Temperature
MFST               .degF     69.1                          : Mud Filtrate Sample Temperature
MRT                .degF     103                           : Maximum Recorded Temperature
MST                .degF     59.2                          : Mud Sample Temperature
PDAT               .         GL                            : Permanent Datum
PRODUCER-CODE      .         440                           : 
PRODUCER-NAME      .         Schlumberger                  : 
RMB                .ohm.m    0.835368                      : Resistivity of Mud at Bottom Hole Temperature
RMCS               .ohm.m    1.55                          : Resistivity of Mud Cake Sample
RMFS               .ohm.m    1.26                          : Resistivity of Mud Filtrate Sample
RMS                .ohm.m    1.39                          : Resistivity of Mud Sample
RUN                .         2A                            : Run Number
TCS                .         08_00_00                      : Time Circulation Stopped
TDD                .ft       6469                          : Driller Total Depth
TDL                .ft       6475                          : Logger Total Depth
TLAB               .         17_50_00                      : Time Logger At Bottom
TLI                .ft       4353                          : Top Log Interval
~Parameter Information Block
#_______________________________________________________________________________
#
#PARAMETER_NAME    .UNIT     VALUE                         : DESCRIPTION
#_______________________________________________________________________________
SET                .         01_Elan                       : 
TLFamily_ALPH      .         Biot Coefficient              : 
TLFamily_BMK_DYN   .         Bulk Modulus (Dynamic)        : 
TLFamily_BMK_STA   .         Bulk Modulus (Static)         : 
TLFamily_DEN_COM_EXT .         Bulk Density                  : 
TLFamily_FANG      .         Friction Angle                : 
TLFamily_MD        .         Measured Depth                : 
TLFamily_MECH_LITHO .         Mechanical Stratigraphy Flag  : 
TLFamily_OBMW_EXT  .         Pressure Gradient             : 
TLFamily_PPRS_HP_G .         Pore Pressure                 : 
TLFamily_PR_DYN    .         Poisson Ratio (Dynamic)       : 
TLFamily_PR_STA    .         Poisson Ratio (Static)        : 
TLFamily_SHMAX_PHS .         Maximum Horizontal Stress     : 
TLFamily_SHMIN_PHS .         Minimum Horizontal Stress     : 
TLFamily_SMG_DYN   .         Shear Modulus (Dynamic)       : 
TLFamily_SMG_STA   .         Shear Modulus (Static)        : 
TLFamily_SVERTICAL_EXT .         Vertical Stress               : 
TLFamily_TSTR      .         Tensile Strength              : 
TLFamily_UCS       .         Unconfined Compressive Strength: 
TLFamily_YME_DYN   .         Young's Modulus (Dynamic)     : 
TLFamily_YME_STA   .         Young's Modulus (Static)      : 
~Curve Information
#_______________________________________________________________________________
#
#LOGNAME           .UNIT     LOG_ID                        : DESCRIPTION
#_______________________________________________________________________________
MD                 .ft                                     :  {F}
ALPH               .unitless                               : Biot coefficient {F}
BMK_DYN            .Mpsi                                   : Bulk Modulus (Dynamic) {F}
BMK_STA            .Mpsi                                   : Bulk Modulus (Static) {F}
DEN_COM_EXT        .g/cm3                                  : Composite density {F}
FANG               .deg                                    : Friction angle {F}
MECH_LITHO         .unitless                               : Lithology codes between 0 and 6 {F}
OBMW_EXT           .ppg                                    :  {F}
PPRS_HP_G          .psi                                    :  {F}
PR_DYN             .unitless                               : Poisson Ratio (Dynamic) {F}
PR_STA             .unitless                               : Static Poissons ratio {F}
SHMAX_PHS          .psi                                    : Maximum Horizontal Stress {F}
SHMIN_PHS          .psi                                    : Minimum Horizontal Stress {F}
SMG_DYN            .Mpsi                                   : Shear Modulus (Dynamic) {F}
SMG_STA            .Mpsi                                   : Shear Modulus (Static) {F}
SVERTICAL_EXT      .psi                                    :  {F}
TSTR               .Mpsi                                   : Tensile Strength {F}
UCS                .Mpsi                                   : Unconfined compressive strength {F}
YME_DYN            .Mpsi                                   : Young's Modulus (Dynamic) {F}
YME_STA            .Mpsi                                   : Static Youngs modulus {F}
~Ascii
# ...
4912.25000 1.00000    4.10924    2.76797    2.55059    33.96005   1.00000    21.63593   2234.12061 0.26070    0.24506    5661.32324 4301.06836 2.33996    1.70032    5513.63574 0.00087    0.01746    5.90000    4.23400   
4912.75000 1.00000    4.29640    2.88689    2.54770    33.92707   1.00000    21.63589   2234.34790 0.26923    0.25307    5746.15869 4380.83594 2.34355    1.70665    5514.18896 0.00088    0.01764    5.94900    4.27712   
4913.25000 1.00000    4.50257    3.02028    2.53396    33.87571   1.00000    21.63585   2234.57520 0.27718    0.26055    5839.29541 4462.33643 2.35663    1.72120    5514.73975 0.00090    0.01791    6.01966    4.33930   
4913.75000 1.00000    4.55034    3.05292    2.52673    33.77208   1.00000    21.63580   2234.80273 0.27854    0.26183    5862.91406 4479.95459 2.36449    1.72870    5515.28760 0.00090    0.01801    6.04620    4.36265   
4914.25000 1.00000    4.55413    3.08500    2.54542    33.23358   1.00000    21.63575   2235.03003 0.27231    0.25597    5904.30322 4465.76025 2.44496    1.79818    5515.83545 0.00093    0.01866    6.22151    4.51693   
4914.75000 1.00000    4.98236    3.44224    2.60165    32.22829   1.00000    21.63573   2235.25732 0.27112    0.25485    6202.87207 4588.92627 2.69142    2.01743    5516.39014 0.00105    0.02098    6.84222    5.06315   
4915.25000 1.00000    6.15958    4.35257    2.69106    30.68381   1.00000    21.63576   2235.48486 0.28161    0.26471    6895.59473 4952.18652 3.14884    2.42926    5516.95947 0.00128    0.02557    8.07117    6.14463   
4915.75000 1.00000    7.87533    5.63132    2.78080    29.18997   1.00000    21.63587   2235.71240 0.29924    0.28129    7758.24219 5451.26953 3.65061    2.88372    5517.54980 0.00154    0.03085    9.48608    7.38975   
4916.25000 1.00000    9.03606    6.47717    2.82469    28.28121   1.00000    21.63605   2235.93970 0.31001    0.29141    8273.23828 5762.39746 3.93140    3.13855    5518.15674 0.00169    0.03389    10.30037   8.10633   
4916.75000 1.00000    8.58238    6.17673    2.80716    28.56141   1.00000    21.63625   2236.16699 0.30247    0.28432    8135.60986 5646.11133 3.90486    3.11187    5518.76904 0.00167    0.03341    10.17189   7.99327   
4917.25000 1.00000    7.44030    5.36339    2.74538    29.71154   1.00000    21.63642   2236.39429 0.28712    0.26989    7658.87646 5326.43750 3.69168    2.91555    5519.37354 0.00155    0.03091    9.50327    7.40488   
4917.75000 1.00000    6.44613    4.61090    2.68101    30.59991   1.00000    21.63653   2236.62158 0.27734    0.26070    7131.14600 5030.63086 3.37095    2.62564    5519.96338 0.00138    0.02758    8.61171    6.62030   
4918.25000 1.00000    5.74225    4.06516    2.63762    31.56846   1.00000    21.63659   2236.84912 0.27140    0.25512    6718.85156 4815.29395 3.09741    2.37945    5520.54004 0.00124    0.02484    7.87609    5.97296   
4918.75000 1.00000    5.15726    3.61188    2.60363    32.10376   1.00000    21.63663   2237.07666 0.26556    0.24962    6367.27930 4630.43701 2.86615    2.17105    5521.10938 0.00113    0.02252    7.25454    5.42599   
4919.25000 1.00000    4.74806    3.28777    2.57084    32.79428   1.00000    21.63663   2237.30396 0.26255    0.24679    6104.15186 4501.66699 2.67898    2.00311    5521.67090 0.00103    0.02069    6.76468    4.99492   
4919.75000 1.00000    4.40331    3.03080    2.53644    33.13860   1.00000    21.63660   2237.53125 0.25575    0.24041    5902.67236 4380.38379 2.56938    1.90286    5522.22607 0.00098    0.01952    6.45300    4.72064   
4920.25000 1.00000    4.18841    2.89808    2.51625    33.26764   1.00000    21.63655   2237.75879 0.24354    0.22893    5814.03857 4279.87549 2.59132    1.91770    5522.77295 0.00097    0.01949    6.44483    4.71345   
4920.75000 1.00000    4.28948    2.99331    2.53522    33.11474   1.00000    21.63649   2237.98608 0.24042    0.22600    5907.41797 4301.83740 2.69295    2.00698    5523.31836 0.00102    0.02038    6.68078    4.92108   
4921.25000 1.00000    4.78196    3.36821    2.59685    33.16386   1.00000    21.63645   2238.21338 0.24980    0.23481    6215.67383 4479.58789 2.87198    2.17011    5523.87109 0.00111    0.02223    7.17879    5.35933   
4921.75000 1.00000    5.42738    3.85881    2.67792    32.51035   1.00000    21.63648   2238.44067 0.26025    0.24463    6600.90674 4700.75293 3.09755    2.37519    5524.43945 0.00123    0.02458    7.80737    5.91248   
4922.25000 1.00000    5.70095    4.09275    2.72662    32.60580   1.00000    21.63658   2238.66797 0.25852    0.24301    6810.07666 4779.24756 3.28165    2.53854    5525.02490 0.00131    0.02627    8.26005    6.31084   
4922.75000 1.00000    5.59740    4.05896    2.71872    32.12733   1.00000    21.63669   2238.89551 0.24652    0.23173    6842.30371 4720.61475 3.41467    2.65211    5525.61572 0.00136    0.02721    8.51292    6.53337   
4923.25000 1.00000    5.10000    3.72662    2.66917    32.08146   1.00000    21.63679   2239.12305 0.22439    0.21093    6642.73730 4507.67285 3.44397    2.66883    5526.20264 0.00135    0.02692    8.43356    6.46353   
4923.75000 1.00000    4.57125    3.35470    2.62450    32.06899   1.00000    21.63684   2239.35034 0.20055    0.18852    6375.92285 4265.85107 3.42061    2.63759    5526.77637 0.00130    0.02610    8.21322    6.26963   
4924.25000 1.00000    4.49824    3.30870    2.62560    31.69579   1.00000    21.63687   2239.57764 0.19476    0.18307    6350.48975 4223.24268 3.44769    2.65906    5527.34375 0.00131    0.02619    8.23831    6.29172   
4924.75000 1.00000    5.09306    3.74758    2.67941    30.49338   1.00000    21.63691   2239.80518 0.21632    0.20334    6699.65918 4482.35205 3.56349    2.77163    5527.91504 0.00139    0.02780    8.66870    6.67046   
4925.25000 1.00000    5.91953    4.39137    2.75845    28.00328   1.00000    21.63701   2240.03271 0.23050    0.21667    7235.80762 4781.51855 3.88938    3.06786    5528.50195 0.00156    0.03117    9.57178    7.46517   
4925.75000 1.00000    6.86105    5.12740    2.82767    26.68436   1.00000    21.63717   2240.25977 0.24261    0.22806    7825.72217 5100.72949 4.26343    3.40624    5529.10449 0.00175    0.03499    10.59559   8.36612   
4926.25000 1.00000    7.41970    5.57402    2.87027    28.14703   1.00000    21.63739   2240.48730 0.24655    0.23176    8192.64746 5279.36133 4.52574    3.64161    5529.72168 0.00188    0.03756    11.28313   8.97115   
4926.75000 1.00000    7.50561    5.65796    2.87725    28.93737   1.00000    21.63763   2240.71460 0.24394    0.22931    8291.60938 5301.50928 4.63490    3.73763    5530.34424 0.00192    0.03848    11.53112   9.18938   
4927.25000 1.00000    7.77000    5.82244    2.86649    27.32588   1.00000    21.63787   2240.94189 0.25497    0.23968    8333.60449 5399.17725 4.55114    3.66803    5530.96729 0.00190    0.03808    11.42312   9.09434   
4927.75000 1.00000    8.48903    6.23230    2.84851    25.94119   1.00000    21.63810   2241.16943 0.28496    0.26787    8371.19727 5632.62549 4.26186    3.42321    5531.58740 0.00182    0.03632    10.95268   8.68036   
4928.25000 1.00000    8.56207    6.16486    2.81987    25.29969   1.00000    21.63831   2241.39697 0.30191    0.28379    8141.11279 5649.33447 3.90830    3.11472    5532.20264 0.00167    0.03342    10.17650   7.99732   
4928.75000 1.00000    7.63518    5.44982    2.78419    24.59529   1.00000    21.63850   2241.62427 0.29753    0.27968    7645.84961 5393.99170 3.57415    2.81482    5532.81104 0.00150    0.03006    9.27518    7.20416   
4929.25000 1.00000    6.51063    4.63511    2.74675    23.82216   1.00000    21.63865   2241.85156 0.28233    0.26539    7126.76904 5064.27441 3.31545    2.57812    5533.41162 0.00136    0.02718    8.50301    6.52465   
4929.75000 1.00000    5.63714    4.02015    2.71024    23.45569   1.00000    21.63877   2242.07910 0.26283    0.24706    6731.64648 4774.70166 3.17607    2.44618    5534.00391 0.00127    0.02538    8.02168    6.10108   
4930.25000 1.00000    5.30682    3.78710    2.69141    23.26504   1.00000    21.63886   2242.30615 0.25383    0.23860    6573.39600 4655.22070 3.12571    2.39772    5534.58887 0.00123    0.02470    7.83823    5.93964   
