~Version
 VERS              .         3.0                           : CWLS LOG ASCII STANDARD - VERSION 3.0
 WRAP              .         NO                            : ONE LINE PER DEPTH STEP
 DLM               .         SPACE                         : DELIMITING CHARACTER(SPACE TAB OR COMMA)
~Well Information
#_______________________________________________________________________________
#
#PARAMETER_NAME    .UNIT     VALUE                         : DESCRIPTION
#_______________________________________________________________________________
STRT               .ft       4357.25000                    : First reference value
STOP               .ft       6466.75000                    : Last reference value
STEP               .ft       0.50000                       : Step increment
NULL               .         -9999                         : Missing value
COMP               .         Podolsky Oil Company          : Company
WELL               .         T_R_ McMillen #2              : Well name
FLD                .         Mount Auburn                  : Field
LOC                .                                       : Location
SRVC               .                                       : Service Company
CTRY               .         US                            : Country
STAT               .         Illinois                      : State
CNTY               .                                       : County
API                .                                       : API NUMBER
DATE               .         03-Dec-2018                   : Service Date
LATI               .         39.772784 degrees             : Latitude
LONG               .         -89.203412 degrees            : Longitude
GDAT               .                                       : Geodetic Datum
APD                .ft       15                            : Elevation of Depth Reference (LMF) Above Permanent Datum
BHS                .         OPEN                          : Borehole Status (Open or Cased Hole)
BHT                .degF     103                           : Bottom Hole Temperature
BLI                .ft       6475                          : Bottom Log Interval
BS                 .in       6.75                          : Bit Size
CBDR               .ft       4355                          : Casing Bottom of Driller
CBLO               .ft       4353                          : Logger Casing Shoe Depth
CSIZ               .in       7.625                         : Current Casing Size
CWEI               .lbm/ft   11.6                          : Casing Weight
COUNTRY            .         United States                 : Nation
DCS                .         03-Dec-2018                   : Date Circulation Stopped
DFD                .lbm/gal  9.25                          : Drilling Fluid Density
DFT                .         WATER                         : Drilling Fluid Type
DLAB               .         03-Dec-2018                   : Date Logger At Bottom
EDF                .ft       618                           : Elevation of Drill Floor
EGL                .ft       603                           : Elevation of Ground Level
EKB                .ft       618                           : Elevation of Kelly Bushing
EPD                .ft       603                           : Elevation of Permanent Datum (PDAT) above Mean Sea Level
LMF                .         KB                            : Logging Measured From (Name of Logging Elevation Reference)
LUL                .         Bradford                      : Logging Unit Location
LUN                .         3703                          : Logging Unit Number
MCST               .degF     71.2                          : Mudcake Sample Temperature
MFST               .degF     69.1                          : Mud Filtrate Sample Temperature
MRT                .degF     103                           : Maximum Recorded Temperature
MST                .degF     59.2                          : Mud Sample Temperature
PDAT               .         GL                            : Permanent Datum
PRODUCER-CODE      .         440                           : 
PRODUCER-NAME      .         Schlumberger                  : 
RMB                .ohm.m    0.835368                      : Resistivity of Mud at Bottom Hole Temperature
RMCS               .ohm.m    1.55                          : Resistivity of Mud Cake Sample
RMFS               .ohm.m    1.26                          : Resistivity of Mud Filtrate Sample
RMS                .ohm.m    1.39                          : Resistivity of Mud Sample
RUN                .         2A                            : Run Number
TCS                .         08_00_00                      : Time Circulation Stopped
TDD                .ft       6469                          : Driller Total Depth
TDL                .ft       6475                          : Logger Total Depth
TLAB               .         17_50_00                      : Time Logger At Bottom
TLI                .ft       4353                          : Top Log Interval
~Parameter Information Block
#_______________________________________________________________________________
#
#PARAMETER_NAME    .UNIT     VALUE                         : DESCRIPTION
#_______________________________________________________________________________
SET                .         01_Elan                       : 
TLFamily_ALPH      .         Biot Coefficient              : 
TLFamily_BMK_DYN   .         Bulk Modulus (Dynamic)        : 
TLFamily_BMK_STA   .         Bulk Modulus (Static)         : 
TLFamily_DEN_COM_EXT .         Bulk Density                  : 
TLFamily_FANG      .         Friction Angle                : 
TLFamily_MD        .         Measured Depth                : 
TLFamily_MECH_LITHO .         Mechanical Stratigraphy Flag  : 
TLFamily_OBMW_EXT  .         Pressure Gradient             : 
TLFamily_PPRS_HP_G .         Pore Pressure                 : 
TLFamily_PR_DYN    .         Poisson Ratio (Dynamic)       : 
TLFamily_PR_STA    .         Poisson Ratio (Static)        : 
TLFamily_SHMAX_PHS .         Maximum Horizontal Stress     : 
TLFamily_SHMIN_PHS .         Minimum Horizontal Stress     : 
TLFamily_SMG_DYN   .         Shear Modulus (Dynamic)       : 
TLFamily_SMG_STA   .         Shear Modulus (Static)        : 
TLFamily_SVERTICAL_EXT .         Vertical Stress               : 
TLFamily_TSTR      .         Tensile Strength              : 
TLFamily_UCS       .         Unconfined Compressive Strength: 
TLFamily_YME_DYN   .         Young's Modulus (Dynamic)     : 
TLFamily_YME_STA   .         Young's Modulus (Static)      : 
~Curve Information
#_______________________________________________________________________________
#
#LOGNAME           .UNIT     LOG_ID                        : DESCRIPTION
#_______________________________________________________________________________
MD                 .ft                                     :  {F}
ALPH               .unitless                               : Biot coefficient {F}
BMK_DYN            .Mpsi                                   : Bulk Modulus (Dynamic) {F}
BMK_STA            .Mpsi                                   : Bulk Modulus (Static) {F}
DEN_COM_EXT        .g/cm3                                  : Composite density {F}
FANG               .deg                                    : Friction angle {F}
MECH_LITHO         .unitless                               : Lithology codes between 0 and 6 {F}
OBMW_EXT           .ppg                                    :  {F}
PPRS_HP_G          .psi                                    :  {F}
PR_DYN             .unitless                               : Poisson Ratio (Dynamic) {F}
PR_STA             .unitless                               : Static Poissons ratio {F}
SHMAX_PHS          .psi                                    : Maximum Horizontal Stress {F}
SHMIN_PHS          .psi                                    : Minimum Horizontal Stress {F}
SMG_DYN            .Mpsi                                   : Shear Modulus (Dynamic) {F}
SMG_STA            .Mpsi                                   : Shear Modulus (Static) {F}
SVERTICAL_EXT      .psi                                    :  {F}
TSTR               .Mpsi                                   : Tensile Strength {F}
UCS                .Mpsi                                   : Unconfined compressive strength {F}
YME_DYN            .Mpsi                                   : Young's Modulus (Dynamic) {F}
YME_STA            .Mpsi                                   : Static Youngs modulus {F}
~Ascii
# ...
5726.25000 1.00000    3.22418    1.87973    2.41335    39.65713   0.00000    21.49069   2604.42334 0.16818    0.08409    5353.28271 3622.50977 2.74747    2.16347    6384.36865 0.00089    0.01790    6.41907    4.69078   
5726.75000 1.00000    3.00798    1.83063    2.40624    39.96144   0.00000    21.49057   2604.65088 0.14352    0.07176    5294.84082 3539.33203 2.81314    2.19439    6384.89111 0.00090    0.01795    6.43376    4.70370   
5727.25000 1.00000    3.05530    1.85405    2.41103    40.45432   0.00000    21.49045   2604.87842 0.14625    0.07313    5325.15625 3555.12061 2.82873    2.21254    6385.41309 0.00091    0.01814    6.48486    4.74868   
5727.75000 1.00000    3.23458    1.89360    2.42247    40.60756   0.00000    21.49034   2605.10571 0.16674    0.08337    5372.08154 3624.36182 2.77169    2.18465    6385.93555 0.00090    0.01808    6.46770    4.73357   
5728.25000 1.00000    3.39981    1.94347    2.43222    40.84744   0.00000    21.49023   2605.33325 0.18044    0.09022    5432.54688 3679.38623 2.76106    2.19145    6386.46143 0.00091    0.01827    6.51856    4.77834   
5728.75000 1.00000    3.31696    1.98656    2.43130    41.16743   0.00000    21.49013   2605.56055 0.15918    0.07959    5494.16406 3637.51978 2.92578    2.32081    6386.98926 0.00096    0.01926    6.78299    5.01103   
5729.25000 1.00000    3.18712    1.97302    2.42228    40.96488   0.00000    21.49002   2605.78809 0.14089    0.07044    5483.63135 3583.42700 3.00960    2.37525    6387.51563 0.00098    0.01957    6.86722    5.08515   
5729.75000 1.00000    3.30843    1.96899    2.41455    40.31817   0.00000    21.48991   2606.01538 0.16168    0.08084    5471.19092 3638.57349 2.89056    2.29077    6388.03955 0.00095    0.01901    6.71582    4.95192   
5730.25000 1.00000    3.57227    1.99812    2.42372    40.11197   0.00000    21.48980   2606.24292 0.19262    0.09631    5498.90283 3733.07397 2.76213    2.20729    6388.56299 0.00093    0.01853    6.58833    4.83973   
5730.75000 1.00000    3.78471    2.06225    2.44682    40.57095   0.00000    21.48969   2606.47046 0.20635    0.10317    5574.31982 3793.95654 2.76385    2.22545    6389.08984 0.00094    0.01883    6.66833    4.91013   
5731.25000 1.00000    3.84482    2.13405    2.46851    41.28959   0.00000    21.48961   2606.69800 0.20075    0.10038    5665.15527 3805.10254 2.87457    2.32507    6389.62158 0.00099    0.01971    6.90329    5.11690   
5731.75000 1.00000    3.88618    2.20028    2.48165    41.32684   0.00000    21.48954   2606.92529 0.19404    0.09702    5750.80566 3810.99048 2.98740    2.42477    6390.15820 0.00103    0.02057    7.13413    5.32004   
5732.25000 1.00000    4.01358    2.23096    2.48141    41.52466   0.00000    21.48947   2607.15283 0.20312    0.10156    5784.07813 3847.39624 2.97117    2.42085    6390.69580 0.00103    0.02062    7.14935    5.33343   
5732.75000 1.00000    4.10359    2.23331    2.47501    41.20580   0.00000    21.48940   2607.38037 0.21217    0.10609    5782.30322 3873.44287 2.92320    2.38608    6391.23340 0.00102    0.02039    7.08682    5.27840   
5733.25000 1.00000    4.04393    2.14355    2.46103    40.41396   0.00000    21.48933   2607.60767 0.22031    0.11016    5669.71680 3863.15210 2.78055    2.25821    6391.76904 0.00096    0.01927    6.78627    5.01392   
5733.75000 1.00000    3.62034    1.99739    2.44335    39.10475   0.00000    21.48924   2607.83521 0.19869    0.09935    5498.17773 3751.11719 2.73004    2.18383    6392.30127 0.00092    0.01837    6.54496    4.80157   
5734.25000 1.00000    3.28515    1.89449    2.42977    38.50650   0.00000    21.48915   2608.06250 0.17418    0.08709    5375.01367 3648.00781 2.73475    2.15876    6392.83008 0.00090    0.01791    6.42219    4.69353   
5734.75000 1.00000    3.10530    1.85490    2.42349    38.89795   0.00000    21.48904   2608.29004 0.15467    0.07734    5328.29688 3581.76270 2.78612    2.18317    6393.35498 0.00090    0.01795    6.43410    4.70401   
5735.25000 1.00000    3.22547    1.88963    2.43197    39.63256   0.00000    21.48893   2608.51758 0.16620    0.08310    5370.94189 3625.32007 2.76963    2.18203    6393.88037 0.00090    0.01805    6.45990    4.72671   
5735.75000 1.00000    3.40547    1.95701    2.44417    40.47086   0.00000    21.48883   2608.74512 0.17848    0.08924    5454.00586 3682.81592 2.78726    2.21399    6394.40918 0.00092    0.01846    6.56947    4.82314   
5736.25000 1.00000    3.47472    1.99694    2.45313    41.10978   0.00000    21.48874   2608.97241 0.18003    0.09002    5504.26025 3701.62598 2.82650    2.25329    6394.93945 0.00094    0.01884    6.67074    4.91226   
5736.75000 1.00000    3.45941    1.98649    2.44617    41.17709   0.00000    21.48866   2609.19971 0.18002    0.09001    5491.32910 3698.09058 2.81419    2.24155    6395.47070 0.00094    0.01873    6.64162    4.88662   
5737.25000 1.00000    3.38339    1.92396    2.42284    41.30403   0.00000    21.48856   2609.42725 0.18212    0.09106    5412.20605 3681.52295 2.72945    2.16335    6395.99951 0.00090    0.01803    6.45306    4.72070   
5737.75000 1.00000    3.30742    1.87765    2.40600    40.94448   0.00000    21.48844   2609.65479 0.18095    0.09047    5354.31738 3661.94971 2.68068    2.11546    6396.52295 0.00088    0.01757    6.33148    4.61370   
5738.25000 1.00000    3.32961    1.89723    2.40775    40.52549   0.00000    21.48832   2609.88232 0.18004    0.09002    5379.42236 3666.82446 2.70836    2.14075    6397.04443 0.00089    0.01780    6.39196    4.66692   
5738.75000 1.00000    3.52270    2.00466    2.42780    40.68506   0.00000    21.48820   2610.10962 0.18497    0.09248    5513.74268 3719.07861 2.80963    2.24333    6397.56689 0.00094    0.01879    6.65863    4.90160   
5739.25000 1.00000    3.78111    2.12946    2.44857    41.66881   0.00000    21.48810   2610.33716 0.19415    0.09707    5666.54443 3789.51978 2.90531    2.34628    6398.09473 0.00099    0.01984    6.93874    5.14809   
5739.75000 1.00000    3.97150    2.19697    2.45407    41.95136   0.00000    21.48802   2610.56445 0.20418    0.10209    5745.58008 3841.86475 2.92691    2.37964    6398.62646 0.00101    0.02025    7.04905    5.24517   
5740.25000 1.00000    3.94519    2.17385    2.44806    41.70279   0.00000    21.48793   2610.79199 0.20517    0.10258    5716.91553 3836.40796 2.89546    2.35063    6399.15820 0.00100    0.01999    6.97902    5.18354   
5740.75000 1.00000    3.75011    2.07967    2.43845    40.87875   0.00000    21.48784   2611.01929 0.19933    0.09967    5603.45996 3786.40820 2.82040    2.27131    6399.68750 0.00096    0.01919    6.76520    4.99538   
5741.25000 1.00000    3.47854    1.95214    2.43158    40.33224   0.00000    21.48774   2611.24683 0.18936    0.09468    5448.05273 3713.31616 2.72561    2.16842    6400.21533 0.00091    0.01814    6.48347    4.74745   
5741.75000 1.00000    3.19357    1.80913    2.41630    39.49591   0.00000    21.48763   2611.47437 0.17890    0.08945    5270.09717 3633.87476 2.60955    2.04528    6400.74219 0.00085    0.01690    6.15278    4.45645   
5742.25000 1.00000    3.01307    1.67913    2.39059    39.10653   0.00000    21.48751   2611.70166 0.18020    0.09010    5106.18994 3590.87231 2.44932    1.89415    6401.26367 0.00078    0.01552    5.78140    4.12963   
5742.75000 1.00000    2.99192    1.65394    2.38512    38.90180   0.00000    21.48738   2611.92920 0.18263    0.09131    5074.99707 3588.46948 2.40877    1.85816    6401.78027 0.00076    0.01520    5.69735    4.05567   
5743.25000 1.00000    3.18358    1.78338    2.41408    39.24911   0.00000    21.48725   2612.15674 0.18296    0.09148    5238.19775 3636.22388 2.55970    2.00247    6402.29883 0.00083    0.01654    6.05602    4.37130   
5743.75000 1.00000    3.60692    1.97475    2.45146    40.11408   0.00000    21.48714   2612.38403 0.20122    0.10061    5474.78076 3754.93311 2.69149    2.14981    6402.82471 0.00090    0.01807    6.46613    4.73220   
5744.25000 1.00000    3.81512    2.02786    2.46322    40.38064   0.00000    21.48706   2612.61133 0.21552    0.10776    5536.73047 3813.46362 2.67862    2.15408    6403.35791 0.00091    0.01824    6.51185    4.77243   
