~VERSION
 VERS.        2.00                                                                   :CWLS LOG ASCII STANDARD
 WRAP.        NO                                                                     :NO WRAP PERFORMED
 PROD.        Schlumberger                                                           :LAS Producer
 CREA.        Tue May 19 09:28:59 2015                                               :LAS Creation Date and time
~Well
#MNEM.UNIT    VALUE                                                                   :DESCRIPTION
#----.----    ---------------                                                        :-------------------
 STRT.F       5210.000                                                               :START DEPTH
 STOP.F       350.000                                                                :STOP  DEPTH
 STEP.F       -0.500                                                                 :DEPTH STEP
 NULL.        -999.250                                                               :NULL VALUE
 COMP.        ADM Company                                                            :COMPANY NAME
 WELL.        CCS#2                                                                  :WELL NAME
 FLD.         WILDCAT                                                                :FIELD NAME
 API.         12-115-23713                                                           :API NUMBER
 CNTY.        MACON                                                                  :COUNTY
 STAT.        ILLINOIS                                                               :STATE
 CTRY.        US                                                                     :COUNTRY
 LOC.         Latitude: 39.885961                                                    :WELL SURFACE LOCATION LINE 1
 LOC2.        Longitude: -88.888044                                                  :WELL SURFACE LOCATION LINE 2
 LOC3.                                                                               :WELL SURFACE LOCATION LINE 3
 SECT.        32                                                                     :SECTION
 TOWN.        17N                                                                    :TOWNSHIP
 RANG.        3E                                                                     :RANGE
 LATI.        39deg 53' 9.46" N                                                      :Latitude
 LONG.        88deg 53' 16.958" W                                                    :Longitude
 DATE.        2014/05/03                                                             :LOGGING DATE
 SRVC.        Schlumberger                                                           :SERVICE COMPANY
~Parameter
#MNEM.UNIT    VALUE                                                                  :DESCRIPTION
#----.----    ---------------                                                        :-------------------
 APD.F        15.500                                                                 :Elevation of depth reference above permanent datum
 EDF.F        691.200                                                                :Elevation of Derrick Floor
 EGL.F        675.700                                                                :Elevation of Ground Level
 EKB.F        691.200                                                                :Elevation of Kelly Bushing
 EPD.F        675.700                                                                :Elevation of Permnaent Datum
 LMF.         KB                                                                     :Logging Measured From
 PDAT.        GL                                                                     :Permanent Datum
 TDD.F        5251.000                                                               :Total Depth Driller
 TDL.F        5252.000                                                               :Total Depth Logger
 BS.IN        17.500                                                                 :Bit Size
 R1.                                                                                 :REMARK 1
 R2.                                                                                 :REMARK 2
 R3.                                                                                 :REMARK 3
 R4.                                                                                 :REMARK 4
 R5.                                                                                 :REMARK 5
 R6.                                                                                 :REMARK 6
 R7.                                                                                 :REMARK 7
 R8.                                                                                 :REMARK 8
 R9.                                                                                 :REMARK 9
 R10.                                                                                :REMARK 10
 DCS_CENTER.  Denver                                                                 :Schlumberger DCS Center
 LOG_ANALYST. Maxwell                                                                :Log Analyst Name
 ENG.         Yazan Alhabahbeh                                                       :Field Engineer Name
 GF_BASELINE. GF45                                                                   :GeoFrame Baseline
~Curve
#MNEM.UNIT                                                                           :DESCRIPTION
#----.----                                                                           :--------------------------------
 DEPT.F                                                                              :Depth Index
 GR.GAPI                                                                             : 1 Gamma Ray                                                                                 
 RHOZ.G/C3                                                                           : 2 HRDD Standard Resolution Formation Density                                                
 BS.IN                                                                               : 3 Bit Size                                                                                  
 P1AZ.DEG                                                                            : 4 Pad 1 Azimuth in Horizontal Plane (0 = True North)                                        
 SDEVM.DEG                                                                           : 5 Memorized Sonde Deviation                                                                 
 HAZIM.DEG                                                                           : 6 Memorized Hole Azimuth Relative to True North                                             
 RB.DEG                                                                              : 7 Relative Bearing                                                                          
 DEVI.DEG                                                                            : 8 Hole Deviation                                                                            
 HD1_PPC1.IN                                                                         : 9 PPC1 Hole Diameter 1                                                                      
 HD1_PPC2.IN                                                                         :10 PPC2 Hole Diameter 1                                                                      
 HD2_PPC1.IN                                                                         :11 PPC1 Hole Diameter 2                                                                      
 HD2_PPC2.IN                                                                         :12 PPC2 Hole Diameter 2                                                                      
 TENS.LBS                                                                            :13 Cable Tension                                                                             
 HDAR.IN                                                                             :14 Hole Diameter from Area                                                                   
 MINXENE_OVERALL.                                                                    :15 Overall estimate of minimum cross energy                                                  
 MAXXENE_OVERALL.                                                                    :16 Overall estimate of maximum cross energy                                                  
 FSH_AZIM_OVERALL_FILT.DEG                                                           :17 Overall estimate of fast shear azimuth filtered                                           
 FSH_AZIM_OVERALL.DEG                                                                :18 Overall estimate of fast shear azimuth                                                    
 FSH_AZIM_ERR.DEG                                                                    :19 Fast shear azimuth error                                                                  
 DTSM_SLOW.US/F                                                                      :20 Shear Slowness of Slow Shear Waves                                                        
 DTSM_FAST.US/F                                                                      :21 Shear Slowness of Fast Shear Waves                                                        
 DTCO.US/F                                                                           :22 Delta-T Compressional                                                                     
 SLOANI.                                                                             :23 Slowness based anisotropy                                                                 
 TIMANI.                                                                             :24 Time based anisotropy                                                                     
 TWE.US                                                                              :25 Time window end                                                                           
 TWB.US                                                                              :26 Time window begin                                                                         
 FLAG.                                                                               :27 General Indicator Flag                                                                    
 SPHI.ft3/ft3                                                                        :28 Sonic Porosity                                                                            
~Ascii   DEPT            GR          RHOZ            BS          P1AZ         SDEVM         HAZIM            RB          DEVI      HD1_PPC1      HD1_PPC2      HD2_PPC1      HD2_PPC2          TENS          HDAR  MINXENE_OVER  MAXXENE_OVER  FSH_AZIM_OVE  FSH_AZIM_OVE  FSH_AZIM_ERR     DTSM_SLOW     DTSM_FAST          DTCO        SLOANI        TIMANI           TWE           TWB          FLAG          SPHI
# ...
    1650.00000      48.40437       2.36823      17.50000     113.33521       1.57406     333.91135     139.43454       1.51621      19.67356      18.58014      17.83598      18.14172    1902.75000      17.60859       1.21742       2.31707    -999.25000      13.55458       8.35914     154.20639     155.19272      83.06223      -0.63758       0.35077    6511.05420    3511.05420    -999.25000       0.25132
    1649.50000      50.24834       2.33016      17.50000     113.21245       1.56592     334.19540     139.02762       1.50989      19.70184      18.58031      17.83598      17.92124    1902.33325      17.64126       1.12438       2.51561    -999.25000      13.55422       7.34967     158.09911     160.08879      85.55548      -1.25064       0.39726    6502.78369    3502.78394    -999.25000       0.26894
    1649.00000      50.85994       2.30421      17.50000     112.80070       1.55670     334.46350     138.34770       1.50103      19.58409      18.59054      17.80345      17.81645    1918.50024      17.68481       1.02243       2.75170    -999.25000      13.58377       6.48643     162.75404     164.15446      86.87320      -0.85677       0.43945    6495.27441    3495.27441    -999.25000       0.27826
    1648.50000      50.28503       2.30749      17.50000     112.94069       1.54614     334.69971     138.25136       1.49003      19.67261      18.60423      17.77243      17.82161    1902.50012      17.61948       0.92166       2.99688    -999.25000      14.02773       5.90056     164.16161     164.84302      86.12417      -0.41423       0.48391    6488.30957    3488.30957    -999.25000       0.27296
    1648.00000      51.49659       2.33321      17.50000     113.02883       1.53404     334.89081     138.14822       1.47616      19.64434      18.58031      17.80701      17.84481    1932.75012      17.68481       0.82552       3.18239    -999.25000      14.31513       5.63517     163.32500     163.88347      85.00548      -0.34136       0.51765    6480.66406    3480.66431    -999.25000       0.26506
    1647.50000      53.78417       2.35161      17.50000     113.18784       1.52025     335.03015     138.16771       1.46085      19.61382      18.59703      17.77243      17.82146    1884.50000      17.76104       0.74718       3.28944    -999.25000      14.67381       5.62576     158.99687     158.28603      83.50519       0.44808       0.53704    6471.17920    3471.17944    -999.25000       0.25445
    1647.00000      55.24852       2.35563      17.50000     113.10489       1.50478     335.10477     138.00996       1.44236      19.64306      18.59703      17.68134      17.66943    1889.00000      17.68481       0.70272       3.37797    -999.25000      15.28552       5.87727     153.90231     154.47858      82.87163      -0.37373       0.55914    6459.56396    3459.56421    -999.25000       0.24998
    1646.50000      55.59767       2.35063      17.50000     113.35654       1.48776     335.11890     138.24724       1.42430      19.64434      18.60743      17.71399      17.61068    1902.33325      17.61948       0.67269       3.38881    -999.25000      15.87904       6.17394     152.24406     152.15179      82.47107       0.06062       0.55265    6446.38672    3446.38672    -999.25000       0.24715
    1646.00000      52.92091       2.35448      17.50000     113.99332       1.46949     335.07114     138.93153       1.40255      19.58496      18.59703      17.68501      17.63416    1861.75000      17.57592       0.65733       3.36033    -999.25000      16.88772       6.65430     149.56248     150.11586      81.90816      -0.36931       0.53754    6432.90234    3432.90186    -999.25000       0.24317
    1645.50000      51.35813       2.36519      17.50000     115.00299       1.45039     334.97507     140.03697       1.37856      19.58496      18.58679      17.68501      17.77472    1868.75000      17.60859       0.65931       3.33029    -999.25000      18.01222       7.27245     146.85208     148.07991      81.09395      -0.83262       0.51985    6420.50879    3420.50879    -999.25000       0.23741
    1645.00000      51.08271       2.38553      17.50000     115.78626       1.43096     334.84286     140.95213       1.35690      19.61367      18.58679      17.71399      17.89145    1932.33337      17.66303       0.66201       3.26309    -999.25000      19.21918       7.74401     144.09192     146.04398      80.74898      -1.34562       0.47581    6409.79883    3409.79907    -999.25000       0.23498
    1644.50000      54.34021       2.38822      17.50000     116.40861       1.41178     334.69556     141.72150       1.33767      19.61382      18.59720      17.68134      17.80454    1866.00012      17.70659       0.68273       3.20345    -999.25000      20.76168       7.90059     142.86044     144.00804      80.34337      -0.80009       0.45864    6401.45605    3401.45605    -999.25000       0.23211
    1644.00000      55.32489       2.36914      17.50000     116.80466       1.39338     334.55432     142.25853       1.31817      19.64434      18.59703      17.71399      18.05442    1898.00000      17.66303       0.70894       3.11050    -999.25000      22.10563       7.57995     141.97290     141.97211      79.52005       0.00056       0.44533    6395.07227    3395.07227    -999.25000       0.22629
    1643.50000      56.27363       2.35761      17.50000     117.12068       1.37624     334.43802     142.69064       1.30197      19.61466      18.58679      17.98273      18.34313    1949.75000      17.64126       0.72319       2.96420    -999.25000      22.93529       7.18789     140.04703     140.02600      79.25302       0.01502       0.41985    6389.82227    3389.82227    -999.25000       0.22440
    1643.00000      55.36405       2.37994      17.50000     117.39236       1.36073     334.36246     143.03766       1.29216      19.58409      18.58679      18.00829      18.34313    1895.66675      17.83726       0.73539       2.85910    -999.25000      23.26404       6.98789     137.54860     137.30872      79.40833       0.17455       0.41055    6386.93994    3386.93994    -999.25000       0.22550
    1642.50000      55.27214       2.42173      17.50000     117.68183       1.34708     334.34354     143.34587       1.28286      19.55573      18.58031      18.04262      18.37196    1933.50000      17.94615       0.74196       2.87644    -999.25000      23.51601       6.62891     134.89410     135.14413      79.05469      -0.18518       0.41165    6386.61621    3386.61621    -999.25000       0.22300
    1642.00000      53.57539       2.45245      17.50000     117.71263       1.33535     334.38800     143.33208       1.27697      19.58409      18.58031      18.09921      18.36039    1940.00000      18.07682       0.74210       2.91152    -999.25000      23.73517       6.35702     134.76527     134.57637      78.59960       0.14027       0.41792    6387.89160    3387.89160    -999.25000       0.21979
    1641.50000      51.05906       2.45398      17.50000     117.62004       1.32547     334.50253     143.12486       1.27280      19.61466      18.58679      18.10248      18.36615    1984.25000      18.16394       0.73979       2.89428    -999.25000      23.59383       6.31554     134.43791     133.84409      77.57633       0.44269       0.41066    6389.97070    3389.97046    -999.25000       0.21255
    1641.00000      50.62319       2.47221      17.50000     117.67514       1.31721     334.67548     143.00696       1.26931      19.61466      18.59720      18.16232      18.36056    1949.33325      18.33816       0.73319       2.94240    -999.25000      23.27329       6.39729     134.75400     133.93747      76.12350       0.60778       0.41602    6391.68848    3391.68799    -999.25000       0.20229
    1640.50000      49.85337       2.47193      17.50000     117.18440       1.31025     334.90878     142.28287       1.26619      19.58508      18.58679      18.12813      18.35456    1960.00012      18.20749       0.73206       2.96603    -999.25000      22.74277       6.58042     135.35901     135.13979      76.02132       0.16209       0.43662    6391.72803    3391.72803    -999.25000       0.20156
