~VERSION
 VERS.        2.00                                                                   :CWLS LOG ASCII STANDARD
 WRAP.        NO                                                                     :NO WRAP PERFORMED
 PROD.        Schlumberger                                                           :LAS Producer
 CREA.        Tue May 19 09:28:59 2015                                               :LAS Creation Date and time
~Well
#MNEM.UNIT    VALUE                                                                   :DESCRIPTION
#----.----    ---------------                                                        :-------------------
 STRT.F       5210.000                                                               :START DEPTH
 STOP.F       350.000                                                                :STOP  DEPTH
 STEP.F       -0.500                                                                 :DEPTH STEP
 NULL.        -999.250                                                               :NULL VALUE
 COMP.        ADM Company                                                            :COMPANY NAME
 WELL.        CCS#2                                                                  :WELL NAME
 FLD.         WILDCAT                                                                :FIELD NAME
 API.         12-115-23713                                                           :API NUMBER
 CNTY.        MACON                                                                  :COUNTY
 STAT.        ILLINOIS                                                               :STATE
 CTRY.        US                                                                     :COUNTRY
 LOC.         Latitude: 39.885961                                                    :WELL SURFACE LOCATION LINE 1
 LOC2.        Longitude: -88.888044                                                  :WELL SURFACE LOCATION LINE 2
 LOC3.                                                                               :WELL SURFACE LOCATION LINE 3
 SECT.        32                                                                     :SECTION
 TOWN.        17N                                                                    :TOWNSHIP
 RANG.        3E                                                                     :RANGE
 LATI.        39deg 53' 9.46" N                                                      :Latitude
 LONG.        88deg 53' 16.958" W                                                    :Longitude
 DATE.        2014/05/03                                                             :LOGGING DATE
 SRVC.        Schlumberger                                                           :SERVICE COMPANY
~Parameter
#MNEM.UNIT    VALUE                                                                  :DESCRIPTION
#----.----    ---------------                                                        :-------------------
 APD.F        15.500                                                                 :Elevation of depth reference above permanent datum
 EDF.F        691.200                                                                :Elevation of Derrick Floor
 EGL.F        675.700                                                                :Elevation of Ground Level
 EKB.F        691.200                                                                :Elevation of Kelly Bushing
 EPD.F        675.700                                                                :Elevation of Permnaent Datum
 LMF.         KB                                                                     :Logging Measured From
 PDAT.        GL                                                                     :Permanent Datum
 TDD.F        5251.000                                                               :Total Depth Driller
 TDL.F        5252.000                                                               :Total Depth Logger
 BS.IN        17.500                                                                 :Bit Size
 R1.                                                                                 :REMARK 1
 R2.                                                                                 :REMARK 2
 R3.                                                                                 :REMARK 3
 R4.                                                                                 :REMARK 4
 R5.                                                                                 :REMARK 5
 R6.                                                                                 :REMARK 6
 R7.                                                                                 :REMARK 7
 R8.                                                                                 :REMARK 8
 R9.                                                                                 :REMARK 9
 R10.                                                                                :REMARK 10
 DCS_CENTER.  Denver                                                                 :Schlumberger DCS Center
 LOG_ANALYST. Maxwell                                                                :Log Analyst Name
 ENG.         Yazan Alhabahbeh                                                       :Field Engineer Name
 GF_BASELINE. GF45                                                                   :GeoFrame Baseline
~Curve
#MNEM.UNIT                                                                           :DESCRIPTION
#----.----                                                                           :--------------------------------
 DEPT.F                                                                              :Depth Index
 GR.GAPI                                                                             : 1 Gamma Ray                                                                                 
 RHOZ.G/C3                                                                           : 2 HRDD Standard Resolution Formation Density                                                
 BS.IN                                                                               : 3 Bit Size                                                                                  
 P1AZ.DEG                                                                            : 4 Pad 1 Azimuth in Horizontal Plane (0 = True North)                                        
 SDEVM.DEG                                                                           : 5 Memorized Sonde Deviation                                                                 
 HAZIM.DEG                                                                           : 6 Memorized Hole Azimuth Relative to True North                                             
 RB.DEG                                                                              : 7 Relative Bearing                                                                          
 DEVI.DEG                                                                            : 8 Hole Deviation                                                                            
 HD1_PPC1.IN                                                                         : 9 PPC1 Hole Diameter 1                                                                      
 HD1_PPC2.IN                                                                         :10 PPC2 Hole Diameter 1                                                                      
 HD2_PPC1.IN                                                                         :11 PPC1 Hole Diameter 2                                                                      
 HD2_PPC2.IN                                                                         :12 PPC2 Hole Diameter 2                                                                      
 TENS.LBS                                                                            :13 Cable Tension                                                                             
 HDAR.IN                                                                             :14 Hole Diameter from Area                                                                   
 MINXENE_OVERALL.                                                                    :15 Overall estimate of minimum cross energy                                                  
 MAXXENE_OVERALL.                                                                    :16 Overall estimate of maximum cross energy                                                  
 FSH_AZIM_OVERALL_FILT.DEG                                                           :17 Overall estimate of fast shear azimuth filtered                                           
 FSH_AZIM_OVERALL.DEG                                                                :18 Overall estimate of fast shear azimuth                                                    
 FSH_AZIM_ERR.DEG                                                                    :19 Fast shear azimuth error                                                                  
 DTSM_SLOW.US/F                                                                      :20 Shear Slowness of Slow Shear Waves                                                        
 DTSM_FAST.US/F                                                                      :21 Shear Slowness of Fast Shear Waves                                                        
 DTCO.US/F                                                                           :22 Delta-T Compressional                                                                     
 SLOANI.                                                                             :23 Slowness based anisotropy                                                                 
 TIMANI.                                                                             :24 Time based anisotropy                                                                     
 TWE.US                                                                              :25 Time window end                                                                           
 TWB.US                                                                              :26 Time window begin                                                                         
 FLAG.                                                                               :27 General Indicator Flag                                                                    
 SPHI.ft3/ft3                                                                        :28 Sonic Porosity                                                                            
~Ascii   DEPT            GR          RHOZ            BS          P1AZ         SDEVM         HAZIM            RB          DEVI      HD1_PPC1      HD1_PPC2      HD2_PPC1      HD2_PPC2          TENS          HDAR  MINXENE_OVER  MAXXENE_OVER  FSH_AZIM_OVE  FSH_AZIM_OVE  FSH_AZIM_ERR     DTSM_SLOW     DTSM_FAST          DTCO        SLOANI        TIMANI           TWE           TWB          FLAG          SPHI
# ...
    4560.00000      19.12502       2.76072      17.50000     321.28708      12.13254     332.83908     348.69934       9.96658      19.15435      17.32089      15.10199      17.53523    2779.66675      19.38353      10.46804      17.27525    -999.25000      29.45851      21.19161      91.19269      90.41566      56.10882       0.85571       0.80666    5876.27246    2876.27246       1.00000       0.06084
    4559.50000      20.85485       2.75323      17.50000     322.14551      12.07696     332.88565     349.49225       9.90148      18.81076      17.34461      15.43645      17.55889    2740.33350      19.28552       9.95346      16.89926    -999.25000      30.67361      21.04206      90.24076      88.21722      56.32465       2.26781       0.86619    5882.24805    2882.24805       1.00000       0.06237
    4559.00000      20.12894       2.75698      17.50000     322.99518      12.02416     332.89594     350.31232       9.86363      18.83760      17.35829      15.43645      17.70466    2777.00000      19.23108       9.14275      16.22066    -999.25000      30.78675      21.33114      89.59694      87.76896      55.50206       2.06125       0.84616    5889.03320    2889.03320       1.00000       0.05655
    4558.50000      20.31496       2.76458      17.50000     323.77682      11.97537     332.89087     351.08109       9.79959      19.04408      17.53526      15.47380      17.63416    2816.50000      19.16574       8.21379      15.34433    -999.25000      29.37938      22.05156      89.25239      89.05589      56.31415       0.22040       0.70082    5890.85400    2890.85400       1.00000       0.06229
    4558.00000      18.97533       2.74902      17.50000     323.05511      11.93136     332.91534     350.34872       9.73932      18.98468      17.52485      15.52675      17.76295    2822.25024      19.44886       7.50484      14.20434    -999.25000      25.12842      22.70098      89.30625      90.32563      56.47288      -1.13496       0.48215    5887.42871    2887.42847       1.00000       0.06341
    4557.50000      19.40271       2.70874      17.50000     324.52054      11.89247     333.04675     351.65417       9.75653      19.18685      17.68442      15.98711      17.95605    2769.00000      19.38353       7.04293      12.87982    -999.25000      17.86129      22.28164      89.99712      90.16527      54.31048      -0.18667       0.31051    5882.56152    2882.56104       1.00000       0.04813
    4557.00000      20.40043       2.66698      17.50000     323.58218      11.85864     332.99738     350.78226       9.78991      18.78965      17.76165      16.25839      18.12992    2776.33325      19.19841       6.91761      11.50334    -999.25000       9.55632      19.49232      93.27962      92.73746      57.38709       0.58292       0.23920    5878.39160    2878.39160    -999.25000       0.06987
    4556.50000      21.46964       2.61547      17.50000     323.25845      11.82955     333.01959     350.44229       9.76522      18.90234      17.76879      16.22452      18.35456    2884.25000      18.51239       6.82373      10.20488    -999.25000       3.52810      16.19070     103.82607     103.82607      64.02953       0.00000       0.25819    5879.00342    2879.00342    -999.25000       0.11682
    4556.00000      23.72128       2.57424      17.50000     322.89618      11.80476     333.04208     350.06436       9.71786      19.41502      17.79266      16.55657      18.39494    2809.00000      18.63217       6.40586       9.28436    -999.25000       0.85505      14.46284     116.16241     116.16241      71.71623       0.00000       0.30203    5880.56689    2880.56689       1.00000       0.17114
    4555.50000      26.04001       2.51459      17.50000     321.34338      11.78381     332.96536     348.61649       9.70106      18.64004      17.76419      16.56134      18.41177    2707.75000      20.12399       5.90814       9.03514    -999.25000       0.65671      13.15682     126.52945     126.52945      76.89511       0.00000       0.31280    5876.38477    2876.38477    -999.25000       0.20774
    4555.00000      25.63106       2.51298      17.50000     320.65018      11.76639     332.88474     348.01501       9.75537      19.09916      17.74319      16.37710      18.33136    2780.00024      19.40531       5.67818       9.42731    -999.25000       2.72226      11.95737     135.41011     135.41011      76.14588       0.00000       0.28073    5871.85059    2871.85034       1.00000       0.20244
    4554.50000      21.70964       2.58463      17.50000     320.51175      11.75240     332.73260     348.02786       9.68577      18.98468      17.74796      16.19527      18.30812    2744.33350      18.70840       5.66500      10.22707    -999.25000       6.11974      11.52232     131.44113     131.44113      72.59696       0.00000       0.24653    5871.16309    2871.16309    -999.25000       0.17736
    4554.00000      20.64418       2.68043      17.50000     321.22815      11.74190     332.69421     348.76770       9.72961      19.04195      17.77952      16.16602      18.29688    2775.00000      19.71021       5.82714      11.13957    -999.25000      10.49593      12.63448     129.80975     129.80975      69.12069       0.00000       0.28030    5870.18164    2870.18188    -999.25000       0.15280
    4553.50000      19.48226       2.71394      17.50000     321.12357      11.73508     332.67410     348.68460       9.74603      18.89869      17.77968      16.19740      18.30295    2780.75000      19.51420       6.41040      11.88764    -999.25000      13.04509      14.71148     125.39659     125.39659      68.41337       0.00000       0.37964    5865.66406    2865.66406    -999.25000       0.14780
    4553.00000      20.33332       2.67740      17.50000     321.12939      11.73214     332.66977     348.69443       9.78192      18.72637      17.79009      16.19740      18.30277    2780.66675      19.31819       7.76309      12.93007    -999.25000      14.00063      15.82323     127.64099     127.64099      70.44209       0.00000       0.60601    5853.79102    2853.79053    -999.25000       0.16213
    4552.50000      20.01718       2.63329      17.50000     321.68765      11.73319     332.74509     349.16809       9.76235      18.49758      17.81447      16.19740      18.18125    2755.00000      18.73018       9.17947      13.82407    -999.25000      15.65630      16.41373     122.11591     122.11591      73.15536       0.00000       0.83139    5836.40137    2836.40112    -999.25000       0.18131
    4552.00000      19.34638       2.61664      17.50000     321.75836      11.73813     332.76602     349.21710       9.79226      18.46705      17.83505      16.22666      18.18780    2809.75000      18.92618       9.58777      13.83075    -999.25000      15.91056      17.28394     118.41375     118.41375      73.68199       0.00000       0.99041    5818.55859    2818.55835    -999.25000       0.18503
    4551.50000      18.91921       2.63494      17.50000     320.52621      11.74662     332.72147     348.05273       9.82200      18.18006      17.83244      16.22666      18.25687    2761.50000      18.77373       9.40018      13.32407    -999.25000      15.19107      18.14092     115.88795     115.88795      72.54047       0.00000       1.09182    5796.55078    2796.55078    -999.25000       0.17696
    4551.00000      15.81333       2.65942      17.50000     319.94803      11.75807     332.71970     347.48779       9.83468      17.97447      17.84624      16.25590      18.37738    2728.75000      18.32727       9.35688      12.81576    -999.25000      15.50930      19.79417     108.14935     108.14935      68.51393       0.00000       1.05872    5776.53125    2776.53125    -999.25000       0.14851
    4550.50000      15.92550       2.69329      17.50000     320.33435      11.77166     332.70624     347.88052       9.84877      17.94539      17.84612      16.25590      18.29706    2727.00000      18.16394       9.48008      12.47472    -999.25000      19.05415      22.79988     103.65994     103.65994      62.75692       0.00000       0.98567    5761.66211    2761.66235    -999.25000       0.10782
