~VERSION
 VERS.        2.00                                                                   :CWLS LOG ASCII STANDARD
 WRAP.        NO                                                                     :NO WRAP PERFORMED
 PROD.        Schlumberger                                                           :LAS Producer
 CREA.        Tue May 19 09:28:59 2015                                               :LAS Creation Date and time
~Well
#MNEM.UNIT    VALUE                                                                   :DESCRIPTION
#----.----    ---------------                                                        :-------------------
 STRT.F       5210.000                                                               :START DEPTH
 STOP.F       350.000                                                                :STOP  DEPTH
 STEP.F       -0.500                                                                 :DEPTH STEP
 NULL.        -999.250                                                               :NULL VALUE
 COMP.        ADM Company                                                            :COMPANY NAME
 WELL.        CCS#2                                                                  :WELL NAME
 FLD.         WILDCAT                                                                :FIELD NAME
 API.         12-115-23713                                                           :API NUMBER
 CNTY.        MACON                                                                  :COUNTY
 STAT.        ILLINOIS                                                               :STATE
 CTRY.        US                                                                     :COUNTRY
 LOC.         Latitude: 39.885961                                                    :WELL SURFACE LOCATION LINE 1
 LOC2.        Longitude: -88.888044                                                  :WELL SURFACE LOCATION LINE 2
 LOC3.                                                                               :WELL SURFACE LOCATION LINE 3
 SECT.        32                                                                     :SECTION
 TOWN.        17N                                                                    :TOWNSHIP
 RANG.        3E                                                                     :RANGE
 LATI.        39deg 53' 9.46" N                                                      :Latitude
 LONG.        88deg 53' 16.958" W                                                    :Longitude
 DATE.        2014/05/03                                                             :LOGGING DATE
 SRVC.        Schlumberger                                                           :SERVICE COMPANY
~Parameter
#MNEM.UNIT    VALUE                                                                  :DESCRIPTION
#----.----    ---------------                                                        :-------------------
 APD.F        15.500                                                                 :Elevation of depth reference above permanent datum
 EDF.F        691.200                                                                :Elevation of Derrick Floor
 EGL.F        675.700                                                                :Elevation of Ground Level
 EKB.F        691.200                                                                :Elevation of Kelly Bushing
 EPD.F        675.700                                                                :Elevation of Permnaent Datum
 LMF.         KB                                                                     :Logging Measured From
 PDAT.        GL                                                                     :Permanent Datum
 TDD.F        5251.000                                                               :Total Depth Driller
 TDL.F        5252.000                                                               :Total Depth Logger
 BS.IN        17.500                                                                 :Bit Size
 R1.                                                                                 :REMARK 1
 R2.                                                                                 :REMARK 2
 R3.                                                                                 :REMARK 3
 R4.                                                                                 :REMARK 4
 R5.                                                                                 :REMARK 5
 R6.                                                                                 :REMARK 6
 R7.                                                                                 :REMARK 7
 R8.                                                                                 :REMARK 8
 R9.                                                                                 :REMARK 9
 R10.                                                                                :REMARK 10
 DCS_CENTER.  Denver                                                                 :Schlumberger DCS Center
 LOG_ANALYST. Maxwell                                                                :Log Analyst Name
 ENG.         Yazan Alhabahbeh                                                       :Field Engineer Name
 GF_BASELINE. GF45                                                                   :GeoFrame Baseline
~Curve
#MNEM.UNIT                                                                           :DESCRIPTION
#----.----                                                                           :--------------------------------
 DEPT.F                                                                              :Depth Index
 GR.GAPI                                                                             : 1 Gamma Ray                                                                                 
 RHOZ.G/C3                                                                           : 2 HRDD Standard Resolution Formation Density                                                
 BS.IN                                                                               : 3 Bit Size                                                                                  
 P1AZ.DEG                                                                            : 4 Pad 1 Azimuth in Horizontal Plane (0 = True North)                                        
 SDEVM.DEG                                                                           : 5 Memorized Sonde Deviation                                                                 
 HAZIM.DEG                                                                           : 6 Memorized Hole Azimuth Relative to True North                                             
 RB.DEG                                                                              : 7 Relative Bearing                                                                          
 DEVI.DEG                                                                            : 8 Hole Deviation                                                                            
 HD1_PPC1.IN                                                                         : 9 PPC1 Hole Diameter 1                                                                      
 HD1_PPC2.IN                                                                         :10 PPC2 Hole Diameter 1                                                                      
 HD2_PPC1.IN                                                                         :11 PPC1 Hole Diameter 2                                                                      
 HD2_PPC2.IN                                                                         :12 PPC2 Hole Diameter 2                                                                      
 TENS.LBS                                                                            :13 Cable Tension                                                                             
 HDAR.IN                                                                             :14 Hole Diameter from Area                                                                   
 MINXENE_OVERALL.                                                                    :15 Overall estimate of minimum cross energy                                                  
 MAXXENE_OVERALL.                                                                    :16 Overall estimate of maximum cross energy                                                  
 FSH_AZIM_OVERALL_FILT.DEG                                                           :17 Overall estimate of fast shear azimuth filtered                                           
 FSH_AZIM_OVERALL.DEG                                                                :18 Overall estimate of fast shear azimuth                                                    
 FSH_AZIM_ERR.DEG                                                                    :19 Fast shear azimuth error                                                                  
 DTSM_SLOW.US/F                                                                      :20 Shear Slowness of Slow Shear Waves                                                        
 DTSM_FAST.US/F                                                                      :21 Shear Slowness of Fast Shear Waves                                                        
 DTCO.US/F                                                                           :22 Delta-T Compressional                                                                     
 SLOANI.                                                                             :23 Slowness based anisotropy                                                                 
 TIMANI.                                                                             :24 Time based anisotropy                                                                     
 TWE.US                                                                              :25 Time window end                                                                           
 TWB.US                                                                              :26 Time window begin                                                                         
 FLAG.                                                                               :27 General Indicator Flag                                                                    
 SPHI.ft3/ft3                                                                        :28 Sonic Porosity                                                                            
~Ascii   DEPT            GR          RHOZ            BS          P1AZ         SDEVM         HAZIM            RB          DEVI      HD1_PPC1      HD1_PPC2      HD2_PPC1      HD2_PPC2          TENS          HDAR  MINXENE_OVER  MAXXENE_OVER  FSH_AZIM_OVE  FSH_AZIM_OVE  FSH_AZIM_ERR     DTSM_SLOW     DTSM_FAST          DTCO        SLOANI        TIMANI           TWE           TWB          FLAG          SPHI
# ...
    1330.00000      31.12338       2.68942      17.50000     103.04225       0.37821     324.71176     138.33110       0.39333      18.07495      18.46663      18.07358      18.39476    1891.66675      17.92438       0.11883       0.50774    -999.25000      17.88916       5.88102     112.38293     111.94328      58.27994       0.39198       0.00481    5923.72070    2923.72119    -999.25000       0.07618
    1329.50000      34.07182       2.64969      17.50000     102.98885       0.38253     325.99884     136.99066       0.39289      18.13395      18.33210      18.07027      18.34880    1815.66663      18.03327       0.11314       0.52286    -999.25000      17.87263       5.50664     119.84491     119.96656      64.20793      -0.10146       0.01306    5922.33887    2922.33936    -999.25000       0.11808
    1329.00000      35.29768       2.59505      17.50000     103.08939       0.38609     327.98398     135.10606       0.39330      18.04493      18.17639      18.04310      18.32597    1846.00000      17.94615       0.11016       0.53538    -999.25000      17.45365       5.53127     124.84292     125.11861      69.28419      -0.22058       0.01070    5922.43164    2922.43188    -999.25000       0.15395
    1328.50000      41.84960       2.56810      17.50000     103.48113       0.38955     330.62140     132.86041       0.39423      18.07495      18.16590      18.01574      18.26831    1787.33337      17.94615       0.10968       0.52974    -999.25000      17.34217       5.31761     121.41553     120.75633      69.57460       0.54440       0.01218    5924.30566    2924.30542    -999.25000       0.15600
    1328.00000      45.20978       2.58726      17.50000     103.77539       0.39367     333.81064     129.96542       0.39898      17.95289      17.90496      17.89245      18.14172    1839.00000      17.79370       0.11112       0.53258    -999.25000      17.50166       4.81750     117.43254     117.72712      68.37961      -0.25053       0.02178    5928.42090    2928.42041    -999.25000       0.14756
    1327.50000      42.61190       2.62522      17.50000     103.64429       0.39916     337.39783     126.24712       0.40749      17.95531      17.94679      17.92487      18.18795    1939.50012      17.70659       0.11512       0.59116    -999.25000      17.73971       4.89311     112.67961     112.87956      65.72695      -0.17729       0.01938    5934.76709    2934.76709    -999.25000       0.12881
    1327.00000      38.53276       2.67538      17.50000     103.70613       0.40655     341.20081     122.50598       0.41875      17.98248      17.93625      17.89245      18.14714    1905.00000      17.70659       0.13340       0.64838    -999.25000      16.60452       5.39127     113.37898     113.77140      59.75566      -0.34551       0.01427    5944.27246    2944.27246    -999.25000       0.08661
    1326.50000      31.85592       2.68232      17.50000     103.63624       0.41604     345.03793     118.59893       0.43200      17.95531      17.98859      17.92487      18.26254    1904.00000      17.66303       0.18036       0.68095    -999.25000      15.08064       6.29648     114.40665     114.42367      57.72148      -0.01488       0.01639    5960.94238    2960.94238    -999.25000       0.07224
    1326.00000      30.23949       2.68905      17.50000     103.40246       0.42754     348.76089     114.64218       0.44582      18.01537      18.17206      17.89593      18.32010    1775.33337      17.77193       0.25801       0.72615    -999.25000     -26.57945       8.42220     115.11008     115.00626      55.98160       0.09023       0.02254    5989.77930    2989.77905    -999.25000       0.05994
    1325.50000      28.34817       2.67529      17.50000     103.32239       0.44078     352.26782     111.05514       0.45931      17.95578      18.08259      17.92690      18.26254    1843.74988      17.79370       0.36299       0.77114    -999.25000     -66.01352      11.58201     114.94703     114.99969      55.06492      -0.04580       0.02874    6032.88086    3032.88110    -999.25000       0.05346
    1325.00000      29.12728       2.66440      17.50000     103.18167       0.45538     355.51236     107.66985       0.47307      17.98357      18.05745      17.89593      18.24558    1886.33337      17.79370       0.47613       0.88818    -999.25000     -68.05405      11.62012     113.48558     113.19505      54.65790       0.25634       0.05232    6082.27637    3082.27661    -999.25000       0.05059
    1324.50000      31.81840       2.65301      17.50000     102.95789       0.47107     358.48843     104.46993       0.48892      17.95578      17.96332      17.89593      18.24558    1737.50000      17.79370       0.57143       1.06359    -999.25000     -70.41760      10.91528     110.56277     110.87347      54.11094      -0.28063       0.10685    6131.08301    3131.08325    -999.25000       0.04672
    1324.00000      32.81598       2.65416      17.50000     102.60906       0.48767       1.21240     101.39706       0.50587      17.95578      17.97806      17.92690      18.22799    1818.50000      17.77193       0.66917       1.20513    -999.25000     -67.73771      12.93065     107.40290     107.91339      54.04541      -0.47418       0.11796    6179.01465    3179.01514    -999.25000       0.04626
    1323.50000      33.59798       2.66380      17.50000     102.41909       0.50518       3.70573      98.71370       0.51840      17.95578      17.99912      17.92690      18.22251    1822.75000      17.77193       0.78049       1.34294    -999.25000     -70.66156      13.35839     104.69630     105.22347      53.75327      -0.50226       0.07922    6226.34473    3226.34473    -999.25000       0.04419
    1323.00000      30.54756       2.67649      17.50000     101.70757       0.52372       5.98255      95.72527       0.53680      17.92574      17.87957      17.92690      18.19063    1803.33337      17.72837       0.86750       1.52675    -999.25000     -71.40019      13.98323     102.94585     103.44614      53.16254      -0.48480       0.11218    6274.30420    3274.30420    -999.25000       0.04002
    1322.50000      30.56453       2.68011      17.50000     101.04213       0.54343       8.04383      92.99844       0.55576      17.92329      17.89458      17.89245      18.22513    1745.33337      17.72837       0.96549       1.70800    -999.25000     -65.42235      15.70079     102.46706     102.95754      52.40829      -0.47753       0.18068    6320.98340    3320.98364    -999.25000       0.03469
    1322.00000      29.18620       2.68458      17.50000     100.52145       0.56443       9.87874      90.64274       0.57738      17.92574      17.93642      17.89593      18.21104    1790.00000      17.75015       1.19880       1.99910    -999.25000     -62.39732      17.24515     103.82616     104.00186      51.69313      -0.16908       0.16224    6366.28125    3366.28125    -999.25000       0.02963
    1321.50000      30.17043       2.68223      17.50000     100.27895       0.58674      11.47027      88.80861       0.60201      17.92574      17.97092      17.89593      18.21637    1856.66675      17.75015       1.46197       2.53874    -999.25000     -58.91442      18.28028     102.24900     103.62746      51.68409      -1.33911       0.27843    6413.27881    3413.27881    -999.25000       0.02957
    1321.00000      29.30109       2.68893      17.50000     100.00011       0.61019      12.80454      87.19540       0.62888      17.92574      17.95733      17.89593      18.21089    1858.33325      17.75015       1.81026       2.98070    -999.25000     -52.93972      19.02868     100.59367     100.51041      52.25530       0.08281       0.46273    6464.83691    3464.83667    -999.25000       0.03361
    1320.50000      33.09669       2.70250      17.50000      99.79494       0.63443      13.87993      85.91476       0.65235      17.95531      17.94256      17.92690      18.19942    1837.00000      17.72837       2.23955       3.31916    -999.25000     -41.90864      21.03079     101.20210     102.58852      52.69435      -1.36063       0.60728    6518.55078    3518.55078    -999.25000       0.03671
