~VERSION
 VERS.        2.00                                                                   :CWLS LOG ASCII STANDARD
 WRAP.        NO                                                                     :NO WRAP PERFORMED
 PROD.        Schlumberger                                                           :LAS Producer
 CREA.        Tue May 19 09:28:59 2015                                               :LAS Creation Date and time
~Well
#MNEM.UNIT    VALUE                                                                   :DESCRIPTION
#----.----    ---------------                                                        :-------------------
 STRT.F       5210.000                                                               :START DEPTH
 STOP.F       350.000                                                                :STOP  DEPTH
 STEP.F       -0.500                                                                 :DEPTH STEP
 NULL.        -999.250                                                               :NULL VALUE
 COMP.        ADM Company                                                            :COMPANY NAME
 WELL.        CCS#2                                                                  :WELL NAME
 FLD.         WILDCAT                                                                :FIELD NAME
 API.         12-115-23713                                                           :API NUMBER
 CNTY.        MACON                                                                  :COUNTY
 STAT.        ILLINOIS                                                               :STATE
 CTRY.        US                                                                     :COUNTRY
 LOC.         Latitude: 39.885961                                                    :WELL SURFACE LOCATION LINE 1
 LOC2.        Longitude: -88.888044                                                  :WELL SURFACE LOCATION LINE 2
 LOC3.                                                                               :WELL SURFACE LOCATION LINE 3
 SECT.        32                                                                     :SECTION
 TOWN.        17N                                                                    :TOWNSHIP
 RANG.        3E                                                                     :RANGE
 LATI.        39deg 53' 9.46" N                                                      :Latitude
 LONG.        88deg 53' 16.958" W                                                    :Longitude
 DATE.        2014/05/03                                                             :LOGGING DATE
 SRVC.        Schlumberger                                                           :SERVICE COMPANY
~Parameter
#MNEM.UNIT    VALUE                                                                  :DESCRIPTION
#----.----    ---------------                                                        :-------------------
 APD.F        15.500                                                                 :Elevation of depth reference above permanent datum
 EDF.F        691.200                                                                :Elevation of Derrick Floor
 EGL.F        675.700                                                                :Elevation of Ground Level
 EKB.F        691.200                                                                :Elevation of Kelly Bushing
 EPD.F        675.700                                                                :Elevation of Permnaent Datum
 LMF.         KB                                                                     :Logging Measured From
 PDAT.        GL                                                                     :Permanent Datum
 TDD.F        5251.000                                                               :Total Depth Driller
 TDL.F        5252.000                                                               :Total Depth Logger
 BS.IN        17.500                                                                 :Bit Size
 R1.                                                                                 :REMARK 1
 R2.                                                                                 :REMARK 2
 R3.                                                                                 :REMARK 3
 R4.                                                                                 :REMARK 4
 R5.                                                                                 :REMARK 5
 R6.                                                                                 :REMARK 6
 R7.                                                                                 :REMARK 7
 R8.                                                                                 :REMARK 8
 R9.                                                                                 :REMARK 9
 R10.                                                                                :REMARK 10
 DCS_CENTER.  Denver                                                                 :Schlumberger DCS Center
 LOG_ANALYST. Maxwell                                                                :Log Analyst Name
 ENG.         Yazan Alhabahbeh                                                       :Field Engineer Name
 GF_BASELINE. GF45                                                                   :GeoFrame Baseline
~Curve
#MNEM.UNIT                                                                           :DESCRIPTION
#----.----                                                                           :--------------------------------
 DEPT.F                                                                              :Depth Index
 GR.GAPI                                                                             : 1 Gamma Ray                                                                                 
 RHOZ.G/C3                                                                           : 2 HRDD Standard Resolution Formation Density                                                
 BS.IN                                                                               : 3 Bit Size                                                                                  
 P1AZ.DEG                                                                            : 4 Pad 1 Azimuth in Horizontal Plane (0 = True North)                                        
 SDEVM.DEG                                                                           : 5 Memorized Sonde Deviation                                                                 
 HAZIM.DEG                                                                           : 6 Memorized Hole Azimuth Relative to True North                                             
 RB.DEG                                                                              : 7 Relative Bearing                                                                          
 DEVI.DEG                                                                            : 8 Hole Deviation                                                                            
 HD1_PPC1.IN                                                                         : 9 PPC1 Hole Diameter 1                                                                      
 HD1_PPC2.IN                                                                         :10 PPC2 Hole Diameter 1                                                                      
 HD2_PPC1.IN                                                                         :11 PPC1 Hole Diameter 2                                                                      
 HD2_PPC2.IN                                                                         :12 PPC2 Hole Diameter 2                                                                      
 TENS.LBS                                                                            :13 Cable Tension                                                                             
 HDAR.IN                                                                             :14 Hole Diameter from Area                                                                   
 MINXENE_OVERALL.                                                                    :15 Overall estimate of minimum cross energy                                                  
 MAXXENE_OVERALL.                                                                    :16 Overall estimate of maximum cross energy                                                  
 FSH_AZIM_OVERALL_FILT.DEG                                                           :17 Overall estimate of fast shear azimuth filtered                                           
 FSH_AZIM_OVERALL.DEG                                                                :18 Overall estimate of fast shear azimuth                                                    
 FSH_AZIM_ERR.DEG                                                                    :19 Fast shear azimuth error                                                                  
 DTSM_SLOW.US/F                                                                      :20 Shear Slowness of Slow Shear Waves                                                        
 DTSM_FAST.US/F                                                                      :21 Shear Slowness of Fast Shear Waves                                                        
 DTCO.US/F                                                                           :22 Delta-T Compressional                                                                     
 SLOANI.                                                                             :23 Slowness based anisotropy                                                                 
 TIMANI.                                                                             :24 Time based anisotropy                                                                     
 TWE.US                                                                              :25 Time window end                                                                           
 TWB.US                                                                              :26 Time window begin                                                                         
 FLAG.                                                                               :27 General Indicator Flag                                                                    
 SPHI.ft3/ft3                                                                        :28 Sonic Porosity                                                                            
~Ascii   DEPT            GR          RHOZ            BS          P1AZ         SDEVM         HAZIM            RB          DEVI      HD1_PPC1      HD1_PPC2      HD2_PPC1      HD2_PPC2          TENS          HDAR  MINXENE_OVER  MAXXENE_OVER  FSH_AZIM_OVE  FSH_AZIM_OVE  FSH_AZIM_ERR     DTSM_SLOW     DTSM_FAST          DTCO        SLOANI        TIMANI           TWE           TWB          FLAG          SPHI
# ...
     680.00000      74.97578       2.57022      17.50000      67.56962       0.10292      80.63605     346.93359       0.10447      18.99536      18.58031      19.05508      18.78922    1735.50000      19.14396      13.41814      14.68841    -999.25000      32.81726      21.70414     212.78516     212.68968      98.48438       0.04488       0.79287    7449.99854    4449.99854    -999.25000       0.36031
     679.50000      76.96214       2.58642      17.50000      68.10347       0.10065      75.35421     352.74927       0.10093      18.93617      18.58031      19.02431      18.77720    1735.50000      18.90440      12.98197      14.42415    -999.25000      29.91877      22.23340     212.28963     211.43034      96.62608       0.40559       0.89074    7448.56836    4448.56836    -999.25000       0.34718
     679.00000      77.91206       2.61005      17.50000      68.64514       0.09782      69.01365     359.63150       0.09415      18.87651      18.58031      18.96687      18.78922    1674.50000      18.46884      12.28389      13.61454    -999.25000      29.08720      22.81109     212.28963     212.46019      96.83961      -0.08031       0.96402    7435.33008    4435.33008    -999.25000       0.34869
     678.50000      75.53146       2.58574      17.50000      68.49437       0.09510      61.56458       6.92978       0.08834      18.75846      18.58679      19.11247      18.81829    1681.33337      18.25105      11.67450      12.68302    -999.25000      36.98803      22.62819     212.28963     213.49002      96.92919      -0.56386       1.01989    7422.04688    4422.04688    -999.25000       0.34932
     678.00000      79.63170       2.56877      17.50000      69.46145       0.09341      53.21869      16.24273       0.08588      18.69917      18.58679      19.26210      18.78922    1618.66675      18.80640      11.24549      11.73603    -999.25000      51.27482      21.26417     212.28963     212.94890      97.34230      -0.31007       0.97383    7407.17383    4407.17383    -999.25000       0.35224
     677.50000      80.41676       2.53176      17.50000      70.14590       0.09359      44.62150      25.52436       0.08868      18.69917      18.58031      19.67527      19.16685    1652.25000      18.55595      10.60134      10.97418    -999.25000      54.12309      20.49293     212.28963     212.94054      97.64132      -0.30614       0.75085    7393.22266    4393.22266       1.00000       0.35436
     677.00000      83.49430       2.48716      17.50000      73.39256       0.09604      36.75917      36.63335       0.09401      18.64028      18.55967      21.14282      19.16685    1723.25000      19.94977       9.98798      10.63803    -999.25000      47.74310      20.51029     207.56450     210.43019      97.53976      -1.37116       0.76775    7381.60059    4381.60059       1.00000       0.35364
     676.50000      79.62884       2.43998      17.50000      73.15774       0.10046      30.58998      42.56772       0.10269      18.43185      18.47319      21.08627      19.16685    1673.25012      19.68843       9.56501      10.63465    -999.25000      42.92035      20.41496     208.28178     207.48749      97.16886       0.38209       1.06661    7370.86572    4370.86572       1.00000       0.35102
     676.00000      73.99535       2.32146      17.50000      73.47327       0.10609      26.67478      46.79845       0.10980      18.34293      18.42134      20.85132      19.16685    1652.25000      19.25286       9.11216      10.85854    -999.25000      39.56453      19.76575     203.13403     206.30742      96.09573      -1.55010       1.29795    7360.04248    4360.04248       1.00000       0.34343
     675.50000      79.08670       2.19385      17.50000      75.33476       0.11215      25.11195      50.22277       0.11419      18.34293      18.37356      19.29283      18.83544    1604.00000      19.39442       8.58654      11.07279    -999.25000      37.93670      18.57065     199.47630     199.37463      94.60386       0.05098       1.46626    7350.64697    4350.64697       1.00000       0.33289
     675.00000      79.24493       2.11977      17.50000      74.58220       0.11813      25.67735      48.90479       0.11885      18.43230      18.41499      18.58259      18.41753    1649.25000      18.96974       7.98602      11.14325    -999.25000      37.86979      17.49939     201.35852     198.33737      93.64381       1.51172       1.56036    7344.27734    4344.27734    -999.25000       0.32610
     674.50000      84.30810       2.20848      17.50000      74.86600       0.12384      27.95525      46.91069       0.12400      18.34293      18.41499      18.55173      18.41753    1663.25012      18.22927       7.73900      11.22910    -999.25000      38.50448      17.28030     202.12396     200.68983      93.66277       0.71205       1.58386    7344.12793    4344.12793    -999.25000       0.32624
     674.00000      77.36731       2.37835      17.50000      75.14243       0.12922      31.43760      43.70475       0.13319      18.40192      18.55983      18.52087      18.48564    1597.00000      18.27283       8.25201      11.33615    -999.25000      39.43872      18.06790     205.50331     204.64383      94.18272       0.41911       1.56000    7353.22070    4353.22070    -999.25000       0.32991
     673.50000      77.46870       2.48665      17.50000      74.86607       0.13415      35.61009      39.25591       0.14254      18.40192      18.44611      18.49000      18.43493    1696.25000      18.77373       9.41779      11.51609    -999.25000      47.66486      19.86876     208.95807     208.11974      95.86449       0.40200       1.42799    7368.00732    4368.00732    -999.25000       0.34180
     673.00000      77.86124       2.53445      17.50000      74.82507       0.13833      40.01932      34.80567       0.14738      18.58095      18.58679      18.68930      18.84140    1641.50000      17.35814      10.40245      12.14117    -999.25000      61.14510      21.49295     209.58664     208.97882      97.49333       0.29043       1.10765    7382.34814    4382.34814    -999.25000       0.35331
     672.50000      79.93066       2.55901      17.50000      74.56725       0.14126      44.34865      30.21853       0.14877      18.46178      18.52482      19.67941      18.78048    1563.33337      18.38172      10.52384      13.08875    -999.25000      68.62129      21.46191     209.26590     205.61983      98.19278       1.75763       0.80046    7394.93506    4394.93506       1.00000       0.35825
     672.00000      76.12148       2.59389      17.50000      78.02047       0.14243      48.42250      29.59790       0.14500      18.46178      18.54943      18.60728      18.48873    1608.25000      19.73198      10.23870      14.04913    -999.25000      70.69044      20.65959     220.67978     223.24649      98.81348      -1.15637       0.67515    7406.25293    4406.25293    -999.25000       0.36264
     671.50000      74.85686       2.60420      17.50000      81.26779       0.14144      52.19094      29.07678       0.13771      18.46178      18.43584      19.47698      18.73306    1644.75012      17.64126       9.90529      14.91033    -999.25000      72.93025      19.83900     229.35455     230.44769      99.71577      -0.47548       0.54703    7422.00586    4422.00586       1.00000       0.36902
     671.00000      73.47535       2.57089      17.50000      84.09375       0.13819      55.68666      28.40702       0.12770      18.69775      18.59054      21.84944      19.16685    1644.75012      21.16935       9.50370      15.64705    -999.25000      75.39049      18.70729     227.95337     228.25594     101.62890      -0.13264       0.40110    7451.36768    4451.36768       1.00000       0.38254
     670.50000      76.55806       2.50838      17.50000      85.94872       0.13282      59.02090      26.92776       0.11651      18.34293      18.59054      21.29678      19.16066    1694.75012      22.43250       9.04023      16.37962    -999.25000      76.83853      17.40067     225.31757     221.13608     104.36798       1.87320       0.34188    7488.10352    4488.10352       1.00000       0.40189
