~VERSION
 VERS.        2.00                                                                   :CWLS LOG ASCII STANDARD
 WRAP.        NO                                                                     :NO WRAP PERFORMED
 PROD.        Schlumberger                                                           :LAS Producer
 CREA.        Tue May 19 09:28:59 2015                                               :LAS Creation Date and time
~Well
#MNEM.UNIT    VALUE                                                                   :DESCRIPTION
#----.----    ---------------                                                        :-------------------
 STRT.F       5210.000                                                               :START DEPTH
 STOP.F       350.000                                                                :STOP  DEPTH
 STEP.F       -0.500                                                                 :DEPTH STEP
 NULL.        -999.250                                                               :NULL VALUE
 COMP.        ADM Company                                                            :COMPANY NAME
 WELL.        CCS#2                                                                  :WELL NAME
 FLD.         WILDCAT                                                                :FIELD NAME
 API.         12-115-23713                                                           :API NUMBER
 CNTY.        MACON                                                                  :COUNTY
 STAT.        ILLINOIS                                                               :STATE
 CTRY.        US                                                                     :COUNTRY
 LOC.         Latitude: 39.885961                                                    :WELL SURFACE LOCATION LINE 1
 LOC2.        Longitude: -88.888044                                                  :WELL SURFACE LOCATION LINE 2
 LOC3.                                                                               :WELL SURFACE LOCATION LINE 3
 SECT.        32                                                                     :SECTION
 TOWN.        17N                                                                    :TOWNSHIP
 RANG.        3E                                                                     :RANGE
 LATI.        39deg 53' 9.46" N                                                      :Latitude
 LONG.        88deg 53' 16.958" W                                                    :Longitude
 DATE.        2014/05/03                                                             :LOGGING DATE
 SRVC.        Schlumberger                                                           :SERVICE COMPANY
~Parameter
#MNEM.UNIT    VALUE                                                                  :DESCRIPTION
#----.----    ---------------                                                        :-------------------
 APD.F        15.500                                                                 :Elevation of depth reference above permanent datum
 EDF.F        691.200                                                                :Elevation of Derrick Floor
 EGL.F        675.700                                                                :Elevation of Ground Level
 EKB.F        691.200                                                                :Elevation of Kelly Bushing
 EPD.F        675.700                                                                :Elevation of Permnaent Datum
 LMF.         KB                                                                     :Logging Measured From
 PDAT.        GL                                                                     :Permanent Datum
 TDD.F        5251.000                                                               :Total Depth Driller
 TDL.F        5252.000                                                               :Total Depth Logger
 BS.IN        17.500                                                                 :Bit Size
 R1.                                                                                 :REMARK 1
 R2.                                                                                 :REMARK 2
 R3.                                                                                 :REMARK 3
 R4.                                                                                 :REMARK 4
 R5.                                                                                 :REMARK 5
 R6.                                                                                 :REMARK 6
 R7.                                                                                 :REMARK 7
 R8.                                                                                 :REMARK 8
 R9.                                                                                 :REMARK 9
 R10.                                                                                :REMARK 10
 DCS_CENTER.  Denver                                                                 :Schlumberger DCS Center
 LOG_ANALYST. Maxwell                                                                :Log Analyst Name
 ENG.         Yazan Alhabahbeh                                                       :Field Engineer Name
 GF_BASELINE. GF45                                                                   :GeoFrame Baseline
~Curve
#MNEM.UNIT                                                                           :DESCRIPTION
#----.----                                                                           :--------------------------------
 DEPT.F                                                                              :Depth Index
 GR.GAPI                                                                             : 1 Gamma Ray                                                                                 
 RHOZ.G/C3                                                                           : 2 HRDD Standard Resolution Formation Density                                                
 BS.IN                                                                               : 3 Bit Size                                                                                  
 P1AZ.DEG                                                                            : 4 Pad 1 Azimuth in Horizontal Plane (0 = True North)                                        
 SDEVM.DEG                                                                           : 5 Memorized Sonde Deviation                                                                 
 HAZIM.DEG                                                                           : 6 Memorized Hole Azimuth Relative to True North                                             
 RB.DEG                                                                              : 7 Relative Bearing                                                                          
 DEVI.DEG                                                                            : 8 Hole Deviation                                                                            
 HD1_PPC1.IN                                                                         : 9 PPC1 Hole Diameter 1                                                                      
 HD1_PPC2.IN                                                                         :10 PPC2 Hole Diameter 1                                                                      
 HD2_PPC1.IN                                                                         :11 PPC1 Hole Diameter 2                                                                      
 HD2_PPC2.IN                                                                         :12 PPC2 Hole Diameter 2                                                                      
 TENS.LBS                                                                            :13 Cable Tension                                                                             
 HDAR.IN                                                                             :14 Hole Diameter from Area                                                                   
 MINXENE_OVERALL.                                                                    :15 Overall estimate of minimum cross energy                                                  
 MAXXENE_OVERALL.                                                                    :16 Overall estimate of maximum cross energy                                                  
 FSH_AZIM_OVERALL_FILT.DEG                                                           :17 Overall estimate of fast shear azimuth filtered                                           
 FSH_AZIM_OVERALL.DEG                                                                :18 Overall estimate of fast shear azimuth                                                    
 FSH_AZIM_ERR.DEG                                                                    :19 Fast shear azimuth error                                                                  
 DTSM_SLOW.US/F                                                                      :20 Shear Slowness of Slow Shear Waves                                                        
 DTSM_FAST.US/F                                                                      :21 Shear Slowness of Fast Shear Waves                                                        
 DTCO.US/F                                                                           :22 Delta-T Compressional                                                                     
 SLOANI.                                                                             :23 Slowness based anisotropy                                                                 
 TIMANI.                                                                             :24 Time based anisotropy                                                                     
 TWE.US                                                                              :25 Time window end                                                                           
 TWB.US                                                                              :26 Time window begin                                                                         
 FLAG.                                                                               :27 General Indicator Flag                                                                    
 SPHI.ft3/ft3                                                                        :28 Sonic Porosity                                                                            
~Ascii   DEPT            GR          RHOZ            BS          P1AZ         SDEVM         HAZIM            RB          DEVI      HD1_PPC1      HD1_PPC2      HD2_PPC1      HD2_PPC2          TENS          HDAR  MINXENE_OVER  MAXXENE_OVER  FSH_AZIM_OVE  FSH_AZIM_OVE  FSH_AZIM_ERR     DTSM_SLOW     DTSM_FAST          DTCO        SLOANI        TIMANI           TWE           TWB          FLAG          SPHI
# ...
    4240.00000      24.80582       2.15460      17.50000     332.73123       4.14745     355.47574     337.30902       3.82017      18.01528      17.91073      17.64612      18.24558    2725.33325      18.14216       7.17654      59.36224    -999.25000      59.46021       5.62616      98.49884      97.54418      52.15858       0.97393      16.21374    5868.82178    2868.82178    -999.25000       0.03292
    4239.50000      26.55326       2.14261      17.50000     334.45230       4.15286     355.59341     338.90952       3.79579      18.04525      18.17152      17.58812      18.04258    2738.50000      18.29461       7.59073      57.04525    -999.25000      60.73167       5.74959      98.54563      98.37590      50.81660       0.17238      16.50249    5871.44336    2871.44312    -999.25000       0.02344
    4239.00000      25.37852       2.14069      17.50000     341.00168       4.14889     355.70367     345.33490       3.76970      18.04525      18.33157      17.58812      17.89743    2729.75000      18.35994       8.12126      54.22523    -999.25000      61.91234       6.11284      98.21493      98.51844      50.03231      -0.30855      16.83742    5870.62598    2870.62598    -999.25000       0.01790
    4238.50000      26.58639       2.13890      17.50000     349.66168       4.13650     355.81747     353.86014       3.73988      18.13419      18.42429      17.58812      17.95570    2625.00000      18.22927       8.98687      51.20980    -999.25000      62.91825       6.74498      99.15737      99.15737      47.00196       0.00000      17.19343    5866.55176    2866.55200    -999.25000      -0.00352
    4238.00000      25.52536       2.13934      17.50000     350.34244       4.11716     355.90448     354.45221       3.71975      18.07459      18.14435      17.58812      17.96741    2659.75000      18.16394      10.11738      48.29786    -999.25000      63.88815       7.47347     100.85624     100.85624      50.99024       0.00000      17.56370    5859.90381    2859.90381    -999.25000       0.02467
    4237.50000      25.92231       2.12671      17.50000     350.82040       4.09254     355.91690     354.91641       3.68029      18.04462      18.23805      17.55702      17.90952    2659.75000      18.13127      11.30704      45.52380    -999.25000      64.82385       8.23207     103.37297     103.37297      52.47108       0.00000      17.98679    5855.11523    2855.11523    -999.25000       0.03513
    4237.00000      23.59616       2.12112      17.50000     352.00702       4.06414     355.83307     356.18356       3.64805      18.04494      18.17587      17.55702      18.04241    2640.50000      17.89171      12.54838      43.05252    -999.25000      65.64442       9.03590     105.19424     105.19424      53.23298       0.00000      11.49791    5853.97510    2853.97510    -999.25000       0.04052
    4236.50000      21.25274       2.12274      17.50000     350.81482       4.03290     355.59134     355.23526       3.62028      17.92582      18.16100      17.59188      18.14698    2702.33325      17.96793      13.87789      41.22831    -999.25000      66.43319       9.71803     106.26070     106.26070      53.99487       0.00000       3.32543    5854.94873    2854.94873    -999.25000       0.04590
    4236.00000      20.89162       2.12609      17.50000     350.66724       3.99874     355.14572     355.53238       3.58174      17.92809      18.12332      17.58979      18.14682    2799.50000      17.92438      15.15521      39.82707    -999.25000      67.03625       9.99582     105.45280     105.45280      52.85543       0.00000       1.77327    5857.72119    2857.72119    -999.25000       0.03785
    4235.50000      20.17831       2.12843      17.50000     351.57761       3.96020     354.42957     357.15485       3.54420      18.31214      18.54891      17.52591      17.96775    2823.66675      17.96793      16.16277      38.43755    -999.25000      67.17537      10.48158     104.17384     104.17384      51.44675       0.00000       1.54242    5858.87988    2858.87988       1.00000       0.02789
    4235.00000      22.91269       2.13511      17.50000     353.22876       3.91423     353.39038     359.83878       3.52216      18.49160      18.55914      17.49478      18.13515    2630.33325      18.05504      16.99482      36.63633    -999.25000      66.90377      11.40443     107.16445     107.16445      50.63549       0.00000       1.22384    5858.25977    2858.25977    -999.25000       0.02216
    4234.50000      23.25388       2.15656      17.50000     353.40494       3.85616     351.94296       1.45865       3.50416      18.43183      18.47631      17.52591      18.24525    2746.75000      18.14216      17.62713      34.40202    -999.25000      66.30017      12.13380     112.78610     112.78610      49.92816       0.00000       0.85600    5858.13184    2858.13184    -999.25000       0.01716
    4234.00000      23.57709       2.17407      17.50000     354.58047       3.78001     350.02023       4.55036       3.48889      18.22554      18.45136      17.61712      18.15287    2737.25000      18.07682      17.66255      32.40846    -999.25000      65.58870      12.36149     114.42916     114.42916      52.07582       0.00000       0.56017    5857.30371    2857.30347    -999.25000       0.03234
    4233.50000      21.66097       2.16086      17.50000     352.92279       3.67928     347.50800       5.40371       3.45097      18.25331      18.29007      17.55702      17.92090    2638.75000      18.15305      17.05200      30.82684    -999.25000      64.94193      12.01473     109.26981     109.26981      50.08141       0.00000       0.33127    5854.20410    2854.20386    -999.25000       0.01824
    4233.00000      21.34836       2.13368      17.50000     352.12201       3.54815     344.27029       7.83685       3.35442      18.28292      18.29007      17.49689      17.82770    2710.33325      18.10949      15.95906      29.48681    -999.25000      64.82864      11.26228     103.78013     103.78013      48.24306       0.00000       0.13789    5849.33105    2849.33081    -999.25000       0.00525
    4232.50000      23.93575       2.09919      17.50000     351.04660       3.38332     340.17273      10.85538       3.19665      18.37235      18.51764      17.40560      17.71576    2792.25000      18.07682      14.94222      29.48956    -999.25000      64.86130      10.38587     103.07951     103.07951      50.76753       0.00000      11.25030    5843.30859    2843.30859    -999.25000       0.02309
    4232.00000      24.08438       2.08947      17.50000     346.23499       3.18577     335.12521      11.09305       3.00783      18.37235      18.53471      17.40560      17.80933    2638.00024      18.29461      14.26816      30.73313    -999.25000      63.76373       9.69281     105.13953     105.13953      54.47333       0.00000      22.22012    5838.91211    2838.91235    -999.25000       0.04928
    4231.50000      24.04478       2.08827      17.50000     344.26776       2.96273     328.69931      15.54866       2.83496      18.04525      18.45232      17.55909      18.07156    2643.00024      18.35994      13.91310      32.14246    -999.25000      62.02132      10.54340     108.28413     108.28413      56.67403       0.00000      21.63283    5837.66357    2837.66357    -999.25000       0.06483
    4231.00000      23.59726       2.10562      17.50000     340.96463       2.72931     320.67139      20.27208       2.62696      17.98531      17.86292      17.53006      17.89743    2696.25000      18.51239      16.53583      33.61602    -999.25000      62.52590      12.04826     107.27053     107.27053      57.91421       0.00000      21.25851    5836.13672    2836.13672    -999.25000       0.07360
    4230.50000      24.44690       2.12998      17.50000     328.32455       2.50882     310.89645      17.41241       2.46138      17.92612      17.92091      17.53388      17.93225    2687.00000      18.64306      21.14920      35.95677    -999.25000      62.49638      12.89606     106.25632     106.25632      57.13384       0.00000      21.18618    5831.49609    2831.49609    -999.25000       0.06808
