~VERSION
 VERS.        2.00                                                                   :CWLS LOG ASCII STANDARD
 WRAP.        NO                                                                     :NO WRAP PERFORMED
 PROD.        Schlumberger                                                           :LAS Producer
 CREA.        Tue May 19 09:28:59 2015                                               :LAS Creation Date and time
~Well
#MNEM.UNIT    VALUE                                                                   :DESCRIPTION
#----.----    ---------------                                                        :-------------------
 STRT.F       5210.000                                                               :START DEPTH
 STOP.F       350.000                                                                :STOP  DEPTH
 STEP.F       -0.500                                                                 :DEPTH STEP
 NULL.        -999.250                                                               :NULL VALUE
 COMP.        ADM Company                                                            :COMPANY NAME
 WELL.        CCS#2                                                                  :WELL NAME
 FLD.         WILDCAT                                                                :FIELD NAME
 API.         12-115-23713                                                           :API NUMBER
 CNTY.        MACON                                                                  :COUNTY
 STAT.        ILLINOIS                                                               :STATE
 CTRY.        US                                                                     :COUNTRY
 LOC.         Latitude: 39.885961                                                    :WELL SURFACE LOCATION LINE 1
 LOC2.        Longitude: -88.888044                                                  :WELL SURFACE LOCATION LINE 2
 LOC3.                                                                               :WELL SURFACE LOCATION LINE 3
 SECT.        32                                                                     :SECTION
 TOWN.        17N                                                                    :TOWNSHIP
 RANG.        3E                                                                     :RANGE
 LATI.        39deg 53' 9.46" N                                                      :Latitude
 LONG.        88deg 53' 16.958" W                                                    :Longitude
 DATE.        2014/05/03                                                             :LOGGING DATE
 SRVC.        Schlumberger                                                           :SERVICE COMPANY
~Parameter
#MNEM.UNIT    VALUE                                                                  :DESCRIPTION
#----.----    ---------------                                                        :-------------------
 APD.F        15.500                                                                 :Elevation of depth reference above permanent datum
 EDF.F        691.200                                                                :Elevation of Derrick Floor
 EGL.F        675.700                                                                :Elevation of Ground Level
 EKB.F        691.200                                                                :Elevation of Kelly Bushing
 EPD.F        675.700                                                                :Elevation of Permnaent Datum
 LMF.         KB                                                                     :Logging Measured From
 PDAT.        GL                                                                     :Permanent Datum
 TDD.F        5251.000                                                               :Total Depth Driller
 TDL.F        5252.000                                                               :Total Depth Logger
 BS.IN        17.500                                                                 :Bit Size
 R1.                                                                                 :REMARK 1
 R2.                                                                                 :REMARK 2
 R3.                                                                                 :REMARK 3
 R4.                                                                                 :REMARK 4
 R5.                                                                                 :REMARK 5
 R6.                                                                                 :REMARK 6
 R7.                                                                                 :REMARK 7
 R8.                                                                                 :REMARK 8
 R9.                                                                                 :REMARK 9
 R10.                                                                                :REMARK 10
 DCS_CENTER.  Denver                                                                 :Schlumberger DCS Center
 LOG_ANALYST. Maxwell                                                                :Log Analyst Name
 ENG.         Yazan Alhabahbeh                                                       :Field Engineer Name
 GF_BASELINE. GF45                                                                   :GeoFrame Baseline
~Curve
#MNEM.UNIT                                                                           :DESCRIPTION
#----.----                                                                           :--------------------------------
 DEPT.F                                                                              :Depth Index
 GR.GAPI                                                                             : 1 Gamma Ray                                                                                 
 RHOZ.G/C3                                                                           : 2 HRDD Standard Resolution Formation Density                                                
 BS.IN                                                                               : 3 Bit Size                                                                                  
 P1AZ.DEG                                                                            : 4 Pad 1 Azimuth in Horizontal Plane (0 = True North)                                        
 SDEVM.DEG                                                                           : 5 Memorized Sonde Deviation                                                                 
 HAZIM.DEG                                                                           : 6 Memorized Hole Azimuth Relative to True North                                             
 RB.DEG                                                                              : 7 Relative Bearing                                                                          
 DEVI.DEG                                                                            : 8 Hole Deviation                                                                            
 HD1_PPC1.IN                                                                         : 9 PPC1 Hole Diameter 1                                                                      
 HD1_PPC2.IN                                                                         :10 PPC2 Hole Diameter 1                                                                      
 HD2_PPC1.IN                                                                         :11 PPC1 Hole Diameter 2                                                                      
 HD2_PPC2.IN                                                                         :12 PPC2 Hole Diameter 2                                                                      
 TENS.LBS                                                                            :13 Cable Tension                                                                             
 HDAR.IN                                                                             :14 Hole Diameter from Area                                                                   
 MINXENE_OVERALL.                                                                    :15 Overall estimate of minimum cross energy                                                  
 MAXXENE_OVERALL.                                                                    :16 Overall estimate of maximum cross energy                                                  
 FSH_AZIM_OVERALL_FILT.DEG                                                           :17 Overall estimate of fast shear azimuth filtered                                           
 FSH_AZIM_OVERALL.DEG                                                                :18 Overall estimate of fast shear azimuth                                                    
 FSH_AZIM_ERR.DEG                                                                    :19 Fast shear azimuth error                                                                  
 DTSM_SLOW.US/F                                                                      :20 Shear Slowness of Slow Shear Waves                                                        
 DTSM_FAST.US/F                                                                      :21 Shear Slowness of Fast Shear Waves                                                        
 DTCO.US/F                                                                           :22 Delta-T Compressional                                                                     
 SLOANI.                                                                             :23 Slowness based anisotropy                                                                 
 TIMANI.                                                                             :24 Time based anisotropy                                                                     
 TWE.US                                                                              :25 Time window end                                                                           
 TWB.US                                                                              :26 Time window begin                                                                         
 FLAG.                                                                               :27 General Indicator Flag                                                                    
 SPHI.ft3/ft3                                                                        :28 Sonic Porosity                                                                            
~Ascii   DEPT            GR          RHOZ            BS          P1AZ         SDEVM         HAZIM            RB          DEVI      HD1_PPC1      HD1_PPC2      HD2_PPC1      HD2_PPC2          TENS          HDAR  MINXENE_OVER  MAXXENE_OVER  FSH_AZIM_OVE  FSH_AZIM_OVE  FSH_AZIM_ERR     DTSM_SLOW     DTSM_FAST          DTCO        SLOANI        TIMANI           TWE           TWB          FLAG          SPHI
# ...
    3590.00000      32.74033       2.71178      17.50000     269.10657       1.64130     282.17609     346.93567       1.56176      17.68908      17.95716      17.76983      18.23946    2528.25000      17.90260       0.27779       2.29085    -999.25000     -89.45943       3.52522      93.74175      93.48208      55.83919       0.27739       0.90875    5843.14160    2843.14160    -999.25000       0.05893
    3589.50000      34.96449       2.68740      17.50000     268.94302       1.63558     282.27338     346.67487       1.55463      17.77587      18.00514      17.76624      18.28008    2501.75000      17.97882       0.27217       2.30903    -999.25000      -0.28981       3.88775      96.52222      96.67698      56.60485      -0.16021       0.92279    5839.01318    2839.01318    -999.25000       0.06435
    3589.00000      37.84834       2.65846      17.50000     268.84937       1.63017     282.39340     346.46124       1.54865      17.74617      18.06745      17.76624      18.31438    2557.25000      17.94615       0.27434       2.26347    -999.25000      88.76900       4.63157      98.02447      98.63363      58.30234      -0.61951       0.91356    5832.30859    2832.30835    -999.25000       0.07634
    3588.50000      40.59469       2.64287      17.50000     268.75470       1.62540     282.53934     346.22070       1.54602      17.80591      18.03622      17.76624      18.33136    2602.50000      17.98971       0.27972       2.13409    -999.25000      87.87471       5.23003     100.58080     100.16942      59.14359       0.40984       0.88047    5826.71484    2826.71436    -999.25000       0.08229
    3588.00000      40.86590       2.64116      17.50000     268.51236       1.62163     282.73239     345.78543       1.54349      17.80591      17.97369      17.76624      18.30850    2504.33350      17.98971       0.28530       2.01529    -999.25000      86.97929       5.54361     102.62507     101.97729      60.95666       0.63320       0.85129    5824.18848    2824.18799    -999.25000       0.09510
    3587.50000      41.05013       2.64838      17.50000     268.47696       1.61915     282.96548     345.51700       1.54390      17.77587      17.97055      17.76624      18.29706    2568.00000      17.94615       0.28666       1.92609    -999.25000      85.94799       5.71524     103.41940     103.28436      60.06662       0.13067       0.82380    5824.94629    2824.94604    -999.25000       0.08881
    3587.00000      37.68249       2.65609      17.50000     267.64334       1.61818     283.21893     344.43030       1.54469      17.74844      17.78964      17.76983      18.29688    2589.25000      17.85904       0.28074       1.82320    -999.25000      84.93781       5.67451     103.85019     103.79315      58.42712       0.05494       0.78828    5828.26953    2828.26953    -999.25000       0.07722
    3586.50000      35.01879       2.66523      17.50000     267.84024       1.61884     283.51031     344.33588       1.54891      17.71877      17.75349      17.80086      18.34313    2478.75000      17.81548       0.27411       1.72965    -999.25000      84.14964       5.47054     102.94249     103.79315      57.58673      -0.82295       0.76374    5832.00293    2832.00244    -999.25000       0.07128
    3586.00000      29.27953       2.67308      17.50000     268.36948       1.62109     283.83002     344.54535       1.55587      17.71611      17.76883      17.76624      18.19942    2531.75000      17.77193       0.26709       1.65495    -999.25000      83.44498       5.13248     102.19955     103.79315      56.87617      -1.54724       0.75204    5835.20605    2835.20581    -999.25000       0.06626
    3585.50000      28.30322       2.68817      17.50000     268.99539       1.62476     284.13208     344.86911       1.56146      17.68908      17.72649      17.65191      17.94960    2474.75000      17.68481       0.25742       1.57829    -999.25000      82.39297       4.62484     102.51900     103.15279      58.22868      -0.61630       0.73887    5838.29004    2838.29004    -999.25000       0.07582
    3585.00000      26.22231       2.69983      17.50000     268.66177       1.62956     284.39737     344.27042       1.56948      17.77621      17.86326      17.67720      18.02573    2514.50000      17.82637       0.24809       1.50485    -999.25000      80.76899       4.16289     103.41608     103.64220      56.83873      -0.21841       0.72390    5840.44971    2840.44971    -999.25000       0.06600
    3584.50000      26.08587       2.69850      17.50000     267.43567       1.63511     284.61591     342.82635       1.57840      17.68641      17.68498      17.67720      18.15847    2539.25000      17.72837       0.23828       1.40341    -999.25000      79.61713       3.98458     103.27352     103.03827      54.37996       0.22806       0.69669    5841.36230    2841.36255    -999.25000       0.04862
    3584.00000      24.72069       2.69551      17.50000     266.55515       1.64102     284.77850     341.78363       1.58442      17.62662      17.65336      17.76624      18.22783    2464.75000      17.55414       0.22228       1.24371    -999.25000      79.55215       3.97618     103.22140     101.27847      56.11613       1.90018       0.65302    5841.44580    2841.44580    -999.25000       0.06089
    3583.50000      24.32759       2.68535      17.50000     266.03372       1.64686     284.88306     341.15790       1.59055      17.65634      17.82424      17.76624      18.22265    2473.75000      17.61948       0.19793       1.10402    -999.25000      80.30269       4.01709      99.93359     100.32791      56.82044      -0.39380       0.61448    5840.95752    2840.95752    -999.25000       0.06587
    3583.00000      26.56044       2.66800      17.50000     265.41937       1.65230     284.93719     340.48965       1.59505      17.68908      17.70548      17.76983      18.28561    2540.50000      17.61948       0.16980       1.03890    -999.25000      81.19469       4.27309      99.41875      99.68847      56.00794      -0.27093       0.58470    5841.03955    2841.03955    -999.25000       0.06013
    3582.50000      31.99672       2.65112      17.50000     265.58823       1.65708     284.94867     340.64703       1.59794      17.62626      18.23843      17.76624      18.37179    2495.25024      17.66303       0.14581       0.99992    -999.25000      81.81418       4.75722      99.72969      99.37342      52.92899       0.35787       0.53591    5842.29590    2842.29590    -999.25000       0.03837
    3582.00000      35.23233       2.63689      17.50000     265.53775       1.66102     284.94070     340.60458       1.59930      17.98531      18.26968      17.85732      18.37738    2488.99976      18.18571       0.12824       0.95905    -999.25000      82.65798       5.26347     100.30135      99.99028      51.94886       0.31062       0.47009    5843.57715    2843.57715       1.00000       0.03144
    3581.50000      36.29078       2.62387      17.50000     265.47940       1.66407     284.92023     340.56677       1.60015      17.98531      18.26561      17.88627      18.37196    2550.75000      18.20749       0.11712       0.91752    -999.25000      83.40765       5.65045     100.41004     100.43758      53.89844      -0.02742       0.40882    5843.49756    2843.49756    -999.25000       0.04522
    3581.00000      34.83384       2.62111      17.50000     265.50964       1.66629     284.91571     340.60153       1.59932      17.98531      18.25920      17.88627      18.38897    2509.25000      18.20749       0.11457       0.88100    -999.25000      83.78062       6.11971     100.03440      99.56422      56.67538       0.47113       0.34943    5842.62695    2842.62720    -999.25000       0.06484
    3580.50000      34.51500       2.62430      17.50000     265.36685       1.66777     284.92325     340.45126       1.59887      17.98531      18.29670      17.88627      18.38897    2523.75000      18.19660       0.11926       0.85004    -999.25000      84.38376       6.77994     101.24521      99.67023      57.23338       1.56781       0.28465    5840.84814    2840.84814    -999.25000       0.06879
