~VERSION
 VERS.        2.00                                                                   :CWLS LOG ASCII STANDARD
 WRAP.        NO                                                                     :NO WRAP PERFORMED
 PROD.        Schlumberger                                                           :LAS Producer
 CREA.        Tue May 19 09:28:59 2015                                               :LAS Creation Date and time
~Well
#MNEM.UNIT    VALUE                                                                   :DESCRIPTION
#----.----    ---------------                                                        :-------------------
 STRT.F       5210.000                                                               :START DEPTH
 STOP.F       350.000                                                                :STOP  DEPTH
 STEP.F       -0.500                                                                 :DEPTH STEP
 NULL.        -999.250                                                               :NULL VALUE
 COMP.        ADM Company                                                            :COMPANY NAME
 WELL.        CCS#2                                                                  :WELL NAME
 FLD.         WILDCAT                                                                :FIELD NAME
 API.         12-115-23713                                                           :API NUMBER
 CNTY.        MACON                                                                  :COUNTY
 STAT.        ILLINOIS                                                               :STATE
 CTRY.        US                                                                     :COUNTRY
 LOC.         Latitude: 39.885961                                                    :WELL SURFACE LOCATION LINE 1
 LOC2.        Longitude: -88.888044                                                  :WELL SURFACE LOCATION LINE 2
 LOC3.                                                                               :WELL SURFACE LOCATION LINE 3
 SECT.        32                                                                     :SECTION
 TOWN.        17N                                                                    :TOWNSHIP
 RANG.        3E                                                                     :RANGE
 LATI.        39deg 53' 9.46" N                                                      :Latitude
 LONG.        88deg 53' 16.958" W                                                    :Longitude
 DATE.        2014/05/03                                                             :LOGGING DATE
 SRVC.        Schlumberger                                                           :SERVICE COMPANY
~Parameter
#MNEM.UNIT    VALUE                                                                  :DESCRIPTION
#----.----    ---------------                                                        :-------------------
 APD.F        15.500                                                                 :Elevation of depth reference above permanent datum
 EDF.F        691.200                                                                :Elevation of Derrick Floor
 EGL.F        675.700                                                                :Elevation of Ground Level
 EKB.F        691.200                                                                :Elevation of Kelly Bushing
 EPD.F        675.700                                                                :Elevation of Permnaent Datum
 LMF.         KB                                                                     :Logging Measured From
 PDAT.        GL                                                                     :Permanent Datum
 TDD.F        5251.000                                                               :Total Depth Driller
 TDL.F        5252.000                                                               :Total Depth Logger
 BS.IN        17.500                                                                 :Bit Size
 R1.                                                                                 :REMARK 1
 R2.                                                                                 :REMARK 2
 R3.                                                                                 :REMARK 3
 R4.                                                                                 :REMARK 4
 R5.                                                                                 :REMARK 5
 R6.                                                                                 :REMARK 6
 R7.                                                                                 :REMARK 7
 R8.                                                                                 :REMARK 8
 R9.                                                                                 :REMARK 9
 R10.                                                                                :REMARK 10
 DCS_CENTER.  Denver                                                                 :Schlumberger DCS Center
 LOG_ANALYST. Maxwell                                                                :Log Analyst Name
 ENG.         Yazan Alhabahbeh                                                       :Field Engineer Name
 GF_BASELINE. GF45                                                                   :GeoFrame Baseline
~Curve
#MNEM.UNIT                                                                           :DESCRIPTION
#----.----                                                                           :--------------------------------
 DEPT.F                                                                              :Depth Index
 GR.GAPI                                                                             : 1 Gamma Ray                                                                                 
 RHOZ.G/C3                                                                           : 2 HRDD Standard Resolution Formation Density                                                
 BS.IN                                                                               : 3 Bit Size                                                                                  
 P1AZ.DEG                                                                            : 4 Pad 1 Azimuth in Horizontal Plane (0 = True North)                                        
 SDEVM.DEG                                                                           : 5 Memorized Sonde Deviation                                                                 
 HAZIM.DEG                                                                           : 6 Memorized Hole Azimuth Relative to True North                                             
 RB.DEG                                                                              : 7 Relative Bearing                                                                          
 DEVI.DEG                                                                            : 8 Hole Deviation                                                                            
 HD1_PPC1.IN                                                                         : 9 PPC1 Hole Diameter 1                                                                      
 HD1_PPC2.IN                                                                         :10 PPC2 Hole Diameter 1                                                                      
 HD2_PPC1.IN                                                                         :11 PPC1 Hole Diameter 2                                                                      
 HD2_PPC2.IN                                                                         :12 PPC2 Hole Diameter 2                                                                      
 TENS.LBS                                                                            :13 Cable Tension                                                                             
 HDAR.IN                                                                             :14 Hole Diameter from Area                                                                   
 MINXENE_OVERALL.                                                                    :15 Overall estimate of minimum cross energy                                                  
 MAXXENE_OVERALL.                                                                    :16 Overall estimate of maximum cross energy                                                  
 FSH_AZIM_OVERALL_FILT.DEG                                                           :17 Overall estimate of fast shear azimuth filtered                                           
 FSH_AZIM_OVERALL.DEG                                                                :18 Overall estimate of fast shear azimuth                                                    
 FSH_AZIM_ERR.DEG                                                                    :19 Fast shear azimuth error                                                                  
 DTSM_SLOW.US/F                                                                      :20 Shear Slowness of Slow Shear Waves                                                        
 DTSM_FAST.US/F                                                                      :21 Shear Slowness of Fast Shear Waves                                                        
 DTCO.US/F                                                                           :22 Delta-T Compressional                                                                     
 SLOANI.                                                                             :23 Slowness based anisotropy                                                                 
 TIMANI.                                                                             :24 Time based anisotropy                                                                     
 TWE.US                                                                              :25 Time window end                                                                           
 TWB.US                                                                              :26 Time window begin                                                                         
 FLAG.                                                                               :27 General Indicator Flag                                                                    
 SPHI.ft3/ft3                                                                        :28 Sonic Porosity                                                                            
~Ascii   DEPT            GR          RHOZ            BS          P1AZ         SDEVM         HAZIM            RB          DEVI      HD1_PPC1      HD1_PPC2      HD2_PPC1      HD2_PPC2          TENS          HDAR  MINXENE_OVER  MAXXENE_OVER  FSH_AZIM_OVE  FSH_AZIM_OVE  FSH_AZIM_ERR     DTSM_SLOW     DTSM_FAST          DTCO        SLOANI        TIMANI           TWE           TWB          FLAG          SPHI
# ...
    4890.00000      39.34077       2.84586      17.50000     331.14819       5.32097     335.04208     356.12283       4.71587      17.95927      16.33424      17.26435      17.11009    2988.25000      18.64306       0.50762       2.27174    -999.25000      50.54786       8.84784      81.42275      81.09383      47.48581       0.40479       1.00985    5644.26660    2644.26660    -999.25000      -0.00010
    4889.50000      40.95056       2.84420      17.50000     331.30823       5.31983     334.78259     356.54056       4.71314      17.92709      16.34925      17.26231      17.13831    2962.50000      18.66484       0.50376       2.35604    -999.25000      51.02662       8.43315      82.22853      82.01090      47.95486       0.26501       1.03798    5630.51270    2630.51270    -999.25000       0.00321
    4889.00000      42.08416       2.87236      17.50000     331.08276       5.31808     334.52298     356.57455       4.71117      17.95716      16.34925      17.26435      17.13831    2888.75024      18.57773       0.48946       2.45094    -999.25000      51.73702       7.57727      84.80853      86.17197      50.33626      -1.59485       1.05628    5616.74805    2616.74805    -999.25000       0.02004
    4888.50000      46.44459       2.86674      17.50000     330.81119       5.31594     334.26282     356.56320       4.70533      17.95927      16.34598      17.23528      17.10048    3009.50024      18.62128       0.46580       2.55794    -999.25000      52.62484       6.20822      88.68232      89.21172      50.00540      -0.59518       1.08322    5604.08398    2604.08398    -999.25000       0.01771
    4888.00000      54.53990       2.84954      17.50000     330.68777       5.31360     334.02191     356.68018       4.70199      17.92709      16.33479      17.26231      17.08618    2902.00000      18.66484       0.44660       2.56383    -999.25000      53.44426       5.57562      92.55611      91.81927      50.05238       0.79927       1.09755    5593.19727    2593.19727    -999.25000       0.01804
    4887.50000      62.44068       2.80841      17.50000     330.50507       5.31130     333.79572     356.72342       4.69673      17.92741      16.33806      17.23528      17.12635    2987.50000      18.66484       0.43007       2.48564      54.22046      54.22046       5.78059      96.77710      93.56362      52.47437       3.37655       1.09141    5583.65039    2583.65015    -999.25000       0.03515
    4887.00000      71.71369       2.75748      17.50000     330.29034       5.30924     333.58017     356.72427       4.69684      17.98916      16.34598      17.23528      17.08618    3042.75000      18.68662       0.40250       2.46868    -999.25000      54.99083       5.84213      94.81980      93.15482      56.59637       1.77150       1.09988    5576.17676    2576.17676    -999.25000       0.06429
    4886.50000      77.24351       2.69574      17.50000     329.97598       5.30758     333.39764     356.59299       4.69456      17.95896      16.34925      17.26027      17.15026    2969.25024      18.62128       0.36745       2.48815    -999.25000      55.55981       5.67208      92.22137      91.59496      59.95052       0.68157       1.11623    5571.10107    2571.10132    -999.25000       0.08799
    4886.00000      77.97637       2.64315      17.50000     329.51462       5.30647     333.22467     356.30582       4.69670      17.95684      16.34465      17.26027      17.13370    3003.50000      18.59951       0.33636       2.47846    -999.25000      56.09871       5.45289      91.55962      91.07952      58.61528       0.52573       1.12121    5568.12109    2568.12109    -999.25000       0.07855
    4885.50000      63.71861       2.64753      17.50000     328.87164       5.30599     333.07660     355.81302       4.69675      17.95684      16.35833      17.26027      17.16207    2994.50000      18.57773       0.30999       2.46853    -999.25000      56.75908       5.30163      91.29920      89.59714      52.68761       1.88181       1.11987    5566.47363    2566.47363    -999.25000       0.03666
    4885.00000      45.85751       2.70908      17.50000     328.67548       5.30617     332.94348     355.75021       4.69613      17.95684      16.34925      17.26027      17.17402    3019.50024      18.58862       0.28188       2.50310    -999.25000      57.38442       5.13085      85.97955      84.48061      48.96106       1.75870       1.12518    5565.29785    2565.29785    -999.25000       0.01033
    4884.50000      31.79625       2.78946      17.50000     328.48514       5.30699     332.82745     355.67621       4.69358      17.95684      16.33347      17.28935      17.18131    2999.50024      18.62128       0.25523       2.52593    -999.25000      57.93148       4.86027      83.12975      83.44760      46.76658      -0.38162       1.12741    5562.71729    2562.71729    -999.25000      -0.00518
    4884.00000      27.50695       2.84438      17.50000     328.30460       5.30837     332.72610     355.59738       4.68713      17.95684      16.34925      17.26027      17.15026    3044.75000      18.62128       0.23660       2.53973    -999.25000      58.36155       4.59355      82.47684      81.32841      46.09591       1.40219       1.12863    5557.65088    2557.65088    -999.25000      -0.00992
    4883.50000      25.72743       2.84751      17.50000     328.06198       5.31019     332.62421     355.45728       4.68549      18.07637      16.34792      17.26435      17.13831    3034.00000      18.65395       0.22578       2.64592    -999.25000      58.68020       4.40313      81.35329      80.73107      46.46583       0.76778       1.14724    5551.02246    2551.02295    -999.25000      -0.00731
    4883.00000      24.57473       2.83220      17.50000     328.04758       5.31232     332.52454     355.54221       4.69051      18.16559      16.34598      17.28935      17.11468    3078.33350      18.62128       0.21919       2.81755    -999.25000      58.87865       4.20540      79.39494      80.39082      45.23766      -1.24652       1.07481    5543.93359    2543.93408    -999.25000      -0.01599
    4882.50000      26.45923       2.82354      17.50000     328.22281       5.31460     332.42792     355.81290       4.70444      18.16559      16.33479      17.28935      17.15759    3045.75000      18.57773       0.21509       2.96476    -999.25000      59.01080       3.94454      81.20303      81.66390      44.93516      -0.56595       0.99688    5536.82227    2536.82178    -999.25000      -0.01813
    4882.00000      30.26979       2.82415      17.50000     328.49426       5.31686     332.33994     356.17084       4.71141      18.10786      16.32306      17.28935      17.19295    3033.66675      18.62128       0.21185       3.10453    -999.25000      59.13003       3.61490      82.96896      82.60239      45.64660       0.44278       1.01990    5529.56934    2529.56934    -999.25000      -0.01310
    4881.50000      33.18621       2.81570      17.50000     328.54025       5.31896     332.24829     356.30792       4.71264      18.10601      16.33597      17.26027      17.24488    2945.75000      18.54506       0.20660       3.29008    -999.25000      59.31433       3.26794      82.85538      82.58762      46.39521       0.32369       1.05613    5522.41016    2522.40991    -999.25000      -0.00781
    4881.00000      32.01141       2.81192      17.50000     328.20413       5.32072     332.16257     356.05856       4.71547      18.10582      16.34925      17.28935      17.29258    3062.50000      18.51239       0.19834       3.43726    -999.25000      59.55899       2.91750      79.89626      81.26353      46.77166      -1.69679       1.09073    5516.07324    2516.07349    -999.25000      -0.00515
    4880.50000      32.16271       2.80135      17.50000     328.15030       5.32201     332.08945     356.07779       4.71630      18.13571      16.33347      17.28935      17.22858    2948.25000      18.49061       0.18996       3.48344    -999.25000      59.74048       2.58453      79.26465      79.22445      47.34201       0.05073       1.10621    5510.89355    2510.89380    -999.25000      -0.00112
