~VERSION
 VERS.        2.00                                                                   :CWLS LOG ASCII STANDARD
 WRAP.        NO                                                                     :NO WRAP PERFORMED
 PROD.        Schlumberger                                                           :LAS Producer
 CREA.        Tue May 19 09:28:59 2015                                               :LAS Creation Date and time
~Well
#MNEM.UNIT    VALUE                                                                   :DESCRIPTION
#----.----    ---------------                                                        :-------------------
 STRT.F       5210.000                                                               :START DEPTH
 STOP.F       350.000                                                                :STOP  DEPTH
 STEP.F       -0.500                                                                 :DEPTH STEP
 NULL.        -999.250                                                               :NULL VALUE
 COMP.        ADM Company                                                            :COMPANY NAME
 WELL.        CCS#2                                                                  :WELL NAME
 FLD.         WILDCAT                                                                :FIELD NAME
 API.         12-115-23713                                                           :API NUMBER
 CNTY.        MACON                                                                  :COUNTY
 STAT.        ILLINOIS                                                               :STATE
 CTRY.        US                                                                     :COUNTRY
 LOC.         Latitude: 39.885961                                                    :WELL SURFACE LOCATION LINE 1
 LOC2.        Longitude: -88.888044                                                  :WELL SURFACE LOCATION LINE 2
 LOC3.                                                                               :WELL SURFACE LOCATION LINE 3
 SECT.        32                                                                     :SECTION
 TOWN.        17N                                                                    :TOWNSHIP
 RANG.        3E                                                                     :RANGE
 LATI.        39deg 53' 9.46" N                                                      :Latitude
 LONG.        88deg 53' 16.958" W                                                    :Longitude
 DATE.        2014/05/03                                                             :LOGGING DATE
 SRVC.        Schlumberger                                                           :SERVICE COMPANY
~Parameter
#MNEM.UNIT    VALUE                                                                  :DESCRIPTION
#----.----    ---------------                                                        :-------------------
 APD.F        15.500                                                                 :Elevation of depth reference above permanent datum
 EDF.F        691.200                                                                :Elevation of Derrick Floor
 EGL.F        675.700                                                                :Elevation of Ground Level
 EKB.F        691.200                                                                :Elevation of Kelly Bushing
 EPD.F        675.700                                                                :Elevation of Permnaent Datum
 LMF.         KB                                                                     :Logging Measured From
 PDAT.        GL                                                                     :Permanent Datum
 TDD.F        5251.000                                                               :Total Depth Driller
 TDL.F        5252.000                                                               :Total Depth Logger
 BS.IN        17.500                                                                 :Bit Size
 R1.                                                                                 :REMARK 1
 R2.                                                                                 :REMARK 2
 R3.                                                                                 :REMARK 3
 R4.                                                                                 :REMARK 4
 R5.                                                                                 :REMARK 5
 R6.                                                                                 :REMARK 6
 R7.                                                                                 :REMARK 7
 R8.                                                                                 :REMARK 8
 R9.                                                                                 :REMARK 9
 R10.                                                                                :REMARK 10
 DCS_CENTER.  Denver                                                                 :Schlumberger DCS Center
 LOG_ANALYST. Maxwell                                                                :Log Analyst Name
 ENG.         Yazan Alhabahbeh                                                       :Field Engineer Name
 GF_BASELINE. GF45                                                                   :GeoFrame Baseline
~Curve
#MNEM.UNIT                                                                           :DESCRIPTION
#----.----                                                                           :--------------------------------
 DEPT.F                                                                              :Depth Index
 GR.GAPI                                                                             : 1 Gamma Ray                                                                                 
 RHOZ.G/C3                                                                           : 2 HRDD Standard Resolution Formation Density                                                
 BS.IN                                                                               : 3 Bit Size                                                                                  
 P1AZ.DEG                                                                            : 4 Pad 1 Azimuth in Horizontal Plane (0 = True North)                                        
 SDEVM.DEG                                                                           : 5 Memorized Sonde Deviation                                                                 
 HAZIM.DEG                                                                           : 6 Memorized Hole Azimuth Relative to True North                                             
 RB.DEG                                                                              : 7 Relative Bearing                                                                          
 DEVI.DEG                                                                            : 8 Hole Deviation                                                                            
 HD1_PPC1.IN                                                                         : 9 PPC1 Hole Diameter 1                                                                      
 HD1_PPC2.IN                                                                         :10 PPC2 Hole Diameter 1                                                                      
 HD2_PPC1.IN                                                                         :11 PPC1 Hole Diameter 2                                                                      
 HD2_PPC2.IN                                                                         :12 PPC2 Hole Diameter 2                                                                      
 TENS.LBS                                                                            :13 Cable Tension                                                                             
 HDAR.IN                                                                             :14 Hole Diameter from Area                                                                   
 MINXENE_OVERALL.                                                                    :15 Overall estimate of minimum cross energy                                                  
 MAXXENE_OVERALL.                                                                    :16 Overall estimate of maximum cross energy                                                  
 FSH_AZIM_OVERALL_FILT.DEG                                                           :17 Overall estimate of fast shear azimuth filtered                                           
 FSH_AZIM_OVERALL.DEG                                                                :18 Overall estimate of fast shear azimuth                                                    
 FSH_AZIM_ERR.DEG                                                                    :19 Fast shear azimuth error                                                                  
 DTSM_SLOW.US/F                                                                      :20 Shear Slowness of Slow Shear Waves                                                        
 DTSM_FAST.US/F                                                                      :21 Shear Slowness of Fast Shear Waves                                                        
 DTCO.US/F                                                                           :22 Delta-T Compressional                                                                     
 SLOANI.                                                                             :23 Slowness based anisotropy                                                                 
 TIMANI.                                                                             :24 Time based anisotropy                                                                     
 TWE.US                                                                              :25 Time window end                                                                           
 TWB.US                                                                              :26 Time window begin                                                                         
 FLAG.                                                                               :27 General Indicator Flag                                                                    
 SPHI.ft3/ft3                                                                        :28 Sonic Porosity                                                                            
~Ascii   DEPT            GR          RHOZ            BS          P1AZ         SDEVM         HAZIM            RB          DEVI      HD1_PPC1      HD1_PPC2      HD2_PPC1      HD2_PPC2          TENS          HDAR  MINXENE_OVER  MAXXENE_OVER  FSH_AZIM_OVE  FSH_AZIM_OVE  FSH_AZIM_ERR     DTSM_SLOW     DTSM_FAST          DTCO        SLOANI        TIMANI           TWE           TWB          FLAG          SPHI
# ...
     360.00000      45.10895       2.47316      17.50000      95.50471       0.42952     356.60602      98.89894       0.42478      17.86656      17.90513      17.95381      18.11872    1599.66663      17.63037      15.63734      23.87315    -999.25000      51.68735      18.20872     177.63454     177.63454      82.86709       0.00000       0.05831    6799.84375    3799.84375    -999.25000       0.24994
     359.50000      32.79593       2.58895      17.50000      95.43361       0.42894     357.88971      97.54412       0.42520      17.86656      17.91551      17.95381      18.14185    1554.50000      17.61948      18.21943      25.57679    -999.25000      50.96696      18.34929     152.54247     152.54247      73.32829       0.00000       0.17683    6780.20459    3780.20459    -999.25000       0.18253
     359.00000      28.23736       2.66457      17.50000      95.27805       0.42752     359.37601      95.90221       0.42624      17.86656      17.96787      17.92283      18.15335    1595.66663      17.64126      21.06437      26.24673    -999.25000      47.55547      20.47928     134.31337     134.31337      63.78949       0.00000       0.35142    6744.50293    3744.50244    -999.25000       0.11512
     358.50000      28.09381       2.69065      17.50000      95.07231       0.42469       1.15600      93.91642       0.42649      17.86656      17.99912      17.95381      18.21118    1594.50000      17.65215      22.60468      26.29734    -999.25000      40.66467      22.00751     129.26463     129.26463      54.25070       0.00000       0.53875    6706.41406    3706.41406    -999.25000       0.04771
     358.00000      27.98763       2.70397      17.50000      94.87720       0.41974       3.34952      91.52772       0.42704      17.86656      18.04087      17.92283      18.25123    1549.00000      17.70659      22.64161      26.00604    -999.25000      34.85225      21.53266     135.91432     135.91432      54.91193       0.00000       0.70218    6687.75928    3687.75928    -999.25000       0.05238
     357.50000      27.11308       2.69330      17.50000      94.78480       0.41196       6.11193      88.67284       0.42088      17.92620      17.96787      17.95381      18.19957    1646.33337      17.70659      21.22442      24.78043    -999.25000      28.30479      20.25404     134.65169     134.65169      57.88742       0.00000       0.78083    6678.54395    3678.54346    -999.25000       0.07341
     357.00000      24.51482       2.69835      17.50000      94.76331       0.40086       9.63910      85.12409       0.41092      17.95622      17.97839      17.95381      18.21665    1535.75000      17.68481      18.46654      23.29184    -999.25000      18.58872      18.21124     132.06090     132.06090      58.34459       0.00000       0.83854    6671.67041    3671.67041    -999.25000       0.07664
     356.50000      25.21125       2.70033      17.50000      94.76724       0.38638      14.17154      80.59549       0.39857      17.89660      17.99912      17.95381      18.21118    1494.00000      17.72837      14.87272      22.28719    -999.25000      12.31280      15.64197     127.73167     127.73167      58.27710       0.00000       0.96994    6669.51563    3669.51587    -999.25000       0.07616
     356.00000      27.07062       2.69753      17.50000      95.08828       0.36925      19.99604      75.09194       0.37907      17.92620      17.99912      17.95381      18.20571    1526.00000      17.71748      12.44942      21.99815    -999.25000      10.20214      13.42434     124.58823     124.58823      57.90060       0.00000       1.18052    6677.23438    3677.23413    -999.25000       0.07350
     355.50000      28.19231       2.67912      17.50000      95.82968       0.35122      27.41157      68.41774       0.35704      17.89660      17.97839      17.95381      18.18795    1620.66675      17.72837      11.48906      22.21902    -999.25000       9.74640      11.89001     121.55817     121.55817      57.54149       0.00000       1.32034    6697.39551    3697.39526    -999.25000       0.07096
     355.00000      26.67955       2.65535      17.50000      97.52872       0.33521      36.60910      60.91920       0.34187      17.86656      18.07224      17.95381      18.23412    1632.00012      17.70659      10.42930      21.71799    -999.25000       9.39296      11.28404     118.52812     118.52812      56.89737       0.00000       1.30938    6725.82227    3725.82227    -999.25000       0.06641
     354.50000      24.36051       2.63620      17.50000     101.47636       0.32504      47.49028      53.98565       0.34500      17.92662      18.12427      17.98478      18.30312    1628.00012      17.75015       8.82953      20.27490    -999.25000       8.84119      11.19994     113.09578     113.09578      56.38198       0.00000       1.19251    6755.56738    3755.56738    -999.25000       0.06277
     354.00000      25.25765       2.64625      17.50000     112.49851       0.32431      59.39451      53.10356       0.36260      17.98580      18.17206      18.01370      18.31455    1608.00000      17.81548       6.87252      17.90834    -999.25000       7.52953      10.78054     110.75844     110.75844      56.04693       0.00000       1.06219    6781.21777    3781.21777    -999.25000       0.06040
     353.50000      26.29193       2.67951      17.50000     135.04198       0.33493      71.55887      63.48272       0.39390      17.98580      18.23893      18.04262      18.36056    1508.00000      17.81548       5.25425      15.60294    -999.25000       5.81383      10.36994     110.41090     110.41090      55.78791       0.00000       1.01544    6800.44336    3800.44336    -999.25000       0.05857
     353.00000      27.53835       2.73552      17.50000     171.78764       0.35612      83.74204      88.04556       0.43123      18.01582      18.19719      18.07358      18.34914    1540.66675      18.02238       4.23135      13.70898    -999.25000       4.08808      10.21894     111.85394     111.85394      55.85949       0.00000       1.00093    6813.60645    3813.60645    -999.25000       0.05908
     352.50000      27.68866       2.79875      17.50000     184.36070       0.38490      94.74520      89.61549       0.46706      18.34293      18.60076      18.49407      19.17817    1487.25000      18.01149       3.68992      12.16689    -999.25000       2.43693      10.37550     118.09505     118.09505      56.34982       0.00000       0.92786    6818.73926    3818.73950       1.00000       0.06254
     352.00000      29.04784       2.85450      17.50000     170.97481       0.41751     103.72348      67.25079       0.50120      25.32824      18.59054      25.62968      19.16685    1517.50000      17.97882       3.91819      11.55304    -999.25000       1.09774      11.42156     124.52234     124.52234      57.35440       0.00000       0.84692    6818.73926    3818.73950       1.00000       0.06964
     351.50000      30.79134       2.76735      17.50000     152.35152       0.45055     112.06090      40.28975       0.52611      25.83591      18.60093      25.85699      19.16685    1520.25000      23.58676       4.56606      11.20535    -999.25000      -0.35261      13.07594     138.84824     138.84824      59.98269       0.00000       0.74827    6818.73926    3818.73950       1.00000       0.08822
     351.00000      33.46288       2.53335      17.50000     170.78392       0.48152     119.62923      51.15371       0.54836      26.14513      18.60076      26.39236      19.16685    1510.25000      23.58676       5.38301      10.94811    -999.25000      -1.28765      14.44174     161.90268     161.90268      69.47664       0.00000       0.67695    6818.73926    3818.73950       1.00000       0.15531
     350.50000      36.25293       2.26354      17.50000     189.07608       0.50893     126.04824      63.02692       0.56692      26.78882      18.60076      26.90042      19.16685    1516.25000      23.58676       6.96921      10.79984    -999.25000      -0.95882      16.57634     185.20447     185.20447      78.20711       0.00000       0.59287    6818.73926    3818.73950       1.00000       0.21701
