~VERSION
 VERS.        2.00                                                                   :CWLS LOG ASCII STANDARD
 WRAP.        NO                                                                     :NO WRAP PERFORMED
 PROD.        Schlumberger                                                           :LAS Producer
 CREA.        Tue May 19 09:28:59 2015                                               :LAS Creation Date and time
~Well
#MNEM.UNIT    VALUE                                                                   :DESCRIPTION
#----.----    ---------------                                                        :-------------------
 STRT.F       5210.000                                                               :START DEPTH
 STOP.F       350.000                                                                :STOP  DEPTH
 STEP.F       -0.500                                                                 :DEPTH STEP
 NULL.        -999.250                                                               :NULL VALUE
 COMP.        ADM Company                                                            :COMPANY NAME
 WELL.        CCS#2                                                                  :WELL NAME
 FLD.         WILDCAT                                                                :FIELD NAME
 API.         12-115-23713                                                           :API NUMBER
 CNTY.        MACON                                                                  :COUNTY
 STAT.        ILLINOIS                                                               :STATE
 CTRY.        US                                                                     :COUNTRY
 LOC.         Latitude: 39.885961                                                    :WELL SURFACE LOCATION LINE 1
 LOC2.        Longitude: -88.888044                                                  :WELL SURFACE LOCATION LINE 2
 LOC3.                                                                               :WELL SURFACE LOCATION LINE 3
 SECT.        32                                                                     :SECTION
 TOWN.        17N                                                                    :TOWNSHIP
 RANG.        3E                                                                     :RANGE
 LATI.        39deg 53' 9.46" N                                                      :Latitude
 LONG.        88deg 53' 16.958" W                                                    :Longitude
 DATE.        2014/05/03                                                             :LOGGING DATE
 SRVC.        Schlumberger                                                           :SERVICE COMPANY
~Parameter
#MNEM.UNIT    VALUE                                                                  :DESCRIPTION
#----.----    ---------------                                                        :-------------------
 APD.F        15.500                                                                 :Elevation of depth reference above permanent datum
 EDF.F        691.200                                                                :Elevation of Derrick Floor
 EGL.F        675.700                                                                :Elevation of Ground Level
 EKB.F        691.200                                                                :Elevation of Kelly Bushing
 EPD.F        675.700                                                                :Elevation of Permnaent Datum
 LMF.         KB                                                                     :Logging Measured From
 PDAT.        GL                                                                     :Permanent Datum
 TDD.F        5251.000                                                               :Total Depth Driller
 TDL.F        5252.000                                                               :Total Depth Logger
 BS.IN        17.500                                                                 :Bit Size
 R1.                                                                                 :REMARK 1
 R2.                                                                                 :REMARK 2
 R3.                                                                                 :REMARK 3
 R4.                                                                                 :REMARK 4
 R5.                                                                                 :REMARK 5
 R6.                                                                                 :REMARK 6
 R7.                                                                                 :REMARK 7
 R8.                                                                                 :REMARK 8
 R9.                                                                                 :REMARK 9
 R10.                                                                                :REMARK 10
 DCS_CENTER.  Denver                                                                 :Schlumberger DCS Center
 LOG_ANALYST. Maxwell                                                                :Log Analyst Name
 ENG.         Yazan Alhabahbeh                                                       :Field Engineer Name
 GF_BASELINE. GF45                                                                   :GeoFrame Baseline
~Curve
#MNEM.UNIT                                                                           :DESCRIPTION
#----.----                                                                           :--------------------------------
 DEPT.F                                                                              :Depth Index
 GR.GAPI                                                                             : 1 Gamma Ray                                                                                 
 RHOZ.G/C3                                                                           : 2 HRDD Standard Resolution Formation Density                                                
 BS.IN                                                                               : 3 Bit Size                                                                                  
 P1AZ.DEG                                                                            : 4 Pad 1 Azimuth in Horizontal Plane (0 = True North)                                        
 SDEVM.DEG                                                                           : 5 Memorized Sonde Deviation                                                                 
 HAZIM.DEG                                                                           : 6 Memorized Hole Azimuth Relative to True North                                             
 RB.DEG                                                                              : 7 Relative Bearing                                                                          
 DEVI.DEG                                                                            : 8 Hole Deviation                                                                            
 HD1_PPC1.IN                                                                         : 9 PPC1 Hole Diameter 1                                                                      
 HD1_PPC2.IN                                                                         :10 PPC2 Hole Diameter 1                                                                      
 HD2_PPC1.IN                                                                         :11 PPC1 Hole Diameter 2                                                                      
 HD2_PPC2.IN                                                                         :12 PPC2 Hole Diameter 2                                                                      
 TENS.LBS                                                                            :13 Cable Tension                                                                             
 HDAR.IN                                                                             :14 Hole Diameter from Area                                                                   
 MINXENE_OVERALL.                                                                    :15 Overall estimate of minimum cross energy                                                  
 MAXXENE_OVERALL.                                                                    :16 Overall estimate of maximum cross energy                                                  
 FSH_AZIM_OVERALL_FILT.DEG                                                           :17 Overall estimate of fast shear azimuth filtered                                           
 FSH_AZIM_OVERALL.DEG                                                                :18 Overall estimate of fast shear azimuth                                                    
 FSH_AZIM_ERR.DEG                                                                    :19 Fast shear azimuth error                                                                  
 DTSM_SLOW.US/F                                                                      :20 Shear Slowness of Slow Shear Waves                                                        
 DTSM_FAST.US/F                                                                      :21 Shear Slowness of Fast Shear Waves                                                        
 DTCO.US/F                                                                           :22 Delta-T Compressional                                                                     
 SLOANI.                                                                             :23 Slowness based anisotropy                                                                 
 TIMANI.                                                                             :24 Time based anisotropy                                                                     
 TWE.US                                                                              :25 Time window end                                                                           
 TWB.US                                                                              :26 Time window begin                                                                         
 FLAG.                                                                               :27 General Indicator Flag                                                                    
 SPHI.ft3/ft3                                                                        :28 Sonic Porosity                                                                            
~Ascii   DEPT            GR          RHOZ            BS          P1AZ         SDEVM         HAZIM            RB          DEVI      HD1_PPC1      HD1_PPC2      HD2_PPC1      HD2_PPC2          TENS          HDAR  MINXENE_OVER  MAXXENE_OVER  FSH_AZIM_OVE  FSH_AZIM_OVE  FSH_AZIM_ERR     DTSM_SLOW     DTSM_FAST          DTCO        SLOANI        TIMANI           TWE           TWB          FLAG          SPHI
# ...
    3270.00000      26.28843       2.38715      17.50000     272.76111       0.18419     203.66786      69.09315       0.17059      18.19274      18.27574      17.32452      17.78649    2436.50000      18.14216       0.51048       3.78020    -999.25000      -6.91893       3.50043     137.91307     138.07440      76.91605      -0.11691       1.02891    6144.46973    3144.46973    -999.25000       0.20789
    3269.50000      27.36764       2.39841      17.50000     272.89200       0.17785     203.24895      69.64298       0.16386      18.25182      18.38962      17.32049      17.75148    2399.00000      18.14216       0.43985       3.63051    -999.25000      -7.29344       3.41718     133.67302     132.84576      74.69089       0.62079       1.01577    6134.68506    3134.68506    -999.25000       0.19216
    3269.00000      30.56090       2.42995      17.50000     272.97928       0.17169     202.59814      70.38107       0.15724      18.25137      18.41034      17.37864      17.90952    2400.66675      18.16394       0.38243       3.60073    -999.25000      -7.52893       3.30253     126.63448     126.18713      71.08805       0.35388       1.02045    6131.07861    3131.07861    -999.25000       0.16670
    3268.50000      34.92186       2.46083      17.50000     273.40341       0.16589     201.67284      71.73051       0.15005      18.25182      18.37283      17.37864      17.87971    2418.33325      18.18571       0.34766       3.74144    -999.25000      -7.88991       3.44113     115.29446     116.52975      66.96173      -1.06571       1.05147    6133.45508    3133.45508    -999.25000       0.13754
    3268.00000      41.93462       2.50291      17.50000     273.56152       0.16065     200.43210      73.12936       0.14628      18.22225      18.43831      17.40976      17.94976    2385.50000      18.22927       0.32636       3.84795    -999.25000      -8.32781       3.60445     109.66952     110.50426      65.00359      -0.75826       1.08372    6138.02734    3138.02783    -999.25000       0.12370
    3267.50000      43.86744       2.54830      17.50000     273.50168       0.15623     198.84279      74.65884       0.14210      18.34296      18.56579      17.49896      18.00783    2416.66675      18.29461       0.32660       3.81254    -999.25000      -8.10364       3.32600     111.02476     111.75356      63.46063      -0.65429       1.09106    6141.43262    3141.43237    -999.25000       0.11280
    3267.00000      45.19887       2.59209      17.50000     273.43320       0.15285     196.88547      76.54769       0.14095      18.40076      18.56579      17.59188      18.14698    2420.75000      18.35994       0.31816       3.88180    -999.25000      -7.58992       3.11012     113.50316     112.63157      64.13235       0.77086       1.11244    6141.93066    3141.93066    -999.25000       0.11754
    3266.50000      40.12922       2.59511      17.50000     273.44876       0.15074     194.56718      78.88155       0.14083      18.37084      18.55537      17.65027      18.12383    2444.66675      18.35994       0.29747       3.99412    -999.25000      -7.51500       3.12699     115.18053     115.66917      65.00135      -0.42335       1.14127    6138.70410    3138.70386    -999.25000       0.12368
    3266.00000      37.08884       2.57795      17.50000     273.58755       0.15004     191.92781      81.65970       0.14113      18.40037      18.51404      17.61920      18.01952    2432.66675      18.44706       0.28472       3.95278    -999.25000      -7.63727       3.08851     117.84722     118.86433      64.46556      -0.85936       1.14180    6132.72266    3132.72217    -999.25000       0.11990
    3265.50000      35.78294       2.54920      17.50000     273.56628       0.15085     189.04271      84.52356       0.14685      18.37286      18.53471      17.65397      18.14122    2440.33325      18.38172       0.27563       3.86839    -999.25000      -7.81861       2.94389     121.47878     122.65520      65.41492      -0.96374       1.12939    6127.76758    3127.76758    -999.25000       0.12661
    3265.00000      37.88546       2.51846      17.50000     273.53268       0.15319     186.01422      87.51845       0.15186      18.40076      18.50741      17.56092      18.00252    2436.25024      18.31639       0.26241       3.86049    -999.25000      -7.96989       2.82083     125.52245     126.43429      68.64189      -0.72381       1.12976    6126.32422    3126.32471    -999.25000       0.14941
    3264.50000      39.64261       2.46858      17.50000     273.61905       0.15696     182.95567      90.66338       0.15921      18.40037      18.51422      17.53006      17.97287    2440.66675      18.32727       0.24622       3.93731    -999.25000      -7.89521       2.72686     129.00401     128.79327      72.80075       0.16349       1.15183    6128.40820    3128.40869    -999.25000       0.17880
    3264.00000      40.70946       2.44496      17.50000     273.84644       0.16201     179.97244      93.87401       0.16840      18.40037      18.55537      17.59222      18.14698    2431.25000      18.20749       0.24209       4.02654    -999.25000      -7.72960       2.58800     130.21442     128.50417      73.25700       1.32209       1.17445    6133.35547    3133.35547    -999.25000       0.18203
    3263.50000      43.47239       2.44854      17.50000     273.64014       0.16813     177.14784      96.49232       0.17569      18.40237      18.57621      17.65397      18.13533    2398.50000      18.27283       0.24865       4.12659    -999.25000      -7.76543       2.71496     127.51545     125.16161      70.61785       1.86312       1.19238    6141.23047    3141.23071    -999.25000       0.16338
    3263.00000      45.24283       2.50206      17.50000     273.82404       0.17506     174.53777      99.28632       0.18519      18.46178      18.56579      17.65397      18.20489    2424.00000      18.44706       0.25240       4.21765      -7.69020      -7.69020       2.76310     123.58375     120.33013      68.16740       2.66784       1.20821    6151.30176    3151.30176    -999.25000       0.14606
    3262.50000      45.50137       2.51233      17.50000     273.75238       0.18257     172.17024     101.58218       0.19444      18.51928      18.57621      17.71035      18.29706    2376.00000      18.49061       0.26691       4.16813    -999.25000      -7.48111       2.67272     121.06828     120.64365      67.17384       0.35136       1.19879    6161.11230    3161.11182    -999.25000       0.13904
    3262.00000      41.92142       2.54234      17.50000     273.68347       0.19041     170.05099     103.63255       0.20202      18.51928      18.55933      17.73934      18.27400    2409.00000      18.55595       0.28872       4.09289    -999.25000      -7.54933       2.73095     120.38622     119.88708      66.64977       0.41548       1.18165    6169.50488    3169.50439    -999.25000       0.13533
    3261.50000      39.79723       2.54237      17.50000     273.78079       0.19837     168.16841     105.61248       0.21009      18.54952      18.57621      17.74296      18.23946    2413.66675      18.59951       0.29916       4.06480    -999.25000      -7.68083       2.75993     119.88442     117.31219      66.01073       2.16886       1.17395    6175.80957    3175.80933    -999.25000       0.13082
    3261.00000      36.77649       2.56902      17.50000     273.83047       0.20628     166.50073     107.32984       0.21750      18.54910      18.57621      17.71399      18.27400    2407.33350      18.62128       0.30733       4.01323    -999.25000      -7.82749       2.84178     119.56293     117.34525      65.33533       1.87219       1.16197    6179.91455    3179.91455    -999.25000       0.12604
    3260.50000      36.50068       2.58076      17.50000     273.59457       0.21401     165.01950     108.57520       0.22541      18.60817      18.57621      17.74140      18.28281    2416.33350      18.64306       0.32738       4.00698    -999.25000      -7.87021       2.92215     119.47302     116.77168      65.63454       2.28690       1.15167    6182.43750    3182.43750    -999.25000       0.12816
