~VERSION
 VERS.        2.00                                                                   :CWLS LOG ASCII STANDARD
 WRAP.        NO                                                                     :NO WRAP PERFORMED
 PROD.        Schlumberger                                                           :LAS Producer
 CREA.        Tue May 19 09:28:59 2015                                               :LAS Creation Date and time
~Well
#MNEM.UNIT    VALUE                                                                   :DESCRIPTION
#----.----    ---------------                                                        :-------------------
 STRT.F       5210.000                                                               :START DEPTH
 STOP.F       350.000                                                                :STOP  DEPTH
 STEP.F       -0.500                                                                 :DEPTH STEP
 NULL.        -999.250                                                               :NULL VALUE
 COMP.        ADM Company                                                            :COMPANY NAME
 WELL.        CCS#2                                                                  :WELL NAME
 FLD.         WILDCAT                                                                :FIELD NAME
 API.         12-115-23713                                                           :API NUMBER
 CNTY.        MACON                                                                  :COUNTY
 STAT.        ILLINOIS                                                               :STATE
 CTRY.        US                                                                     :COUNTRY
 LOC.         Latitude: 39.885961                                                    :WELL SURFACE LOCATION LINE 1
 LOC2.        Longitude: -88.888044                                                  :WELL SURFACE LOCATION LINE 2
 LOC3.                                                                               :WELL SURFACE LOCATION LINE 3
 SECT.        32                                                                     :SECTION
 TOWN.        17N                                                                    :TOWNSHIP
 RANG.        3E                                                                     :RANGE
 LATI.        39deg 53' 9.46" N                                                      :Latitude
 LONG.        88deg 53' 16.958" W                                                    :Longitude
 DATE.        2014/05/03                                                             :LOGGING DATE
 SRVC.        Schlumberger                                                           :SERVICE COMPANY
~Parameter
#MNEM.UNIT    VALUE                                                                  :DESCRIPTION
#----.----    ---------------                                                        :-------------------
 APD.F        15.500                                                                 :Elevation of depth reference above permanent datum
 EDF.F        691.200                                                                :Elevation of Derrick Floor
 EGL.F        675.700                                                                :Elevation of Ground Level
 EKB.F        691.200                                                                :Elevation of Kelly Bushing
 EPD.F        675.700                                                                :Elevation of Permnaent Datum
 LMF.         KB                                                                     :Logging Measured From
 PDAT.        GL                                                                     :Permanent Datum
 TDD.F        5251.000                                                               :Total Depth Driller
 TDL.F        5252.000                                                               :Total Depth Logger
 BS.IN        17.500                                                                 :Bit Size
 R1.                                                                                 :REMARK 1
 R2.                                                                                 :REMARK 2
 R3.                                                                                 :REMARK 3
 R4.                                                                                 :REMARK 4
 R5.                                                                                 :REMARK 5
 R6.                                                                                 :REMARK 6
 R7.                                                                                 :REMARK 7
 R8.                                                                                 :REMARK 8
 R9.                                                                                 :REMARK 9
 R10.                                                                                :REMARK 10
 DCS_CENTER.  Denver                                                                 :Schlumberger DCS Center
 LOG_ANALYST. Maxwell                                                                :Log Analyst Name
 ENG.         Yazan Alhabahbeh                                                       :Field Engineer Name
 GF_BASELINE. GF45                                                                   :GeoFrame Baseline
~Curve
#MNEM.UNIT                                                                           :DESCRIPTION
#----.----                                                                           :--------------------------------
 DEPT.F                                                                              :Depth Index
 GR.GAPI                                                                             : 1 Gamma Ray                                                                                 
 RHOZ.G/C3                                                                           : 2 HRDD Standard Resolution Formation Density                                                
 BS.IN                                                                               : 3 Bit Size                                                                                  
 P1AZ.DEG                                                                            : 4 Pad 1 Azimuth in Horizontal Plane (0 = True North)                                        
 SDEVM.DEG                                                                           : 5 Memorized Sonde Deviation                                                                 
 HAZIM.DEG                                                                           : 6 Memorized Hole Azimuth Relative to True North                                             
 RB.DEG                                                                              : 7 Relative Bearing                                                                          
 DEVI.DEG                                                                            : 8 Hole Deviation                                                                            
 HD1_PPC1.IN                                                                         : 9 PPC1 Hole Diameter 1                                                                      
 HD1_PPC2.IN                                                                         :10 PPC2 Hole Diameter 1                                                                      
 HD2_PPC1.IN                                                                         :11 PPC1 Hole Diameter 2                                                                      
 HD2_PPC2.IN                                                                         :12 PPC2 Hole Diameter 2                                                                      
 TENS.LBS                                                                            :13 Cable Tension                                                                             
 HDAR.IN                                                                             :14 Hole Diameter from Area                                                                   
 MINXENE_OVERALL.                                                                    :15 Overall estimate of minimum cross energy                                                  
 MAXXENE_OVERALL.                                                                    :16 Overall estimate of maximum cross energy                                                  
 FSH_AZIM_OVERALL_FILT.DEG                                                           :17 Overall estimate of fast shear azimuth filtered                                           
 FSH_AZIM_OVERALL.DEG                                                                :18 Overall estimate of fast shear azimuth                                                    
 FSH_AZIM_ERR.DEG                                                                    :19 Fast shear azimuth error                                                                  
 DTSM_SLOW.US/F                                                                      :20 Shear Slowness of Slow Shear Waves                                                        
 DTSM_FAST.US/F                                                                      :21 Shear Slowness of Fast Shear Waves                                                        
 DTCO.US/F                                                                           :22 Delta-T Compressional                                                                     
 SLOANI.                                                                             :23 Slowness based anisotropy                                                                 
 TIMANI.                                                                             :24 Time based anisotropy                                                                     
 TWE.US                                                                              :25 Time window end                                                                           
 TWB.US                                                                              :26 Time window begin                                                                         
 FLAG.                                                                               :27 General Indicator Flag                                                                    
 SPHI.ft3/ft3                                                                        :28 Sonic Porosity                                                                            
~Ascii   DEPT            GR          RHOZ            BS          P1AZ         SDEVM         HAZIM            RB          DEVI      HD1_PPC1      HD1_PPC2      HD2_PPC1      HD2_PPC2          TENS          HDAR  MINXENE_OVER  MAXXENE_OVER  FSH_AZIM_OVE  FSH_AZIM_OVE  FSH_AZIM_ERR     DTSM_SLOW     DTSM_FAST          DTCO        SLOANI        TIMANI           TWE           TWB          FLAG          SPHI
# ...
    1010.00000      81.56544       2.62696      17.50000      74.43404       0.32405      29.63510      44.79848       0.31326      17.89616      17.91551      18.97093      19.03051    1749.00000      18.82818       6.50432      17.02213    -999.25000      72.83250       8.96277     180.07097     178.90358      93.92233       0.65040       1.43275    6988.87988    3988.88013    -999.25000       0.32807
    1009.50000      83.11040       2.64994      17.50000      74.38376       0.32150      30.16143      44.22187       0.30983      17.89616      17.95733      18.96890      19.03078    1838.75012      18.81729       7.17657      17.83031    -999.25000      72.99997       9.46676     180.71489     181.29633      92.93066      -0.32123       1.46511    6996.23926    3996.23950    -999.25000       0.32106
    1009.00000      88.48270       2.63635      17.50000      74.20267       0.31864      30.79938      43.40285       0.30618      17.89616      17.91551      18.97093      19.03382    1824.00000      18.81729       7.79363      18.52301    -999.25000      73.56149       9.99931     181.74628     182.08928      91.27415      -0.18855       1.47664    6999.88086    3999.88086    -999.25000       0.30936
    1008.50000      85.15433       2.61404      17.50000      73.31689       0.31553      31.56834      41.74812       0.30071      17.89616      17.88403      18.99967      18.99956    1726.25000      18.88262       8.39033      19.23058    -999.25000      73.98294      10.49984     183.03365     182.48242      93.08674       0.30161       1.47538    7000.02002    4000.02002    -999.25000       0.32217
    1008.00000      86.01387       2.58502      17.50000      72.86126       0.31226      32.47495      40.38589       0.29902      17.86360      17.87365      18.97093      18.97337    1668.33337      18.94796       9.05020      19.99276    -999.25000      74.30367      10.86627     184.32101     182.71571      93.59023       0.87474       1.45574    6997.65527    3997.65527    -999.25000       0.32573
    1007.50000      86.85291       2.56810      17.50000      73.88296       0.30892      33.51182      40.37073       0.29477      17.83397      17.87365      18.99967      18.96489    1676.66675      18.94796       9.58119      20.49537    -999.25000      74.62727      10.98772     184.94319     184.54497      94.01976       0.21555       1.41599    6997.03125    3997.03125    -999.25000       0.32876
    1007.00000      83.62779       2.54974      17.50000      74.12131       0.30556      34.65513      39.46578       0.29211      17.83651      17.86309      18.99726      18.99925    1761.66663      18.90440       9.73044      20.43938    -999.25000      74.47472      10.90271     185.21829     184.11166      93.99655       0.59926       1.35542    7000.75000    4000.75000    -999.25000       0.32860
    1006.50000      79.25800       2.54845      17.50000      73.86674       0.30223      35.87027      37.99609       0.28972      17.86656      17.85253      18.99726      19.01069    1767.75000      18.91529       9.66062      20.07959    -999.25000      74.19963      11.00799     187.22209     186.84985      92.97132       0.19902       1.28656    7008.39453    4008.39429    -999.25000       0.32135
    1006.00000      76.66517       2.55993      17.50000      73.68048       0.29895      37.11364      36.56647       0.28707      17.80645      17.84214      18.99967      18.99956    1810.33325      18.90440       9.63003      19.62495    -999.25000      74.12666      11.21443     188.99927     191.40285      92.09203      -1.26370       1.21773    7016.84424    4016.84424    -999.25000       0.31514
    1005.50000      78.44077       2.56816      17.50000      73.53304       0.29573      38.33537      35.19730       0.28321      17.80574      17.85253      18.96848      18.99925    1809.33325      18.90440       9.39038      18.87529    -999.25000      73.87527      11.45705     191.25099     193.85309      90.43930      -1.35137       1.15083    7022.15625    4022.15649    -999.25000       0.30346
    1005.00000      75.93881       2.58459      17.50000      73.44813       0.29260      39.49028      33.95751       0.28030      17.80574      17.87939      18.99726      19.01377    1745.75000      18.90440       8.95131      17.95757    -999.25000      74.08192      11.79550     191.78345     189.98349      88.93651       0.94296       1.07859    7023.17383    4023.17358    -999.25000       0.29284
    1004.50000      78.55885       2.59250      17.50000      73.49891       0.28959      40.53028      32.96830       0.27511      17.80645      17.84803      18.99967      19.00768    1709.33337      18.94796       8.64450      17.19179      75.14063      75.14063      12.13493     191.85390     183.52335      88.61501       4.43850       1.01397    7020.18164    4020.18188    -999.25000       0.29057
    1004.00000      81.67892       2.60540      17.50000      73.72982       0.28678      41.41570      32.31379       0.27044      17.80645      17.85860      18.99967      19.03661    1742.00000      18.92618       8.42344      16.47539      76.24672      76.24672      12.73049     195.60907     185.16783      89.71979       5.48418       0.96929    7013.66992    4013.66968    -999.25000       0.29837
    1003.50000      80.52673       2.61257      17.50000      73.97006       0.28424      42.10722      31.86252       0.26859      17.80645      17.87957      18.99967      19.03051    1761.00000      18.92618       8.31197      15.78122      77.13522      77.13522      13.29453     199.73407     189.67366      92.10496       5.16703       0.94059    7003.77539    4003.77563    -999.25000       0.31523
    1003.00000      78.08297       2.61122      17.50000      74.09851       0.28202      42.57186      31.52634       0.26610      17.77684      17.87365      18.99967      19.08746    1792.00000      18.88262       8.21139      15.06164      78.26573      78.26573      13.37298     201.10442     193.95958      95.06628       3.61705       0.94322    6991.15137    3991.15088    -999.25000       0.33616
    1002.50000      76.35901       2.61865      17.50000      74.27255       0.28016      42.78296      31.48929       0.26576      17.80645      17.88420      18.99967      19.11634    1713.50000      18.92618       7.90530      14.21450    -999.25000      79.22493      13.52584     200.12598     197.96460      95.26311       1.08587       0.96840    6976.62598    3976.62573    -999.25000       0.33755
    1002.00000      78.24439       2.60247      17.50000      74.30704       0.27861      42.72113      31.58561       0.26560      17.83651      17.87365      18.99967      19.12770    1731.00000      18.96974       7.58856      13.43588    -999.25000      80.33718      14.10267     201.19051     201.96962      94.46309      -0.38650       0.97388    6960.84961    3960.84912    -999.25000       0.33189
    1001.50000      78.51855       2.60108      17.50000      74.60291       0.27725      42.38036      32.22225       0.26672      17.83651      17.89441      18.99967      19.09361    1737.50000      18.96974       7.45863      12.83566    -999.25000      82.88503      14.34426     203.45387     207.52184      94.53127      -1.97966       0.98120    6944.67285    3944.67310    -999.25000       0.33238
    1001.00000      78.34813       2.58853      17.50000      74.55247       0.27590      41.76775      32.78442       0.26572      17.80645      17.88403      18.99967      19.11634    1762.00000      18.96974       7.21219      12.49502    -999.25000      85.82745      14.19065     205.57852     207.64392      94.66698      -0.99965       1.05296    6929.69922    3929.69922    -999.25000       0.33334
    1000.50000      79.16581       2.58732      17.50000      74.46535       0.27430      40.90334      33.56170       0.26676      17.80645      17.87365      19.02841      19.15040    1796.00000      18.96974       6.83717      12.18522    -999.25000      87.82057      13.89948     205.57852     205.34001      96.94468       0.11609       1.12306    6916.34375    3916.34375    -999.25000       0.34943
