~VERSION
 VERS.        2.00                                                                   :CWLS LOG ASCII STANDARD
 WRAP.        NO                                                                     :NO WRAP PERFORMED
 PROD.        Schlumberger                                                           :LAS Producer
 CREA.        Tue May 19 09:28:59 2015                                               :LAS Creation Date and time
~Well
#MNEM.UNIT    VALUE                                                                   :DESCRIPTION
#----.----    ---------------                                                        :-------------------
 STRT.F       5210.000                                                               :START DEPTH
 STOP.F       350.000                                                                :STOP  DEPTH
 STEP.F       -0.500                                                                 :DEPTH STEP
 NULL.        -999.250                                                               :NULL VALUE
 COMP.        ADM Company                                                            :COMPANY NAME
 WELL.        CCS#2                                                                  :WELL NAME
 FLD.         WILDCAT                                                                :FIELD NAME
 API.         12-115-23713                                                           :API NUMBER
 CNTY.        MACON                                                                  :COUNTY
 STAT.        ILLINOIS                                                               :STATE
 CTRY.        US                                                                     :COUNTRY
 LOC.         Latitude: 39.885961                                                    :WELL SURFACE LOCATION LINE 1
 LOC2.        Longitude: -88.888044                                                  :WELL SURFACE LOCATION LINE 2
 LOC3.                                                                               :WELL SURFACE LOCATION LINE 3
 SECT.        32                                                                     :SECTION
 TOWN.        17N                                                                    :TOWNSHIP
 RANG.        3E                                                                     :RANGE
 LATI.        39deg 53' 9.46" N                                                      :Latitude
 LONG.        88deg 53' 16.958" W                                                    :Longitude
 DATE.        2014/05/03                                                             :LOGGING DATE
 SRVC.        Schlumberger                                                           :SERVICE COMPANY
~Parameter
#MNEM.UNIT    VALUE                                                                  :DESCRIPTION
#----.----    ---------------                                                        :-------------------
 APD.F        15.500                                                                 :Elevation of depth reference above permanent datum
 EDF.F        691.200                                                                :Elevation of Derrick Floor
 EGL.F        675.700                                                                :Elevation of Ground Level
 EKB.F        691.200                                                                :Elevation of Kelly Bushing
 EPD.F        675.700                                                                :Elevation of Permnaent Datum
 LMF.         KB                                                                     :Logging Measured From
 PDAT.        GL                                                                     :Permanent Datum
 TDD.F        5251.000                                                               :Total Depth Driller
 TDL.F        5252.000                                                               :Total Depth Logger
 BS.IN        17.500                                                                 :Bit Size
 R1.                                                                                 :REMARK 1
 R2.                                                                                 :REMARK 2
 R3.                                                                                 :REMARK 3
 R4.                                                                                 :REMARK 4
 R5.                                                                                 :REMARK 5
 R6.                                                                                 :REMARK 6
 R7.                                                                                 :REMARK 7
 R8.                                                                                 :REMARK 8
 R9.                                                                                 :REMARK 9
 R10.                                                                                :REMARK 10
 DCS_CENTER.  Denver                                                                 :Schlumberger DCS Center
 LOG_ANALYST. Maxwell                                                                :Log Analyst Name
 ENG.         Yazan Alhabahbeh                                                       :Field Engineer Name
 GF_BASELINE. GF45                                                                   :GeoFrame Baseline
~Curve
#MNEM.UNIT                                                                           :DESCRIPTION
#----.----                                                                           :--------------------------------
 DEPT.F                                                                              :Depth Index
 GR.GAPI                                                                             : 1 Gamma Ray                                                                                 
 RHOZ.G/C3                                                                           : 2 HRDD Standard Resolution Formation Density                                                
 BS.IN                                                                               : 3 Bit Size                                                                                  
 P1AZ.DEG                                                                            : 4 Pad 1 Azimuth in Horizontal Plane (0 = True North)                                        
 SDEVM.DEG                                                                           : 5 Memorized Sonde Deviation                                                                 
 HAZIM.DEG                                                                           : 6 Memorized Hole Azimuth Relative to True North                                             
 RB.DEG                                                                              : 7 Relative Bearing                                                                          
 DEVI.DEG                                                                            : 8 Hole Deviation                                                                            
 HD1_PPC1.IN                                                                         : 9 PPC1 Hole Diameter 1                                                                      
 HD1_PPC2.IN                                                                         :10 PPC2 Hole Diameter 1                                                                      
 HD2_PPC1.IN                                                                         :11 PPC1 Hole Diameter 2                                                                      
 HD2_PPC2.IN                                                                         :12 PPC2 Hole Diameter 2                                                                      
 TENS.LBS                                                                            :13 Cable Tension                                                                             
 HDAR.IN                                                                             :14 Hole Diameter from Area                                                                   
 MINXENE_OVERALL.                                                                    :15 Overall estimate of minimum cross energy                                                  
 MAXXENE_OVERALL.                                                                    :16 Overall estimate of maximum cross energy                                                  
 FSH_AZIM_OVERALL_FILT.DEG                                                           :17 Overall estimate of fast shear azimuth filtered                                           
 FSH_AZIM_OVERALL.DEG                                                                :18 Overall estimate of fast shear azimuth                                                    
 FSH_AZIM_ERR.DEG                                                                    :19 Fast shear azimuth error                                                                  
 DTSM_SLOW.US/F                                                                      :20 Shear Slowness of Slow Shear Waves                                                        
 DTSM_FAST.US/F                                                                      :21 Shear Slowness of Fast Shear Waves                                                        
 DTCO.US/F                                                                           :22 Delta-T Compressional                                                                     
 SLOANI.                                                                             :23 Slowness based anisotropy                                                                 
 TIMANI.                                                                             :24 Time based anisotropy                                                                     
 TWE.US                                                                              :25 Time window end                                                                           
 TWB.US                                                                              :26 Time window begin                                                                         
 FLAG.                                                                               :27 General Indicator Flag                                                                    
 SPHI.ft3/ft3                                                                        :28 Sonic Porosity                                                                            
~Ascii   DEPT            GR          RHOZ            BS          P1AZ         SDEVM         HAZIM            RB          DEVI      HD1_PPC1      HD1_PPC2      HD2_PPC1      HD2_PPC2          TENS          HDAR  MINXENE_OVER  MAXXENE_OVER  FSH_AZIM_OVE  FSH_AZIM_OVE  FSH_AZIM_ERR     DTSM_SLOW     DTSM_FAST          DTCO        SLOANI        TIMANI           TWE           TWB          FLAG          SPHI
# ...
    2950.00000      21.37570       2.75283      17.50000     320.95932       0.62775     128.91966     192.03894       0.62835      18.22137      18.44170      17.82835      18.12398    2296.50000      18.17483       0.33718       5.15088    -999.25000      54.83157       5.71028      89.29720      89.29720      50.07920       0.00000       1.04012    6031.37451    3031.37451    -999.25000       0.01823
    2949.50000      19.81486       2.76066      17.50000     320.91241       0.62652     128.96698     191.94475       0.62689      18.28181      18.56579      17.74296      18.13548    2349.00000      18.22927       0.34427       4.94738    -999.25000      55.12796       6.26500      89.29720      89.29720      50.07648       0.00000       1.01435    6043.30371    3043.30420    -999.25000       0.01821
    2949.00000      18.30952       2.75496      17.50000     320.79227       0.62478     129.02890     191.76270       0.62302      18.22137      18.46627      17.79938      18.11232    2354.00024      18.35994       0.35558       4.65387    -999.25000      55.50340       6.76902      94.58241      94.58241      49.75021       0.00000       0.98740    6052.27441    3052.27441    -999.25000       0.01590
    2948.50000      18.55327       2.73314      17.50000     320.64996       0.62258     129.09236     191.55693       0.61941      18.22353      18.41464      17.77398      18.10693    2392.00000      18.25105       0.36912       4.34875    -999.25000      56.17087       7.10528      96.41649      96.41649      49.30610       0.00000       0.95900    6057.43555    3057.43555    -999.25000       0.01276
    2948.00000      19.46877       2.70181      17.50000     320.32184       0.62003     129.14719     191.17401       0.61641      18.22137      18.38366      17.79938      18.10693    2367.00000      18.25105       0.38599       4.10344    -999.25000      57.12735       6.98989      90.15559      90.15559      48.75137       0.00000       0.93999    6059.56543    3059.56543    -999.25000       0.00884
    2947.50000      19.79610       2.70999      17.50000     319.98718       0.61724     129.18297     190.80360       0.61204      18.25351      18.36276      17.80294      18.10693    2387.66675      18.19660       0.39829       3.91127    -999.25000      58.27255       6.39864      89.18185      89.18185      48.56677       0.00000       0.94066    6061.90088    3061.90088    -999.25000       0.00754
    2947.00000      23.44416       2.71404      17.50000     319.83270       0.61435     129.18625     190.64584       0.61082      18.22137      18.32165      17.77039      18.11858    2318.50000      18.18571       0.40058       3.76025    -999.25000      59.55546       5.42995      92.12527      92.12527      48.97218       0.00000       0.95383    6065.53271    3065.53271    -999.25000       0.01040
    2946.50000      28.51371       2.73312      17.50000     319.71896       0.61147     129.15808     190.56030       0.60686      18.25351      18.29026      17.77398      18.12398    2457.49976      18.16394       0.38680       3.59294    -999.25000      60.86049       4.32699      94.76654      94.76654      49.40977       0.00000       0.97029    6069.90332    3069.90332    -999.25000       0.01350
    2946.00000      35.80725       2.68482      17.50000     319.07144       0.60868     129.09532     189.97557       0.60473      18.22137      18.24854      17.79938      18.18780    2507.66675      18.12038       0.35126       3.35520    -999.25000      62.09403       3.61620      98.77071      98.77071      50.60751       0.00000       0.98351    6073.62988    3073.62964    -999.25000       0.02196
    2945.50000      42.17237       2.50767      17.50000     319.56445       0.60601     128.99429     190.56958       0.60265      21.54619      18.59703      20.82921      18.81392    2303.75000      18.12038       0.31076       2.99539    -999.25000      62.69858       3.52363     131.11911     131.11911      65.94071       0.00000       0.98075    6075.36328    3075.36353       1.00000       0.13032
    2945.00000      47.76686       2.27737      17.50000     319.72607       0.60345     128.85269     190.87280       0.60096      19.73217      18.51764      19.25785      18.34296    2438.00000      21.36536       0.27937       2.60078    -999.25000      62.57329       3.78765     156.39163     156.39163      92.21711       0.00000       0.96071    6076.80225    3076.80225       1.00000       0.31602
    2944.50000      44.78724       2.07269      17.50000     319.81546       0.60095     128.67194     191.14293       0.59999      18.34248      18.25883      17.89183      18.11858    2327.75000      18.40350       0.26406       2.32425    -999.25000      60.16371       4.70252     160.26884     160.26884      93.03728       0.00000       0.92961    6079.96191    3079.96167    -999.25000       0.32182
    2944.00000      35.82051       2.11516      17.50000     319.68079       0.59847     128.45526     191.22495       0.59659      18.28302      18.26525      17.91907      18.12398    2376.25000      17.03146       0.26268       2.16395    -999.25000      57.43400       5.56087     154.28453     154.28453      70.74817       0.00000       0.89335    6084.55078    3084.55103    -999.25000       0.16430
    2943.50000      27.53434       2.35286      17.50000     319.95935       0.59596     128.19365     191.76509       0.59452      18.28139      18.27555      17.89183      18.06595    2303.00000      18.15305       0.29653       2.67738    -999.25000      56.60050       5.59263     146.21965     146.21965      61.32614       0.00000       0.92975    6088.85498    3088.85498    -999.25000       0.09771
    2943.00000      25.33557       2.60079      17.50000     319.93817       0.59342     127.88840     192.04913       0.59105      18.28091      18.27574      17.82835      18.07489    2333.75000      18.16394       0.32408       3.40841    -999.25000      55.79319       5.31584     140.29144     140.29144      63.20923       0.00000       1.01248    6092.14893    3092.14893    -999.25000       0.11102
    2942.50000      28.75302       2.73841      17.50000     320.11465       0.59086     127.53580     192.57820       0.58870      18.31298      18.26931      17.89183      18.06595    2307.66675      18.15305       0.30885       3.64249    -999.25000      54.91680       4.83873     133.51738     133.51738      66.92362       0.00000       1.05735    6095.20068    3095.20068    -999.25000       0.13727
    2942.00000      30.21446       2.72865      17.50000     320.15146       0.58834     127.13468     193.01613       0.58506      18.31044      18.29026      17.82835      18.06059    2327.66675      18.09860       0.28570       3.76656    -999.25000      54.03590       4.24380     124.66312     124.66312      63.32784       0.00000       1.08203    6095.28906    3095.28882    -999.25000       0.11186
    2941.50000      30.15420       2.71938      17.50000     320.22778       0.58593     126.68658     193.54051       0.58299      18.28347      18.36907      17.89389      18.18780    2341.33325      18.07682       0.25347       3.80970    -999.25000      53.35313       3.51185     119.91196     119.91196      53.40086       0.00000       1.08967    6094.64551    3094.64526    -999.25000       0.04170
    2941.00000      26.70070       2.71213      17.50000     320.13937       0.58373     126.19689     193.94179       0.58067      18.31044      18.35249      17.85939      18.17616    2351.33350      18.09860       0.21729       3.81262    -999.25000      52.90905       2.74833     117.13791     117.13791      51.41677       0.00000       1.08948    6063.65625    3063.65625    -999.25000       0.02768
    2940.50000      24.28494       2.71603      17.50000     320.03555       0.58182     125.67572     194.35913       0.57955      18.28136      18.36294      17.85939      18.15335    2332.00000      18.16394       0.18308       3.78259    -999.25000      52.63736       2.13843     114.67416     114.67416      51.08310       0.00000       1.08799    5999.54980    2999.54980    -999.25000       0.02532
