~VERSION
 VERS.        2.00                                                                   :CWLS LOG ASCII STANDARD
 WRAP.        NO                                                                     :NO WRAP PERFORMED
 PROD.        Schlumberger                                                           :LAS Producer
 CREA.        Tue May 19 09:28:59 2015                                               :LAS Creation Date and time
~Well
#MNEM.UNIT    VALUE                                                                   :DESCRIPTION
#----.----    ---------------                                                        :-------------------
 STRT.F       5210.000                                                               :START DEPTH
 STOP.F       350.000                                                                :STOP  DEPTH
 STEP.F       -0.500                                                                 :DEPTH STEP
 NULL.        -999.250                                                               :NULL VALUE
 COMP.        ADM Company                                                            :COMPANY NAME
 WELL.        CCS#2                                                                  :WELL NAME
 FLD.         WILDCAT                                                                :FIELD NAME
 API.         12-115-23713                                                           :API NUMBER
 CNTY.        MACON                                                                  :COUNTY
 STAT.        ILLINOIS                                                               :STATE
 CTRY.        US                                                                     :COUNTRY
 LOC.         Latitude: 39.885961                                                    :WELL SURFACE LOCATION LINE 1
 LOC2.        Longitude: -88.888044                                                  :WELL SURFACE LOCATION LINE 2
 LOC3.                                                                               :WELL SURFACE LOCATION LINE 3
 SECT.        32                                                                     :SECTION
 TOWN.        17N                                                                    :TOWNSHIP
 RANG.        3E                                                                     :RANGE
 LATI.        39deg 53' 9.46" N                                                      :Latitude
 LONG.        88deg 53' 16.958" W                                                    :Longitude
 DATE.        2014/05/03                                                             :LOGGING DATE
 SRVC.        Schlumberger                                                           :SERVICE COMPANY
~Parameter
#MNEM.UNIT    VALUE                                                                  :DESCRIPTION
#----.----    ---------------                                                        :-------------------
 APD.F        15.500                                                                 :Elevation of depth reference above permanent datum
 EDF.F        691.200                                                                :Elevation of Derrick Floor
 EGL.F        675.700                                                                :Elevation of Ground Level
 EKB.F        691.200                                                                :Elevation of Kelly Bushing
 EPD.F        675.700                                                                :Elevation of Permnaent Datum
 LMF.         KB                                                                     :Logging Measured From
 PDAT.        GL                                                                     :Permanent Datum
 TDD.F        5251.000                                                               :Total Depth Driller
 TDL.F        5252.000                                                               :Total Depth Logger
 BS.IN        17.500                                                                 :Bit Size
 R1.                                                                                 :REMARK 1
 R2.                                                                                 :REMARK 2
 R3.                                                                                 :REMARK 3
 R4.                                                                                 :REMARK 4
 R5.                                                                                 :REMARK 5
 R6.                                                                                 :REMARK 6
 R7.                                                                                 :REMARK 7
 R8.                                                                                 :REMARK 8
 R9.                                                                                 :REMARK 9
 R10.                                                                                :REMARK 10
 DCS_CENTER.  Denver                                                                 :Schlumberger DCS Center
 LOG_ANALYST. Maxwell                                                                :Log Analyst Name
 ENG.         Yazan Alhabahbeh                                                       :Field Engineer Name
 GF_BASELINE. GF45                                                                   :GeoFrame Baseline
~Curve
#MNEM.UNIT                                                                           :DESCRIPTION
#----.----                                                                           :--------------------------------
 DEPT.F                                                                              :Depth Index
 GR.GAPI                                                                             : 1 Gamma Ray                                                                                 
 RHOZ.G/C3                                                                           : 2 HRDD Standard Resolution Formation Density                                                
 BS.IN                                                                               : 3 Bit Size                                                                                  
 P1AZ.DEG                                                                            : 4 Pad 1 Azimuth in Horizontal Plane (0 = True North)                                        
 SDEVM.DEG                                                                           : 5 Memorized Sonde Deviation                                                                 
 HAZIM.DEG                                                                           : 6 Memorized Hole Azimuth Relative to True North                                             
 RB.DEG                                                                              : 7 Relative Bearing                                                                          
 DEVI.DEG                                                                            : 8 Hole Deviation                                                                            
 HD1_PPC1.IN                                                                         : 9 PPC1 Hole Diameter 1                                                                      
 HD1_PPC2.IN                                                                         :10 PPC2 Hole Diameter 1                                                                      
 HD2_PPC1.IN                                                                         :11 PPC1 Hole Diameter 2                                                                      
 HD2_PPC2.IN                                                                         :12 PPC2 Hole Diameter 2                                                                      
 TENS.LBS                                                                            :13 Cable Tension                                                                             
 HDAR.IN                                                                             :14 Hole Diameter from Area                                                                   
 MINXENE_OVERALL.                                                                    :15 Overall estimate of minimum cross energy                                                  
 MAXXENE_OVERALL.                                                                    :16 Overall estimate of maximum cross energy                                                  
 FSH_AZIM_OVERALL_FILT.DEG                                                           :17 Overall estimate of fast shear azimuth filtered                                           
 FSH_AZIM_OVERALL.DEG                                                                :18 Overall estimate of fast shear azimuth                                                    
 FSH_AZIM_ERR.DEG                                                                    :19 Fast shear azimuth error                                                                  
 DTSM_SLOW.US/F                                                                      :20 Shear Slowness of Slow Shear Waves                                                        
 DTSM_FAST.US/F                                                                      :21 Shear Slowness of Fast Shear Waves                                                        
 DTCO.US/F                                                                           :22 Delta-T Compressional                                                                     
 SLOANI.                                                                             :23 Slowness based anisotropy                                                                 
 TIMANI.                                                                             :24 Time based anisotropy                                                                     
 TWE.US                                                                              :25 Time window end                                                                           
 TWB.US                                                                              :26 Time window begin                                                                         
 FLAG.                                                                               :27 General Indicator Flag                                                                    
 SPHI.ft3/ft3                                                                        :28 Sonic Porosity                                                                            
~Ascii   DEPT            GR          RHOZ            BS          P1AZ         SDEVM         HAZIM            RB          DEVI      HD1_PPC1      HD1_PPC2      HD2_PPC1      HD2_PPC2          TENS          HDAR  MINXENE_OVER  MAXXENE_OVER  FSH_AZIM_OVE  FSH_AZIM_OVE  FSH_AZIM_ERR     DTSM_SLOW     DTSM_FAST          DTCO        SLOANI        TIMANI           TWE           TWB          FLAG          SPHI
    5210.00000      28.03144       2.67663      17.50000     340.75626       1.94193     347.05872     353.70114       1.85670      17.55073       3.88416      17.18508       3.27588    3156.00000      17.37992       8.54472      23.29428    -999.25000     -14.38799       3.32780    -999.25000    -999.25000    -999.25000    -999.25000       2.68684    5648.66113    2648.66113    -999.25000    -999.25000
    5209.50000      28.03144       2.65945      17.50000     340.89001       1.94543     346.92081     353.97266       1.85788      17.63814       3.88416      17.33582       3.27588    3219.33350      17.29280       3.46163      23.95088    -999.25000     -14.39445       1.41813    -999.25000    -999.25000    -999.25000    -999.25000       2.68601    5648.75439    2648.75439    -999.25000    -999.25000
    5209.00000      28.03144       2.64424      17.50000     340.84821       1.94852     346.80270     354.04889       1.85828      17.66862       3.88416      17.50592       3.27588    3156.00000      17.35814       0.91376      24.26832    -999.25000     -14.34060       1.41056    -999.25000    -999.25000    -999.25000    -999.25000       2.67850    5649.05322    2649.05322    -999.25000    -999.25000
    5208.50000      28.03144       2.65623      17.50000     341.00266       1.95140     346.70404     354.30191       1.86030      17.75906       3.88416      17.53937       3.27588    3168.50000      17.33636       0.90669      24.24450    -999.25000     -14.27750       1.39748    -999.25000    -999.25000    -999.25000    -999.25000       2.66325    5649.66699    2649.66699    -999.25000    -999.25000
    5208.00000      28.03144       2.67169      17.50000     341.23068       1.95425     346.62128     354.61252       1.86285      17.76191       3.88416      17.62882       3.27588    3155.66675      17.37992       0.89659      24.22966    -999.25000     -14.21563       1.38678    -999.25000    -999.25000    -999.25000    -999.25000       2.64921    5650.86523    2650.86475    -999.25000    -999.25000
    5207.50000      28.03144       2.68541      17.50000     341.38879       1.95727     346.55246     354.83936       1.86563      17.81942       3.88416      17.74192       3.27588    3144.33325      17.40169       0.88742      24.20647    -999.25000     -14.16155       1.38848    -999.25000    -999.25000    -999.25000    -999.25000       2.63639    5652.05273    2652.05273    -999.25000    -999.25000
    5207.00000      28.03144       2.71748      17.50000     341.47769       1.96057     346.49359     354.98703       1.86882      17.87909       3.88416      17.83398       3.27588    3160.00024      17.37992       0.93940      23.91384    -999.25000     -14.11770       1.39958    -999.25000    -999.25000    -999.25000    -999.25000       2.61423    5653.03809    2653.03857       1.00000    -999.25000
    5206.50000      28.03144       2.75525      17.50000     341.57343       1.96424     346.44415     355.13211       1.87354      16.70073       3.88416      16.56503       3.27588    3176.50000      17.37992       1.05280      23.37309    -999.25000     -14.20850       1.49293    -999.25000    -999.25000    -999.25000    -999.25000       2.58498    5654.20508    2654.20483    -999.25000    -999.25000
    5206.00000      28.03144       2.77215      17.50000     341.54486       1.96833     346.39935     355.14838       1.87768      16.88195       3.88416      16.65937       3.27588    3136.33350      17.40169       1.10856      22.68967    -999.25000     -14.44646       1.66033    -999.25000    -999.25000    -999.25000    -999.25000       2.56127    5654.68164    2654.68140    -999.25000    -999.25000
    5205.50000      28.03144       2.76800      17.50000     341.88986       1.97286     346.35764     355.53485       1.88223      16.87938       3.88416      16.71978       3.27588    3195.50000      17.37992       1.09849      21.83349    -999.25000     -14.69180       1.79191    -999.25000    -999.25000    -999.25000    -999.25000       2.53724    5655.07617    2655.07642    -999.25000    -999.25000
    5205.00000      28.03144       2.74579      17.50000     341.93286       1.97784     346.31979     355.61566       1.88684      16.94175       3.88416      16.71978       3.27588    3164.00024      17.40169       1.07551      20.91591    -999.25000     -14.93387       1.86398    -999.25000    -999.25000    -999.25000    -999.25000       2.50704    5655.49072    2655.49072    -999.25000    -999.25000
    5204.50000      28.03144       2.74459      17.50000     342.08105       1.98326     346.28674     355.79681       1.89302      17.00091       3.88416      16.86516       3.27588    3094.00000      17.37992       1.04002      19.92587    -999.25000     -15.24047       1.97740    -999.25000    -999.25000    -999.25000    -999.25000       2.46512    5656.51318    2656.51318    -999.25000    -999.25000
    5204.00000      28.03144       2.74404      17.50000     342.12384       1.98914     346.25497     355.87137       1.89829      17.03162       3.88416      16.86963       3.27588    3145.75000      17.37992       1.01160      18.89090    -999.25000     -15.59349       2.12112      88.28301      89.25239      48.32858      -1.09204       2.41842    5657.58154    2657.58154    -999.25000       0.00586
    5203.50000      28.03144       2.75383      17.50000     342.03537       1.99551     346.22977     355.80814       1.90392      17.15156       3.88416      16.92994       3.27588    3108.00000      17.37992       0.98454      17.74470    -999.25000     -15.97318       2.18996      88.00190      88.85683      48.76313      -0.96680       2.36734    5657.57910    2657.57910    -999.25000       0.00893
    5203.00000      28.03144       2.76142      17.50000     342.09723       2.00239     346.21002     355.88971       1.91052      17.14835       3.88416      16.98589       3.27588    3150.50000      17.40169       0.94483      16.45241    -999.25000     -16.39106       2.16838      88.34692      88.38857      47.70694      -0.04713       2.30497    5657.30469    2657.30469    -999.25000       0.00146
    5202.50000      28.03144       2.76674      17.50000     342.05807       2.00983     346.19580     355.86481       1.91750      17.17821       3.88416      17.01501       3.27588    3111.00000      17.40169       0.89804      15.05148    -999.25000     -16.87895       2.05269      88.51732      87.92030      47.30958       0.67674       2.23860    5652.03027    2652.03027    -999.25000      -0.00135
    5202.00000      28.03144       2.78394      17.50000     342.16745       2.01787     346.18573     355.98419       1.92629      17.24129       3.88416      17.14190       3.27588    3062.00000      17.40169       0.84620      13.52603    -999.25000     -17.43811       1.91471      89.42399      89.25239      48.31589       0.19208       2.15665    5647.25977    2647.25977    -999.25000       0.00577
    5201.50000      28.03144       2.79575      17.50000     342.23654       2.02652     346.17917     356.05984       1.93479      17.20805       3.88416      17.13770       3.27588    3083.50000      17.40169       0.74174      12.15863    -999.25000     -18.03483       1.75030      89.48122      89.25239      46.70742       0.25606       2.07359    5647.07324    2647.07300    -999.25000      -0.00560
    5201.00000      28.03144       2.79255      17.50000     342.22409       2.03577     346.17099     356.05557       1.94353      17.27138       3.88416      17.17097       3.27588    3117.00024      17.40169       0.57052      10.90750    -999.25000     -18.44835       1.71465      88.56564      89.25239      46.57153      -0.77242       1.98866    5645.97412    2645.97412    -999.25000      -0.00656
    5200.50000      28.03144       2.76783      17.50000     342.22205       2.04560     346.16177     356.06277       1.95325      17.23818       3.88416      17.19797       3.27588    3061.33325      17.41258       0.46703       9.70085    -999.25000     -18.66449       1.86616      88.94994      89.25239      47.11057      -0.33944       1.88996    5645.27002    2645.27002    -999.25000      -0.00275
