~VERSION
 VERS.        2.00                                                                   :CWLS LOG ASCII STANDARD
 WRAP.        NO                                                                     :NO WRAP PERFORMED
 PROD.        Schlumberger                                                           :LAS Producer
 CREA.        Tue May 19 09:28:59 2015                                               :LAS Creation Date and time
~Well
#MNEM.UNIT    VALUE                                                                   :DESCRIPTION
#----.----    ---------------                                                        :-------------------
 STRT.F       5210.000                                                               :START DEPTH
 STOP.F       350.000                                                                :STOP  DEPTH
 STEP.F       -0.500                                                                 :DEPTH STEP
 NULL.        -999.250                                                               :NULL VALUE
 COMP.        ADM Company                                                            :COMPANY NAME
 WELL.        CCS#2                                                                  :WELL NAME
 FLD.         WILDCAT                                                                :FIELD NAME
 API.         12-115-23713                                                           :API NUMBER
 CNTY.        MACON                                                                  :COUNTY
 STAT.        ILLINOIS                                                               :STATE
 CTRY.        US                                                                     :COUNTRY
 LOC.         Latitude: 39.885961                                                    :WELL SURFACE LOCATION LINE 1
 LOC2.        Longitude: -88.888044                                                  :WELL SURFACE LOCATION LINE 2
 LOC3.                                                                               :WELL SURFACE LOCATION LINE 3
 SECT.        32                                                                     :SECTION
 TOWN.        17N                                                                    :TOWNSHIP
 RANG.        3E                                                                     :RANGE
 LATI.        39deg 53' 9.46" N                                                      :Latitude
 LONG.        88deg 53' 16.958" W                                                    :Longitude
 DATE.        2014/05/03                                                             :LOGGING DATE
 SRVC.        Schlumberger                                                           :SERVICE COMPANY
~Parameter
#MNEM.UNIT    VALUE                                                                  :DESCRIPTION
#----.----    ---------------                                                        :-------------------
 APD.F        15.500                                                                 :Elevation of depth reference above permanent datum
 EDF.F        691.200                                                                :Elevation of Derrick Floor
 EGL.F        675.700                                                                :Elevation of Ground Level
 EKB.F        691.200                                                                :Elevation of Kelly Bushing
 EPD.F        675.700                                                                :Elevation of Permnaent Datum
 LMF.         KB                                                                     :Logging Measured From
 PDAT.        GL                                                                     :Permanent Datum
 TDD.F        5251.000                                                               :Total Depth Driller
 TDL.F        5252.000                                                               :Total Depth Logger
 BS.IN        17.500                                                                 :Bit Size
 R1.                                                                                 :REMARK 1
 R2.                                                                                 :REMARK 2
 R3.                                                                                 :REMARK 3
 R4.                                                                                 :REMARK 4
 R5.                                                                                 :REMARK 5
 R6.                                                                                 :REMARK 6
 R7.                                                                                 :REMARK 7
 R8.                                                                                 :REMARK 8
 R9.                                                                                 :REMARK 9
 R10.                                                                                :REMARK 10
 DCS_CENTER.  Denver                                                                 :Schlumberger DCS Center
 LOG_ANALYST. Maxwell                                                                :Log Analyst Name
 ENG.         Yazan Alhabahbeh                                                       :Field Engineer Name
 GF_BASELINE. GF45                                                                   :GeoFrame Baseline
~Curve
#MNEM.UNIT                                                                           :DESCRIPTION
#----.----                                                                           :--------------------------------
 DEPT.F                                                                              :Depth Index
 GR.GAPI                                                                             : 1 Gamma Ray                                                                                 
 RHOZ.G/C3                                                                           : 2 HRDD Standard Resolution Formation Density                                                
 BS.IN                                                                               : 3 Bit Size                                                                                  
 P1AZ.DEG                                                                            : 4 Pad 1 Azimuth in Horizontal Plane (0 = True North)                                        
 SDEVM.DEG                                                                           : 5 Memorized Sonde Deviation                                                                 
 HAZIM.DEG                                                                           : 6 Memorized Hole Azimuth Relative to True North                                             
 RB.DEG                                                                              : 7 Relative Bearing                                                                          
 DEVI.DEG                                                                            : 8 Hole Deviation                                                                            
 HD1_PPC1.IN                                                                         : 9 PPC1 Hole Diameter 1                                                                      
 HD1_PPC2.IN                                                                         :10 PPC2 Hole Diameter 1                                                                      
 HD2_PPC1.IN                                                                         :11 PPC1 Hole Diameter 2                                                                      
 HD2_PPC2.IN                                                                         :12 PPC2 Hole Diameter 2                                                                      
 TENS.LBS                                                                            :13 Cable Tension                                                                             
 HDAR.IN                                                                             :14 Hole Diameter from Area                                                                   
 MINXENE_OVERALL.                                                                    :15 Overall estimate of minimum cross energy                                                  
 MAXXENE_OVERALL.                                                                    :16 Overall estimate of maximum cross energy                                                  
 FSH_AZIM_OVERALL_FILT.DEG                                                           :17 Overall estimate of fast shear azimuth filtered                                           
 FSH_AZIM_OVERALL.DEG                                                                :18 Overall estimate of fast shear azimuth                                                    
 FSH_AZIM_ERR.DEG                                                                    :19 Fast shear azimuth error                                                                  
 DTSM_SLOW.US/F                                                                      :20 Shear Slowness of Slow Shear Waves                                                        
 DTSM_FAST.US/F                                                                      :21 Shear Slowness of Fast Shear Waves                                                        
 DTCO.US/F                                                                           :22 Delta-T Compressional                                                                     
 SLOANI.                                                                             :23 Slowness based anisotropy                                                                 
 TIMANI.                                                                             :24 Time based anisotropy                                                                     
 TWE.US                                                                              :25 Time window end                                                                           
 TWB.US                                                                              :26 Time window begin                                                                         
 FLAG.                                                                               :27 General Indicator Flag                                                                    
 SPHI.ft3/ft3                                                                        :28 Sonic Porosity                                                                            
~Ascii   DEPT            GR          RHOZ            BS          P1AZ         SDEVM         HAZIM            RB          DEVI      HD1_PPC1      HD1_PPC2      HD2_PPC1      HD2_PPC2          TENS          HDAR  MINXENE_OVER  MAXXENE_OVER  FSH_AZIM_OVE  FSH_AZIM_OVE  FSH_AZIM_ERR     DTSM_SLOW     DTSM_FAST          DTCO        SLOANI        TIMANI           TWE           TWB          FLAG          SPHI
# ...
    2300.00000      49.95359       2.60866      17.50000      49.72131       0.63711     301.70966     108.01270       0.62271      18.04539      18.13055      18.07152      18.30277    2170.75000      17.91348       0.04554       0.74601    -999.25000      44.84832       1.83747     127.78208     127.92350      70.28052      -0.11061       0.00188    6204.31201    3204.31201    -999.25000       0.16099
    2299.50000      51.04972       2.60693      17.50000      49.61494       0.63464     301.79712     107.81884       0.62127      18.04539      18.12004      18.07358      18.30277    2161.50024      17.90260       0.04534       0.74888    -999.25000      45.08206       1.75635     128.22293     128.42627      70.42258      -0.15846       0.00390    6202.69287    3202.69287    -999.25000       0.16200
    2299.00000      48.74088       2.61086      17.50000      49.42622       0.63255     301.87527     107.55195       0.62063      18.01301      18.12004      18.06822      18.29116    2205.00000      17.90260       0.04506       0.75360    -999.25000      45.16677       1.74706     127.65747     127.89289      70.56687      -0.18425       0.00408    6200.97070    3200.97095    -999.25000       0.16302
    2298.50000      49.51757       2.59590      17.50000      49.33585       0.63086     301.94894     107.38789       0.62063      18.04539      18.13055      18.10248      18.29116    2161.33350      17.91348       0.04470       0.75591    -999.25000      45.17606       1.78771     126.90961     127.44029      70.62906      -0.41729       0.00236    6199.49023    3199.49023    -999.25000       0.16346
    2298.00000      48.81364       2.59131      17.50000      49.16923       0.62953     302.02338     107.14684       0.61984      18.01582      18.12004      18.07152      18.28527    2203.66675      17.91348       0.04449       0.75149    -999.25000      45.23091       1.84222     126.84528     127.60680      70.69155      -0.59856       0.00147    6197.65332    3197.65332    -999.25000       0.16390
    2297.50000      48.68003       2.58549      17.50000      49.02168       0.62850     302.10159     106.92106       0.62018      18.01537      18.12004      18.10248      18.29688    2166.25000      17.90260       0.04439       0.74148    -999.25000      45.29483       1.88228     128.94731     128.89958      70.71864       0.03702       0.00533    6195.33984    3195.33936    -999.25000       0.16409
    2297.00000      45.22166       2.58050      17.50000      48.85205       0.62769     302.18927     106.66372       0.61906      17.98340      18.10954      18.13018      18.29670    2195.00000      17.90260       0.04426       0.73458    -999.25000      45.37302       1.89241     129.28934     129.56625      70.73123      -0.21395       0.01180    6193.25391    3193.25391    -999.25000       0.16418
    2296.50000      42.46886       2.58413      17.50000      48.67867       0.62702     302.28391     106.39569       0.61872      18.04539      18.09309      18.10248      18.31419    2186.66675      17.90260       0.04400       0.73337    -999.25000      45.47587       1.90690     128.93388     129.88672      70.70895      -0.73629       0.01504    6191.00488    3191.00439    -999.25000       0.16402
    2296.00000      40.40481       2.58679      17.50000      48.47402       0.62641     302.38269     106.09225       0.61803      17.98580      18.12004      18.13343      18.29670    2155.75000      17.92438       0.04363       0.73137    -999.25000      45.59598       1.94385     129.01042     129.77650      70.54498      -0.59206       0.01885    6188.01172    3188.01147    -999.25000       0.16286
    2295.50000      41.74289       2.59387      17.50000      48.30468       0.62580     302.48224     105.82335       0.61725      18.04539      18.08884      18.10248      18.30832    2155.66675      17.88082       0.04334       0.73272    -999.25000      45.76824       1.98425     129.47548     129.08748      70.46459       0.30012       0.02255    6185.41992    3185.41992    -999.25000       0.16229
    2295.00000      41.10857       2.58328      17.50000      48.18551       0.62512     302.57779     105.60862       0.61707      18.04539      18.07832      18.10248      18.30812    2160.50000      17.90260       0.04315       0.73592    -999.25000      45.97547       2.01010     129.31967     128.98708      70.44946       0.25752       0.02379    6183.32422    3183.32422    -999.25000       0.16219
    2294.50000      41.53199       2.56824      17.50000      48.12952       0.62433     302.65900     105.47139       0.61599      18.01301      18.08259      18.09921      18.30832    2165.75000      17.90260       0.04287       0.73994    -999.25000      46.18090       2.03753     128.07932     127.95057      70.44783       0.10057       0.02292    6181.30176    3181.30225    -999.25000       0.16218
    2294.00000      41.27137       2.56091      17.50000      48.10852       0.62339     302.72198     105.38741       0.61411      17.98295      18.06173      18.06822      18.28527    2174.33350      17.89171       0.04244       0.74653    -999.25000      46.36084       2.03455     127.21789     127.08245      70.32185       0.10652       0.03166    6179.38086    3179.38135    -999.25000       0.16129
    2293.50000      45.88333       2.56736      17.50000      48.18898       0.62228     302.76172     105.42812       0.61314      18.01478      18.05745      18.06822      18.28527    2142.33325      17.90260       0.04225       0.75227    -999.25000      46.53693       1.94863     124.77686     125.72857      70.08198      -0.75983       0.04263    6177.19482    3177.19482    -999.25000       0.15959
    2293.00000      48.77448       2.58517      17.50000      48.35278       0.62096     302.77795     105.57569       0.61164      17.98521      18.06797      18.06822      18.28527    2163.25000      17.89171       0.04202       0.75781    -999.25000      46.70364       1.84722     124.23184     125.13503      69.81284      -0.72439       0.04417    6174.34814    3174.34814    -999.25000       0.15769
    2292.50000      49.93085       2.59876      17.50000      48.57480       0.61942     302.76877     105.80690       0.61061      17.98535      18.05745      18.13343      18.27974    2135.75000      17.88082       0.04172       0.76576    -999.25000      46.84634       1.80259     124.88377     124.40229      69.50536       0.38628       0.04703    6171.37842    3171.37842    -999.25000       0.15551
    2292.00000      49.87414       2.60346      17.50000      48.77287       0.61762     302.73828     106.03545       0.60819      17.95622      18.05745      18.10248      18.28527    2143.66675      17.86993       0.04155       0.77406    -999.25000      47.00563       1.76456     125.13227     124.79698      69.30588       0.26831       0.05238    6168.27783    3168.27783    -999.25000       0.15411
    2291.50000      50.43148       2.62114      17.50000      48.95324       0.61559     302.69440     106.25974       0.60554      17.98473      18.04103      18.09921      18.28527    2161.75000      17.86993       0.04124       0.77762    -999.25000      47.14575       1.71681     126.10255     125.13688      69.17925       0.76872       0.05654    6165.26953    3165.26953    -999.25000       0.15321
    2291.00000      54.35888       2.63970      17.50000      49.20186       0.61336     302.64215     106.56061       0.60263      18.04361      18.04103      18.10248      18.27383    2136.50000      17.88082       0.04104       0.77794    -999.25000      47.26204       1.69457     126.01778     125.51765      69.16176       0.39766       0.05829    6162.68018    3162.68018    -999.25000       0.15309
    2290.50000      55.29042       2.64252      17.50000      49.25356       0.61097     302.59113     106.66333       0.60023      18.01360      18.07240      18.10248      18.27383    2180.25000      17.90260       0.04114       0.77782    -999.25000      47.35963       1.68039     125.29541     125.31052      69.08385      -0.01206       0.05888    6159.00488    3159.00488    -999.25000       0.15254
