~VERSION
 VERS.        2.00                                                                   :CWLS LOG ASCII STANDARD
 WRAP.        NO                                                                     :NO WRAP PERFORMED
 PROD.        Schlumberger                                                           :LAS Producer
 CREA.        Tue May 19 09:28:59 2015                                               :LAS Creation Date and time
~Well
#MNEM.UNIT    VALUE                                                                   :DESCRIPTION
#----.----    ---------------                                                        :-------------------
 STRT.F       5210.000                                                               :START DEPTH
 STOP.F       350.000                                                                :STOP  DEPTH
 STEP.F       -0.500                                                                 :DEPTH STEP
 NULL.        -999.250                                                               :NULL VALUE
 COMP.        ADM Company                                                            :COMPANY NAME
 WELL.        CCS#2                                                                  :WELL NAME
 FLD.         WILDCAT                                                                :FIELD NAME
 API.         12-115-23713                                                           :API NUMBER
 CNTY.        MACON                                                                  :COUNTY
 STAT.        ILLINOIS                                                               :STATE
 CTRY.        US                                                                     :COUNTRY
 LOC.         Latitude: 39.885961                                                    :WELL SURFACE LOCATION LINE 1
 LOC2.        Longitude: -88.888044                                                  :WELL SURFACE LOCATION LINE 2
 LOC3.                                                                               :WELL SURFACE LOCATION LINE 3
 SECT.        32                                                                     :SECTION
 TOWN.        17N                                                                    :TOWNSHIP
 RANG.        3E                                                                     :RANGE
 LATI.        39deg 53' 9.46" N                                                      :Latitude
 LONG.        88deg 53' 16.958" W                                                    :Longitude
 DATE.        2014/05/03                                                             :LOGGING DATE
 SRVC.        Schlumberger                                                           :SERVICE COMPANY
~Parameter
#MNEM.UNIT    VALUE                                                                  :DESCRIPTION
#----.----    ---------------                                                        :-------------------
 APD.F        15.500                                                                 :Elevation of depth reference above permanent datum
 EDF.F        691.200                                                                :Elevation of Derrick Floor
 EGL.F        675.700                                                                :Elevation of Ground Level
 EKB.F        691.200                                                                :Elevation of Kelly Bushing
 EPD.F        675.700                                                                :Elevation of Permnaent Datum
 LMF.         KB                                                                     :Logging Measured From
 PDAT.        GL                                                                     :Permanent Datum
 TDD.F        5251.000                                                               :Total Depth Driller
 TDL.F        5252.000                                                               :Total Depth Logger
 BS.IN        17.500                                                                 :Bit Size
 R1.                                                                                 :REMARK 1
 R2.                                                                                 :REMARK 2
 R3.                                                                                 :REMARK 3
 R4.                                                                                 :REMARK 4
 R5.                                                                                 :REMARK 5
 R6.                                                                                 :REMARK 6
 R7.                                                                                 :REMARK 7
 R8.                                                                                 :REMARK 8
 R9.                                                                                 :REMARK 9
 R10.                                                                                :REMARK 10
 DCS_CENTER.  Denver                                                                 :Schlumberger DCS Center
 LOG_ANALYST. Maxwell                                                                :Log Analyst Name
 ENG.         Yazan Alhabahbeh                                                       :Field Engineer Name
 GF_BASELINE. GF45                                                                   :GeoFrame Baseline
~Curve
#MNEM.UNIT                                                                           :DESCRIPTION
#----.----                                                                           :--------------------------------
 DEPT.F                                                                              :Depth Index
 GR.GAPI                                                                             : 1 Gamma Ray                                                                                 
 RHOZ.G/C3                                                                           : 2 HRDD Standard Resolution Formation Density                                                
 BS.IN                                                                               : 3 Bit Size                                                                                  
 P1AZ.DEG                                                                            : 4 Pad 1 Azimuth in Horizontal Plane (0 = True North)                                        
 SDEVM.DEG                                                                           : 5 Memorized Sonde Deviation                                                                 
 HAZIM.DEG                                                                           : 6 Memorized Hole Azimuth Relative to True North                                             
 RB.DEG                                                                              : 7 Relative Bearing                                                                          
 DEVI.DEG                                                                            : 8 Hole Deviation                                                                            
 HD1_PPC1.IN                                                                         : 9 PPC1 Hole Diameter 1                                                                      
 HD1_PPC2.IN                                                                         :10 PPC2 Hole Diameter 1                                                                      
 HD2_PPC1.IN                                                                         :11 PPC1 Hole Diameter 2                                                                      
 HD2_PPC2.IN                                                                         :12 PPC2 Hole Diameter 2                                                                      
 TENS.LBS                                                                            :13 Cable Tension                                                                             
 HDAR.IN                                                                             :14 Hole Diameter from Area                                                                   
 MINXENE_OVERALL.                                                                    :15 Overall estimate of minimum cross energy                                                  
 MAXXENE_OVERALL.                                                                    :16 Overall estimate of maximum cross energy                                                  
 FSH_AZIM_OVERALL_FILT.DEG                                                           :17 Overall estimate of fast shear azimuth filtered                                           
 FSH_AZIM_OVERALL.DEG                                                                :18 Overall estimate of fast shear azimuth                                                    
 FSH_AZIM_ERR.DEG                                                                    :19 Fast shear azimuth error                                                                  
 DTSM_SLOW.US/F                                                                      :20 Shear Slowness of Slow Shear Waves                                                        
 DTSM_FAST.US/F                                                                      :21 Shear Slowness of Fast Shear Waves                                                        
 DTCO.US/F                                                                           :22 Delta-T Compressional                                                                     
 SLOANI.                                                                             :23 Slowness based anisotropy                                                                 
 TIMANI.                                                                             :24 Time based anisotropy                                                                     
 TWE.US                                                                              :25 Time window end                                                                           
 TWB.US                                                                              :26 Time window begin                                                                         
 FLAG.                                                                               :27 General Indicator Flag                                                                    
 SPHI.ft3/ft3                                                                        :28 Sonic Porosity                                                                            
~Ascii   DEPT            GR          RHOZ            BS          P1AZ         SDEVM         HAZIM            RB          DEVI      HD1_PPC1      HD1_PPC2      HD2_PPC1      HD2_PPC2          TENS          HDAR  MINXENE_OVER  MAXXENE_OVER  FSH_AZIM_OVE  FSH_AZIM_OVE  FSH_AZIM_ERR     DTSM_SLOW     DTSM_FAST          DTCO        SLOANI        TIMANI           TWE           TWB          FLAG          SPHI
# ...
    1980.00000      18.67796       2.71439      17.50000      85.39473       0.91336     316.94363     128.45465       0.89072      17.83605      17.90513      18.07358      18.24525    2105.33325      17.57592       0.11594       1.46242    -999.25000      74.76260       4.08256     102.81899     101.67724      51.19254       1.11665       0.54139    5957.73633    2957.73633    -999.25000       0.02610
    1979.50000      19.44839       2.70887      17.50000      86.14233       0.90705     316.69354     129.45232       0.88645      17.83351      17.86917      18.07027      18.19290    2114.00000      17.48881       0.11236       0.88878    -999.25000      75.88913       3.98008     101.52074     100.70831      50.79085       0.80348       0.42358    5948.10352    2948.10352    -999.25000       0.02326
    1979.00000      20.47036       2.70701      17.50000      87.06487       0.90097     316.47086     130.59750       0.87838      17.83605      17.87381      18.07358      18.18745    2115.75000      17.48881       0.10973       0.74550    -999.25000      76.69452       3.85584     101.49654     101.10394      51.41053       0.38756       0.35563    5938.35156    2938.35132    -999.25000       0.02764
    1978.50000      23.22607       2.70129      17.50000      88.09021       0.89521     316.27130     131.82240       0.87113      17.80340      17.86326      18.01035      18.18125    2028.75012      17.46703       0.11032       0.75561    -999.25000      77.04265       3.81639     102.23611     101.97494      53.43268       0.25578       0.31547    5931.79102    2931.79077    -999.25000       0.04193
    1978.00000      25.58175       2.69111      17.50000      88.77708       0.88990     316.09332     132.68721       0.86563      17.83605      17.85286      18.01035      18.19290    2119.00024      17.44525       0.11170       0.77798    -999.25000      77.47370       3.83055     103.01723     102.84038      55.39651       0.17182       0.30802    5930.39844    2930.39844    -999.25000       0.05581
    1977.50000      28.13825       2.69775      17.50000      89.22280       0.88520     315.93826     133.28796       0.86020      17.83351      17.84231      17.95243      18.18125    2170.66675      17.48881       0.11178       0.78164    -999.25000      77.86898       3.62421     103.23077     103.31134      56.02157      -0.07801       0.29716    5933.62744    2933.62744    -999.25000       0.06022
    1977.00000      26.25679       2.69248      17.50000      89.86426       0.88125     315.80234     134.06532       0.85853      17.83605      17.86917      18.01370      18.19909    2062.25024      17.47792       0.11044       0.78693    -999.25000      78.16533       3.20392     103.80175     103.67558      56.56234       0.12163       0.29376    5938.60059    2938.60059    -999.25000       0.06404
    1976.50000      26.16426       2.68424      17.50000      90.15086       0.87819     315.69308     134.46114       0.85659      17.80645      17.88403      17.98478      18.21035    2125.50000      17.51059       0.10878       0.80512    -999.25000      78.25438       2.94648     105.70873     104.84595      56.55854       0.81953       0.33839    5943.52051    2943.52051    -999.25000       0.06402
    1976.00000      24.33313       2.67114      17.50000      90.50096       0.87608     315.62219     134.88211       0.85774      17.83351      17.86917      17.95039      18.15287    2182.66675      17.48881       0.10719       0.82139    -999.25000      78.30518       3.00322     107.33774     107.08675      56.16040       0.23410       0.36950    5949.29150    2949.29175    -999.25000       0.06120
    1975.50000      24.89113       2.66018      17.50000      90.54786       0.87491     315.59308     134.95813       0.85857      17.80645      17.83763      17.98478      18.18125    2095.75000      17.46703       0.10577       0.80439    -999.25000      78.41106       3.08599     108.14157     107.88371      56.41518       0.23874       0.33646    5955.56836    2955.56836    -999.25000       0.06300
    1975.00000      27.00805       2.66066      17.50000      90.62729       0.87462     315.62045     135.01016       0.86068      17.80340      17.86326      17.98139      18.24525    2181.50000      17.42347       0.10593       0.78644    -999.25000      78.50553       3.03136     107.31746     107.71356      57.55102      -0.36841       0.30267    5962.60156    2962.60107    -999.25000       0.07103
    1974.50000      27.94000       2.67084      17.50000      90.94492       0.87509     315.71448     135.23378       0.86387      17.77684      17.88420      17.98478      18.14644    2133.25000      17.44525       0.10658       0.79839    -999.25000      78.95382       3.03141     104.57323     105.13674      58.59633      -0.53742       0.28979    5970.30371    2970.30371    -999.25000       0.07842
    1974.00000      28.49536       2.67441      17.50000      91.22881       0.87623     315.88681     135.34535       0.86573      17.80524      17.83763      17.92143      18.11826    2104.00000      17.51059       0.10787       0.77263    -999.25000      79.51312       3.03873     105.28793     105.94807      58.99277      -0.62503       0.26488    5978.58789    2978.58838    -999.25000       0.08122
    1973.50000      29.39231       2.66387      17.50000      91.32680       0.87795     316.14316     135.18700       0.86730      17.77378      17.82135      17.94833      18.18125    2091.66675      17.48881       0.10886       0.72309    -999.25000      79.61438       3.00224     105.43308     107.10735      59.97101      -1.57548       0.24591    5986.91211    2986.91211    -999.25000       0.08813
    1973.00000      29.24590       2.63670      17.50000      90.97665       0.88025     316.49612     134.48392       0.86810      17.80645      17.86616      17.98478      18.17599    2089.50000      17.46703       0.10949       0.71138    -999.25000      79.48376       3.02176     106.53345     107.99789      60.56970      -1.36525       0.24698    5994.16309    2994.16357    -999.25000       0.09237
    1972.50000      32.44539       2.61367      17.50000      90.99744       0.88319     316.95090     134.04994       0.87082      17.83351      17.87957      17.98139      18.18125    2091.50000      17.49970       0.11137       0.71463    -999.25000      79.54826       3.09117     107.67271     108.57974      59.78581      -0.83887       0.24247    6000.07715    3000.07739    -999.25000       0.08683
    1972.00000      32.16545       2.60159      17.50000      91.07388       0.88690     317.51108     133.56624       0.87287      17.77564      17.86917      17.95039      18.19909    2055.00000      17.47792       0.11347       0.71317    -999.25000      79.71205       3.09325     107.74838     107.24483      61.29966       0.46844       0.23133    6005.26172    3005.26196    -999.25000       0.09752
    1971.50000      33.28038       2.61393      17.50000      90.89716       0.89156     318.18021     132.72041       0.87727      17.80459      17.91107      17.92487      18.22766    2068.75000      17.53236       0.11494       0.72161    -999.25000      79.92198       3.06916     109.01248     106.91654      62.64119       1.94132       0.23406    6010.23926    3010.23877    -999.25000       0.10700
    1971.00000      33.14167       2.65241      17.50000      90.83429       0.89737     318.95444     131.88335       0.88499      17.80388      17.88726      17.95039      18.22218    2063.25000      17.48881       0.11707       0.73276    -999.25000      80.15282       3.09349     110.20757     108.18816      63.42294       1.84931       0.23598    6015.54004    3015.53955    -999.25000       0.11253
    1970.50000      32.93518       2.66512      17.50000      90.65414       0.90450     319.82471     130.83296       0.89423      17.80340      17.90496      17.95039      18.22747    2086.50000      17.51059       0.11951       0.72818    -999.25000      80.14709       3.06491     111.13377     110.66828      63.88829       0.41973       0.20992    6021.55273    3021.55225    -999.25000       0.11582
