~VERSION
 VERS.        2.00                                                                   :CWLS LOG ASCII STANDARD
 WRAP.        NO                                                                     :NO WRAP PERFORMED
 PROD.        Schlumberger                                                           :LAS Producer
 CREA.        Tue May 19 09:28:59 2015                                               :LAS Creation Date and time
~Well
#MNEM.UNIT    VALUE                                                                   :DESCRIPTION
#----.----    ---------------                                                        :-------------------
 STRT.F       5210.000                                                               :START DEPTH
 STOP.F       350.000                                                                :STOP  DEPTH
 STEP.F       -0.500                                                                 :DEPTH STEP
 NULL.        -999.250                                                               :NULL VALUE
 COMP.        ADM Company                                                            :COMPANY NAME
 WELL.        CCS#2                                                                  :WELL NAME
 FLD.         WILDCAT                                                                :FIELD NAME
 API.         12-115-23713                                                           :API NUMBER
 CNTY.        MACON                                                                  :COUNTY
 STAT.        ILLINOIS                                                               :STATE
 CTRY.        US                                                                     :COUNTRY
 LOC.         Latitude: 39.885961                                                    :WELL SURFACE LOCATION LINE 1
 LOC2.        Longitude: -88.888044                                                  :WELL SURFACE LOCATION LINE 2
 LOC3.                                                                               :WELL SURFACE LOCATION LINE 3
 SECT.        32                                                                     :SECTION
 TOWN.        17N                                                                    :TOWNSHIP
 RANG.        3E                                                                     :RANGE
 LATI.        39deg 53' 9.46" N                                                      :Latitude
 LONG.        88deg 53' 16.958" W                                                    :Longitude
 DATE.        2014/05/03                                                             :LOGGING DATE
 SRVC.        Schlumberger                                                           :SERVICE COMPANY
~Parameter
#MNEM.UNIT    VALUE                                                                  :DESCRIPTION
#----.----    ---------------                                                        :-------------------
 APD.F        15.500                                                                 :Elevation of depth reference above permanent datum
 EDF.F        691.200                                                                :Elevation of Derrick Floor
 EGL.F        675.700                                                                :Elevation of Ground Level
 EKB.F        691.200                                                                :Elevation of Kelly Bushing
 EPD.F        675.700                                                                :Elevation of Permnaent Datum
 LMF.         KB                                                                     :Logging Measured From
 PDAT.        GL                                                                     :Permanent Datum
 TDD.F        5251.000                                                               :Total Depth Driller
 TDL.F        5252.000                                                               :Total Depth Logger
 BS.IN        17.500                                                                 :Bit Size
 R1.                                                                                 :REMARK 1
 R2.                                                                                 :REMARK 2
 R3.                                                                                 :REMARK 3
 R4.                                                                                 :REMARK 4
 R5.                                                                                 :REMARK 5
 R6.                                                                                 :REMARK 6
 R7.                                                                                 :REMARK 7
 R8.                                                                                 :REMARK 8
 R9.                                                                                 :REMARK 9
 R10.                                                                                :REMARK 10
 DCS_CENTER.  Denver                                                                 :Schlumberger DCS Center
 LOG_ANALYST. Maxwell                                                                :Log Analyst Name
 ENG.         Yazan Alhabahbeh                                                       :Field Engineer Name
 GF_BASELINE. GF45                                                                   :GeoFrame Baseline
~Curve
#MNEM.UNIT                                                                           :DESCRIPTION
#----.----                                                                           :--------------------------------
 DEPT.F                                                                              :Depth Index
 GR.GAPI                                                                             : 1 Gamma Ray                                                                                 
 RHOZ.G/C3                                                                           : 2 HRDD Standard Resolution Formation Density                                                
 BS.IN                                                                               : 3 Bit Size                                                                                  
 P1AZ.DEG                                                                            : 4 Pad 1 Azimuth in Horizontal Plane (0 = True North)                                        
 SDEVM.DEG                                                                           : 5 Memorized Sonde Deviation                                                                 
 HAZIM.DEG                                                                           : 6 Memorized Hole Azimuth Relative to True North                                             
 RB.DEG                                                                              : 7 Relative Bearing                                                                          
 DEVI.DEG                                                                            : 8 Hole Deviation                                                                            
 HD1_PPC1.IN                                                                         : 9 PPC1 Hole Diameter 1                                                                      
 HD1_PPC2.IN                                                                         :10 PPC2 Hole Diameter 1                                                                      
 HD2_PPC1.IN                                                                         :11 PPC1 Hole Diameter 2                                                                      
 HD2_PPC2.IN                                                                         :12 PPC2 Hole Diameter 2                                                                      
 TENS.LBS                                                                            :13 Cable Tension                                                                             
 HDAR.IN                                                                             :14 Hole Diameter from Area                                                                   
 MINXENE_OVERALL.                                                                    :15 Overall estimate of minimum cross energy                                                  
 MAXXENE_OVERALL.                                                                    :16 Overall estimate of maximum cross energy                                                  
 FSH_AZIM_OVERALL_FILT.DEG                                                           :17 Overall estimate of fast shear azimuth filtered                                           
 FSH_AZIM_OVERALL.DEG                                                                :18 Overall estimate of fast shear azimuth                                                    
 FSH_AZIM_ERR.DEG                                                                    :19 Fast shear azimuth error                                                                  
 DTSM_SLOW.US/F                                                                      :20 Shear Slowness of Slow Shear Waves                                                        
 DTSM_FAST.US/F                                                                      :21 Shear Slowness of Fast Shear Waves                                                        
 DTCO.US/F                                                                           :22 Delta-T Compressional                                                                     
 SLOANI.                                                                             :23 Slowness based anisotropy                                                                 
 TIMANI.                                                                             :24 Time based anisotropy                                                                     
 TWE.US                                                                              :25 Time window end                                                                           
 TWB.US                                                                              :26 Time window begin                                                                         
 FLAG.                                                                               :27 General Indicator Flag                                                                    
 SPHI.ft3/ft3                                                                        :28 Sonic Porosity                                                                            
~Ascii   DEPT            GR          RHOZ            BS          P1AZ         SDEVM         HAZIM            RB          DEVI      HD1_PPC1      HD1_PPC2      HD2_PPC1      HD2_PPC2          TENS          HDAR  MINXENE_OVER  MAXXENE_OVER  FSH_AZIM_OVE  FSH_AZIM_OVE  FSH_AZIM_ERR     DTSM_SLOW     DTSM_FAST          DTCO        SLOANI        TIMANI           TWE           TWB          FLAG          SPHI
# ...
    2620.00000      77.02656       1.40837      17.50000     340.94385       1.20888     131.41505     209.52335       1.17760      30.83040      18.58014      18.22103      18.42336    2220.00024      23.60854       0.25312      14.80196      64.84843      64.84843       1.14851     177.08734     171.87718      89.78959       2.98607       1.66909    6439.94727    3439.94751       1.00000       0.29887
    2619.50000      77.30586       1.44382      17.50000     340.95493       1.20952     131.41965     209.52982       1.17630      30.85252      18.59703      18.25306      18.42336    2221.50000      23.60854       0.20232      14.71474    -999.25000      64.95006       1.18442     175.42323     172.92567      89.99139       1.43394       1.71958    6400.66211    3400.66211       1.00000       0.30029
    2619.00000      74.88780       1.49679      17.50000     341.13864       1.20955     131.42552     209.70763       1.17561      30.85157      18.58662      18.22007      18.40633    2227.33325      23.58676       0.17129      14.58128    -999.25000      65.07207       1.19876     175.42323     172.59375      86.92499       1.62606       1.77413    6375.64160    3375.64160       1.00000       0.27862
    2618.50000      78.59458       1.53578      17.50000     340.86005       1.20915     131.43005     209.42453       1.17448      31.02357      18.59703      18.24579      18.42336    2204.66675      23.60854       0.18824      15.41914    -999.25000      65.08200       1.24978     170.73601     169.50375      86.03606       0.72434       1.93458    6350.59033    3350.59033       1.00000       0.27234
    2618.00000      80.19162       1.54989      17.50000     340.67300       1.20843     131.45050     209.21707       1.17364      30.29347      18.59703      18.24893      18.42336    2203.33325      23.58676       0.23574      16.96297    -999.25000      65.08168       1.33420     171.61433     168.71213      85.83035       1.70554       2.16236    6311.26416    3311.26416       1.00000       0.27089
    2617.50000      80.78521       1.51281      17.50000     340.59357       1.20746     131.47961     209.10854       1.17204      31.12052      18.59036      18.15704      18.41196    2309.00024      23.58676       0.28639      17.36234    -999.25000      65.07168       1.31484     169.58281     168.71213      86.07726       0.51475       2.28632    6282.87598    3282.87598       1.00000       0.27263
    2617.00000      79.63525       1.42440      17.50000     339.48486       1.20629     131.51500     207.96458       1.17123      31.71434      18.58662      18.16025      18.42336    2433.33325      23.58676       0.32186      16.83472    -999.25000      65.22809       1.37088     169.78584     168.03900      86.82793       1.03417       2.34507    6257.50146    3257.50146       1.00000       0.27794
    2616.50000      84.64114       1.34962      17.50000     339.52863       1.20492     131.56361     207.95978       1.17082      28.40503      18.59703      18.22007      18.38897    2217.50000      23.58676       0.33327      16.55161    -999.25000      65.57982       1.71937     169.78584     167.59360      87.35014       1.29957       2.40851    6220.60352    3220.60376       1.00000       0.28163
    2616.00000      84.96703       1.43926      17.50000     339.59305       1.20332     131.61255     207.97525       1.17125      20.99261      18.59054      18.12929      18.37179    2343.66650      23.34719       0.33620      15.95459    -999.25000      66.07838       2.13480     169.78584     168.51814      85.59846       0.74944       2.39499    6185.20508    3185.20459       1.00000       0.26925
    2615.50000      78.98920       1.70519      17.50000     339.54529       1.20148     131.66270     207.87737       1.17466      18.63717      18.46663      18.09505      18.37738    2300.66675      21.80093       0.40632      15.71341    -999.25000      66.45605       2.18899     156.25145     163.36832      81.96139      -4.45333       2.41443    6151.91699    3151.91699    -999.25000       0.24354
    2615.00000      65.91068       1.99396      17.50000     339.54306       1.19939     131.71342     207.82445       1.17257      18.42894      18.34869      18.12605      18.34296    2338.00000      18.86085       0.52858      15.93974    -999.25000      66.58493       2.03278     142.34639     140.80226      76.65891       1.09068       2.48147    6118.20508    3118.20508    -999.25000       0.20607
    2614.50000      52.34577       2.28592      17.50000     339.48566       1.19705     131.75752     207.72298       1.16970      18.36945      18.30090      18.12605      18.31455    2324.66675      17.83726       0.60301      16.66521    -999.25000      66.62415       1.93224     129.98634     127.72313      66.93189       1.75641       2.56602    6085.53369    3085.53369    -999.25000       0.13733
    2614.00000      44.70287       2.49710      17.50000     339.52951       1.19448     131.80110     207.72328       1.16647      18.30995      18.24908      18.12605      18.30850    2329.00000      18.18571       0.64129      18.60466      66.59598      66.59598       1.90084     117.62629     114.64398      59.22870       2.56796       2.75977    6048.55371    3048.55371    -999.25000       0.08289
    2613.50000      36.98548       2.68620      17.50000     339.50204       1.19174     131.83545     207.66148       1.16320      18.28043      18.26561      18.06614      18.30850    2345.33325      18.16394       0.66421      21.03087    -999.25000      66.62425       1.90354     103.52988     101.56483      54.68446       1.91623       3.00894    6012.52637    3012.52637    -999.25000       0.05077
    2613.00000      34.65305       2.73826      17.50000     339.57407       1.18887     131.86530     207.70369       1.16039      18.28043      18.23450      18.06822      18.30295    2340.66675      18.09860       0.66541      22.61454      66.67107      66.67107       1.96457      96.47060      92.44534      51.80699       4.26142       3.12378    5982.48730    2982.48730    -999.25000       0.03044
    2612.50000      29.14132       2.72853      17.50000     339.57806       1.18594     131.89040     207.68262       1.15826      18.28043      18.22830      18.09505      18.27992    2376.00000      18.09860       0.63928      22.42995      66.70268      66.70268       2.02412      94.65361      88.50152      50.93773       6.71790       2.98985    5937.93848    2937.93872    -999.25000       0.02429
    2612.00000      27.01989       2.72263      17.50000     339.62665       1.18304     131.91202     207.70959       1.15466      18.25042      18.22402      18.03512      18.27400    2356.25000      18.09860       0.59289      21.21320      66.83551      66.83551       2.09088      94.44292      88.66293      50.36184       6.31328       2.74702    5863.50586    2863.50562    -999.25000       0.02023
    2611.50000      24.07290       2.72221      17.50000     339.63470       1.18022     131.93016     207.69954       1.15304      18.28043      18.20321      18.03722      18.27400    2332.66675      18.05504       0.54164      20.37279      66.92149      66.92149       2.36450      95.84941      90.61619      49.38880       5.61307       2.58528    5797.36621    2797.36597    -999.25000       0.01335
    2611.00000      23.95388       2.72522      17.50000     339.72537       1.17755     131.94528     207.77510       1.14982      18.28043      18.17623      18.03512      18.26238    2337.50024      18.03327       0.50521      19.78214      66.74562      66.74562       2.44584      97.33619      91.34204      48.83458       6.35383       2.49969    5766.99854    2766.99854    -999.25000       0.00943
    2610.50000      23.13710       2.72218      17.50000     339.68390       1.17507     131.96069     207.71823       1.14819      18.28043      18.16607      18.00620      18.24542    2300.66650      18.03327       0.48000      18.22174      66.39046      66.39046       2.35186      98.09910      91.53419      48.81898       6.92379       2.21271    5752.43555    2752.43579    -999.25000       0.00932
