~VERSION
 VERS.        2.00                                                                   :CWLS LOG ASCII STANDARD
 WRAP.        NO                                                                     :NO WRAP PERFORMED
 PROD.        Schlumberger                                                           :LAS Producer
 CREA.        Tue May 19 09:28:59 2015                                               :LAS Creation Date and time
~Well
#MNEM.UNIT    VALUE                                                                   :DESCRIPTION
#----.----    ---------------                                                        :-------------------
 STRT.F       5210.000                                                               :START DEPTH
 STOP.F       350.000                                                                :STOP  DEPTH
 STEP.F       -0.500                                                                 :DEPTH STEP
 NULL.        -999.250                                                               :NULL VALUE
 COMP.        ADM Company                                                            :COMPANY NAME
 WELL.        CCS#2                                                                  :WELL NAME
 FLD.         WILDCAT                                                                :FIELD NAME
 API.         12-115-23713                                                           :API NUMBER
 CNTY.        MACON                                                                  :COUNTY
 STAT.        ILLINOIS                                                               :STATE
 CTRY.        US                                                                     :COUNTRY
 LOC.         Latitude: 39.885961                                                    :WELL SURFACE LOCATION LINE 1
 LOC2.        Longitude: -88.888044                                                  :WELL SURFACE LOCATION LINE 2
 LOC3.                                                                               :WELL SURFACE LOCATION LINE 3
 SECT.        32                                                                     :SECTION
 TOWN.        17N                                                                    :TOWNSHIP
 RANG.        3E                                                                     :RANGE
 LATI.        39deg 53' 9.46" N                                                      :Latitude
 LONG.        88deg 53' 16.958" W                                                    :Longitude
 DATE.        2014/05/03                                                             :LOGGING DATE
 SRVC.        Schlumberger                                                           :SERVICE COMPANY
~Parameter
#MNEM.UNIT    VALUE                                                                  :DESCRIPTION
#----.----    ---------------                                                        :-------------------
 APD.F        15.500                                                                 :Elevation of depth reference above permanent datum
 EDF.F        691.200                                                                :Elevation of Derrick Floor
 EGL.F        675.700                                                                :Elevation of Ground Level
 EKB.F        691.200                                                                :Elevation of Kelly Bushing
 EPD.F        675.700                                                                :Elevation of Permnaent Datum
 LMF.         KB                                                                     :Logging Measured From
 PDAT.        GL                                                                     :Permanent Datum
 TDD.F        5251.000                                                               :Total Depth Driller
 TDL.F        5252.000                                                               :Total Depth Logger
 BS.IN        17.500                                                                 :Bit Size
 R1.                                                                                 :REMARK 1
 R2.                                                                                 :REMARK 2
 R3.                                                                                 :REMARK 3
 R4.                                                                                 :REMARK 4
 R5.                                                                                 :REMARK 5
 R6.                                                                                 :REMARK 6
 R7.                                                                                 :REMARK 7
 R8.                                                                                 :REMARK 8
 R9.                                                                                 :REMARK 9
 R10.                                                                                :REMARK 10
 DCS_CENTER.  Denver                                                                 :Schlumberger DCS Center
 LOG_ANALYST. Maxwell                                                                :Log Analyst Name
 ENG.         Yazan Alhabahbeh                                                       :Field Engineer Name
 GF_BASELINE. GF45                                                                   :GeoFrame Baseline
~Curve
#MNEM.UNIT                                                                           :DESCRIPTION
#----.----                                                                           :--------------------------------
 DEPT.F                                                                              :Depth Index
 GR.GAPI                                                                             : 1 Gamma Ray                                                                                 
 RHOZ.G/C3                                                                           : 2 HRDD Standard Resolution Formation Density                                                
 BS.IN                                                                               : 3 Bit Size                                                                                  
 P1AZ.DEG                                                                            : 4 Pad 1 Azimuth in Horizontal Plane (0 = True North)                                        
 SDEVM.DEG                                                                           : 5 Memorized Sonde Deviation                                                                 
 HAZIM.DEG                                                                           : 6 Memorized Hole Azimuth Relative to True North                                             
 RB.DEG                                                                              : 7 Relative Bearing                                                                          
 DEVI.DEG                                                                            : 8 Hole Deviation                                                                            
 HD1_PPC1.IN                                                                         : 9 PPC1 Hole Diameter 1                                                                      
 HD1_PPC2.IN                                                                         :10 PPC2 Hole Diameter 1                                                                      
 HD2_PPC1.IN                                                                         :11 PPC1 Hole Diameter 2                                                                      
 HD2_PPC2.IN                                                                         :12 PPC2 Hole Diameter 2                                                                      
 TENS.LBS                                                                            :13 Cable Tension                                                                             
 HDAR.IN                                                                             :14 Hole Diameter from Area                                                                   
 MINXENE_OVERALL.                                                                    :15 Overall estimate of minimum cross energy                                                  
 MAXXENE_OVERALL.                                                                    :16 Overall estimate of maximum cross energy                                                  
 FSH_AZIM_OVERALL_FILT.DEG                                                           :17 Overall estimate of fast shear azimuth filtered                                           
 FSH_AZIM_OVERALL.DEG                                                                :18 Overall estimate of fast shear azimuth                                                    
 FSH_AZIM_ERR.DEG                                                                    :19 Fast shear azimuth error                                                                  
 DTSM_SLOW.US/F                                                                      :20 Shear Slowness of Slow Shear Waves                                                        
 DTSM_FAST.US/F                                                                      :21 Shear Slowness of Fast Shear Waves                                                        
 DTCO.US/F                                                                           :22 Delta-T Compressional                                                                     
 SLOANI.                                                                             :23 Slowness based anisotropy                                                                 
 TIMANI.                                                                             :24 Time based anisotropy                                                                     
 TWE.US                                                                              :25 Time window end                                                                           
 TWB.US                                                                              :26 Time window begin                                                                         
 FLAG.                                                                               :27 General Indicator Flag                                                                    
 SPHI.ft3/ft3                                                                        :28 Sonic Porosity                                                                            
~Ascii   DEPT            GR          RHOZ            BS          P1AZ         SDEVM         HAZIM            RB          DEVI      HD1_PPC1      HD1_PPC2      HD2_PPC1      HD2_PPC2          TENS          HDAR  MINXENE_OVER  MAXXENE_OVER  FSH_AZIM_OVE  FSH_AZIM_OVE  FSH_AZIM_ERR     DTSM_SLOW     DTSM_FAST          DTCO        SLOANI        TIMANI           TWE           TWB          FLAG          SPHI
# ...
    3920.00000      36.85352       2.70670      17.50000     265.18408       0.94763     305.28619     319.90176       0.91415      17.92458      17.94696      17.70828      18.26238    2647.00000      18.03327       0.55561       1.78822    -999.25000     -15.50755       9.75653      96.94243      97.88406      60.32553      -0.96664       0.67992    5732.11133    2732.11133    -999.25000       0.09064
    3919.50000      40.98409       2.69966      17.50000     264.69073       0.94004     305.12323     319.57129       0.90587      17.95421      18.02032      17.73934      18.22766    2672.00000      18.07682       0.60232       1.73665    -999.25000     -17.09737       9.81068      97.65408      97.07568      59.59470       0.59405       0.68509    5732.85547    2732.85547    -999.25000       0.08547
    3919.00000      46.20797       2.70417      17.50000     264.22470       0.93247     304.99701     319.23145       0.89788      18.04388      18.06812      17.73934      18.21072    2641.25000      18.05504       0.67001       1.70266    -999.25000     -19.25595       9.79542      97.60037      96.95223      59.04956       0.66629       0.68528    5734.18066    2734.18066    -999.25000       0.08162
    3918.50000      47.69587       2.71199      17.50000     263.45258       0.92496     304.91220     318.54410       0.88894      17.95703      18.12020      17.71193      18.16996    2658.75000      18.16394       0.71569       1.65015    -999.25000     -21.78763       9.57271      96.61308      96.95950      59.46322      -0.35793       0.67925    5733.95703    2733.95703    -999.25000       0.08455
    3918.00000      48.80538       2.70196      17.50000     262.39505       0.91762     304.86044     317.53827       0.88102      17.92458      18.00980      17.70828      18.16452    2632.75000      18.03327       0.71268       1.58558    -999.25000     -24.78355       8.83169      95.40237      96.55627      58.75346      -1.20224       0.67351    5732.86328    2732.86377    -999.25000       0.07953
    3917.50000      44.47495       2.69571      17.50000     262.11575       0.91053     304.84515     317.27420       0.87369      18.01386      18.09934      17.79938      18.29688    2659.00000      18.20749       0.71436       1.57365    -999.25000     -26.66088       8.26537      94.64178      95.47736      56.84240      -0.87901       0.67682    5731.59961    2731.60010    -999.25000       0.06602
    3917.00000      38.99467       2.68697      17.50000     261.42130       0.90379     304.85825     316.56659       0.86797      18.04622      17.96803      17.80294      18.20473    2577.75024      18.07682       0.72422       1.58184    -999.25000     -26.99542       8.11610      94.17574      94.12257      54.27465       0.05647       0.68293    5729.54492    2729.54517    -999.25000       0.04788
    3916.50000      32.97555       2.69442      17.50000     261.12778       0.89744     304.88684     316.24445       0.86282      17.89701      17.95325      17.80294      18.21620    2590.00024      17.92438       0.73134       1.56519    -999.25000     -27.72287       7.95708      96.79699      94.86542      52.80173       2.01560       0.68252    5726.83594    2726.83618    -999.25000       0.03747
    3916.00000      29.33279       2.68412      17.50000     260.67389       0.89146     304.91534     315.76199       0.85985      17.92458      17.92162      17.79938      18.32579    2622.25000      17.85904       0.73066       1.52266    -999.25000     -28.34784       7.85225      96.45409      96.16674      51.52308       0.29836       0.67203    5727.15723    2727.15698    -999.25000       0.02843
    3915.50000      25.82424       2.69266      17.50000     260.18637       0.88584     304.94153     315.24826       0.85547      17.89454      17.92162      17.82835      18.30832    2580.25000      18.03327       0.72706       1.47758    -999.25000     -28.63810       7.96056      94.85315      95.31333      50.95798      -0.48398       0.65657    5725.95410    2725.95386    -999.25000       0.02444
    3915.00000      27.12709       2.70924      17.50000     259.91113       0.88050     304.95059     314.96390       0.85258      17.86448      17.87381      17.82835      18.31974    2592.25000      17.85904       0.72225       1.45745    -999.25000     -28.63661       8.17543      93.72698      92.95647      52.29061       0.82548       0.64463    5722.56836    2722.56836    -999.25000       0.03386
    3914.50000      31.28080       2.71489      17.50000     259.52832       0.87540     304.93387     314.59778       0.84861      17.83442      17.89013      17.82835      18.12974    2577.00000      17.82637       0.70964       1.44622    -999.25000     -28.45026       8.37898      92.77760      92.60794      54.65929       0.18303       0.63609    5721.15332    2721.15283    -999.25000       0.05060
    3914.00000      39.23449       2.68916      17.50000     259.46667       0.87051     304.89346     314.57651       0.84359      17.83507      17.89490      17.77192      18.08361    2582.33325      17.81548       0.67170       1.38875    -999.25000     -28.26930       8.58941      92.43824      92.60794      55.96525      -0.18341       0.62324    5720.36914    2720.36914    -999.25000       0.05983
    3913.50000      43.52175       2.66751      17.50000     259.84814       0.86583     304.83005     315.02133       0.83831      17.83442      17.91138      17.73727      18.12992    2613.66675      17.75015       0.64946       1.31165    -999.25000     -27.72904       9.01207      92.62388      92.98219      55.44258      -0.38610       0.60227    5721.01367    2721.01343    -999.25000       0.05613
    3913.00000      43.65640       2.64254      17.50000     259.57877       0.86143     304.74167     314.84033       0.83249      17.86510      17.88436      17.77398      18.16484    2582.00000      17.77193       0.65938       1.24619    -999.25000     -27.22309       9.84292      93.23234      93.20674      54.83858       0.02746       0.56914    5722.89941    2722.89966    -999.25000       0.05186
    3912.50000      39.32800       2.62138      17.50000     258.92743       0.85737     304.63647     314.29416       0.82785      17.86448      17.87973      17.76833      18.16484    2617.00000      17.79370       0.65787       1.17045    -999.25000     -26.54878      11.22896      92.49759      93.09736      54.51587      -0.64632       0.52397    5724.58789    2724.58765    -999.25000       0.04958
    3912.00000      40.32481       2.62304      17.50000     258.86804       0.85377     304.52670     314.34454       0.82450      17.86510      17.94712      17.77398      18.18780    2611.66675      17.77193       0.64408       1.09953    -999.25000     -25.31729      13.03686      92.09572      91.85043      54.66553       0.26670       0.47765    5725.89502    2725.89502    -999.25000       0.05064
    3911.50000      40.51871       2.63559      17.50000     258.82327       0.85070     304.41348     314.41293       0.82355      17.86448      17.95310      17.79938      18.23946    2615.25000      17.78282       0.62701       1.02807    -999.25000     -24.03477      14.76531      93.23302      92.43545      54.53182       0.85914       0.42873    5726.83398    2726.83398    -999.25000       0.04969
    3911.00000      40.34077       2.65846      17.50000     258.52264       0.84821     304.30197     314.22382       0.82257      17.86448      17.86357      17.77210      18.15864    2657.75024      17.83726       0.61571       0.96927    -999.25000     -22.74961      16.32376      94.30672      93.61206      55.80084       0.73932       0.36720    5726.84668    2726.84644    -999.25000       0.05866
    3910.50000      33.57788       2.62991      17.50000     258.43890       0.84630     304.19296     314.24905       0.82246      17.86448      17.82738      17.67929      17.90319    2660.00000      17.79370       0.59294       0.92592    -999.25000     -21.25786      17.75442      94.06403      93.72647      56.40548       0.35950       0.29798    5726.25342    2726.25342    -999.25000       0.06294
